id	type	DescriptionTitle	PriceLabel	ListingDate	ReListingDate	Address	Suburb	State	PostCode	Property.lat	Property.lon	PropertyType	Agency.Id	Agency.Type	Agency.Name	Agent.Name	Beds	Baths	Cars	EER	PlotSize	Features
168852263	RENTAL_RESIDENTIAL	Bright & Sunny, Open Plan Living, Modern Kitchen, Huge Double Garage and Studio, Pets OK	$795 per week	2014-01-03 01:05:41		24 Badgery Street	Macquarie	ACT	2614	-35.2517439	149.06501	HOUSE	38035	PrivateLister	Private Lister		3.0	1	2		900.8	['AIR_CONDITIONING', 'AIR_CONDITIONING_OTHER', 'DINING_ROOM', 'ENCLOSED_BACKYARD', 'HEATING_REVERSE_CYCLE', 'PETS_ALLOWED', 'SEPARATE_TOILET']
168852603	RENTAL_RESIDENTIAL	Modern 3 bedroom residence in Stirling	$680 per week	2014-01-03 06:31:29		(no street name provided)	Stirling	ACT	2611	-35.3533661	149.0500908	HOUSE	67065	PrivateLister	Private Lister		3.0	2	3	6.0	915.3	['AIR_CONDITIONING', 'AIR_CONDITIONING_OTHER', 'ALLOCATED_CAR_SPACE', 'ENCLOSED_BACKYARD', 'HEATING_CENTRAL', 'HEATING_REVERSE_CYCLE', 'SEPARATE_TOILET']
168860702	RENTAL_RESIDENTIAL	Excellent  Apartment in Sky Plaza	$480 per week	2014-01-10 04:50:00		8/60 Callam Street	Phillip	ACT	2606	-35.34520564	149.08844211	APARTMENT	208355	PrivateLister	Private Lister			1	1	5.0	8023.1	['AIR_CONDITIONING', 'AIR_CONDITIONING_OTHER', 'ALARM', 'CEILING_FANS', 'DINING_ROOM', 'ELECTRIC_HEATING', 'FULLY_FURNISHED', 'SEPARATE_TOILET']
168875275	RENTAL_RESIDENTIAL		$700 per week	2014-01-21 07:25:30		(no street name provided)	Dickson	ACT	2602	-35.2522281	149.1460457	HOUSE	67065	PrivateLister	Private Lister		3.0	1	1		596.4	['ALLOCATED_CAR_SPACE', 'ELECTRIC_HEATING', 'ENCLOSED_BACKYARD', 'FAMILY_ROOM']
168881532	RENTAL_RESIDENTIAL	A house FOR SHARE in Palmerston ACT	$180 per week	2014-01-24 07:21:02		(no street name provided)	Palmerston	ACT	2913	-35.1957728689045	149.121603551473	HOUSE	31315	PrivateLister	Private Lister		7.0	3	1		10681.4	['FULLY_FURNISHED', 'SEPARATE_TOILET']
168888312	RENTAL_RESIDENTIAL	Great self contained flat in Curtin	$330 per week	2014-01-30 11:17:43		2/102 Carruthers Street	Curtin	ACT	2605	-35.32503508	149.08318648	UNIT	34425	PrivateLister	Private Lister		1.0	1	1		810.1	['ALLOCATED_CAR_SPACE', 'PARTIALLY_FURNISHED', 'SELF_CONTAINED_FLAT', 'SEPARATE_TOILET']
168895852	RENTAL_RESIDENTIAL	1 Bedroom plus Study apartment in Gungahlin Square	$360 per week	2014-02-05 23:05:00		10 Hinder Street	Gungahlin	ACT	2912	-35.18600927	149.13711224	UNIT	102315	PrivateLister	Private Lister		1.0	1	2		17188.0	['AIR_CONDITIONING', 'AIR_CONDITIONING_OTHER', 'ALLOCATED_CAR_SPACE', 'HEATING_REVERSE_CYCLE', 'STUDY']
168906834	RENTAL_RESIDENTIAL	Beautiful, spacious & modern family home!	$850 per week	2014-02-13 16:19:00	2022-02-08 10:58:35	56 Bieundurry Street	Bonner	ACT	2914	-35.1527794058383	149.137100746559	HOUSE	121015	PrivateLister	Private Lister		4	2	2	6		['AIR_CONDITIONING', 'AIR_CONDITIONING_OTHER', 'ALARM', 'ENCLOSED_BACKYARD', 'PETS_ALLOWED', 'SEPARATE_TOILET', 'STUDY', 'WASH_CLOSET']
