id	type	DescriptionTitle	PriceLabel	ListingDate	ReListingDate	Address	Suburb	State	PostCode	Property.lat	Property.lon	PropertyType	Agency.Id	Agency.Name	Agent.Name	Beds	Baths	Cars	EER	PlotSize
50582	rental	Fantastic Inner South Location	$920	2019-08-26T14:33:19.479149+10:00	2021-11-23T16:47:12.970729+11:00	286 Goyder Street	NARRABUNDAH	ACT	2604	149.1426363	-35.3409187	House	443	LJ Hooker Manuka	Leasing Consultant	4	2	2	0.0	
53008	rental	Fantastic Two Bedroom in Belconnen	$520 per week	2019-08-22T13:37:01.305539+10:00	2022-01-21T15:01:31.626518+11:00	110/99 Eastern Valley Way	BELCONNEN	ACT	2617	149.0733254	-35.2422038	Apartment	443	LJ Hooker Manuka	Leasing Consultant	2	2	2		
60543	rental	Luxury apartment - be quick!	$540 pw	2019-09-25T16:05:05.959495+10:00	2022-07-05T12:16:34.094659+10:00	44/11 Kerridge Street	KINGSTON	ACT	2604	149.1496433	-35.3134035	Apartment	443	LJ Hooker Manuka	Leasing Consultant	1	1	1		
60610	rental	LUXURY LIVING	$680 pw	2019-08-13T13:58:00.939610+10:00	2022-07-05T15:16:48.139961+10:00	8/19 Leichardt Street	KINGSTON	ACT	2604	149.1418962	-35.3181023	Apartment	443	LJ Hooker Manuka	Leasing Consultant	2	2	1		
61164	rental	MODERN ONE BEDROOM APARTMENT	$500 pw	2019-08-22T12:04:26.342939+10:00	2022-07-15T12:32:18.676982+10:00	5/34 Dooring Street	DICKSON	ACT	2602	149.1346346	-35.2603741	Apartment	443	LJ Hooker Manuka	Leasing Consultant	1	1	1	0.0	
