id	type	DescriptionTitle	PriceLabel	ListingDate	ReListingDate	Address	Suburb	State	PostCode	Property.lat	Property.lon	PropertyType	Agency.Id	Agency.Type	Agency.Name	Agent.Name	Beds	Baths	Cars	EER	PlotSize	Features
178763268	SALES_RESIDENTIAL	Renovated Town Residence With Water Views	$459,000+	2020-10-01 00:00:49		12/25 Wootton Crescent	Gordon	ACT	2906	-35.4568439	149.0798708	APARTMENT	422	Agent	Luton Properties Tuggeranong	Michael Martin	3.0	2	1	4.0	190.0	[]
178763313	SALES_RESIDENTIAL	Trendy Cottage Home on the City Fringe	$599,000+	2020-10-01 00:10:50		24 George Street	Oaks Estate	ACT	2620	-35.3395391	149.2298731	HOUSE	535149	Agent	inStyle Estate Agents 	George Nikolic	3.0	1	1	4.5	0.0	[]
178603902	SALES_RESIDENTIAL	Woolstore Apartments - Type D - Last remaining	$460,000	2020-10-01 00:11:48		Kingsborough - Woolstore Apartments - Move In Now!	Kingston	ACT	2604	-35.31690641322629	149.149563967589	OTHER	865503	Agent	Kingsborough Developments	Kingsborough	1.0	1	1	7.4		['AIR_CONDITIONING_REVERSE_CYCLE', 'BODY_CORPORATE', 'DOUBLE_GLAZED_WINDOWS', 'ELECTRIC_GARAGE_DOORS', 'GYM', 'INTERCOM', 'NEW_CONSTRUCTION', 'OFF_STREET_PARKING', 'PLANS_APPROVED', 'SAUNA', 'SHOWER', 'SLAB_CONSTRUCTION', 'SOLAR_PANELS', 'SUNROOM', 'SWIMMING_POOL', 'SWIMMING_POOL_INDOOR', 'UNDERGROUND_PARKING']
178763272	SALES_RESIDENTIAL	Inner City Comfort	$374,000	2020-10-01 00:30:58		79/12 David Street	Turner	ACT	2612	-35.2614549	149.1309679	APARTMENT	857413	Agent	Badenoch Real Estate Sales	Symon Badenoch	1.0	1	1	6.0	0.0	[]
178763566	SALES_RESIDENTIAL	Retire in Style	299,000+	2020-10-01 00:51:03		19/177 Badimara Street	Fisher	ACT	2611	-35.35845629999999	149.0566664	RETIREMENT_VILLAGE	572	Agent	LJ Hooker Dickson	Nic Salter-Harding	2.0	1	1	5.5	0.0	[]
178763595	SALES_RESIDENTIAL	ART DECO APARTMENT IN PREMIER LOCALE	$669,000	2020-10-01 01:31:07		4/72 Canberra Avenue	Griffith	ACT	2603	-35.320192799999994	149.1368947	APARTMENT	572389	Agent	Belle Property Kingston	Dan McAlpine	2.0	1	2	3.5	3409.0	['STUDY']
178763997	SALES_RESIDENTIAL	Desirable Inner South Living	EOI Until 22nd Oct	2020-10-01 01:40:54		(no street name provided)	Yarralumla	ACT	2600	-35.311033	149.11056630000004	APARTMENT	421	Agent	Luton Properties Dickson	Melissa Martin-Smith	1.0	1	1	6.0	0.0	[]
178759220	SALES_RESIDENTIAL	spacious private apartment.	$785,000+	2020-10-01 02:26:23		151/56 Eyre Street	Kingston	ACT	2604	-35.31565018	149.1459896	APARTMENT	50	Agent	PURNELL	Nick Purnell	3.0	2	2	6.0		['AIR_CONDITIONING_REVERSE_CYCLE', 'BODY_CORPORATE', 'DISHWASHER', 'ENTRANCE_HALL', 'INTERCOM', 'STUDY', 'UNDERGROUND_PARKING', 'WALK_IN_ROBE']
178763896	SALES_RESIDENTIAL	spacious corner apartment.	$485,000+	2020-10-01 02:30:43		9/5 Sydney Avenue	Barton	ACT	2600	-35.31282742	149.13331795	APARTMENT	50	Agent	PURNELL	Nick Purnell	1.0	1	1	6.0		['AIR_CONDITIONING_REVERSE_CYCLE', 'BODY_CORPORATE', 'DISHWASHER', 'INTERCOM', 'OUTDOOR_ENTERTAINING_AREA']
178754325	SALES_RESIDENTIAL	1 bedroom courtyard unit in the heart of Lyneham!	$270,000+	2020-10-01 02:58:03		5A/62 Wattle Street	Lyneham	ACT	2602	-35.25376727	149.1267505	UNIT	72	Agent	Wright Dunn Real Estate	Peter Andrighetto	1.0	1	1	1.5	8763.0	['BODY_CORPORATE', 'ENTRANCE_HALL', 'OFF_STREET_PARKING', 'OUTDOOR_ENTERTAINING_AREA']
178764261	SALES_RESIDENTIAL	Best Location & Best City living in 2021 Level 10	Price to sell - Contact Agent	2020-10-01 03:01:50		265/Metropol Luxury 2 Bedroom Apartment	Reid	ACT	2612	-35.2802244	149.1364364	APARTMENT	435947	Agent	Leader Capital Real Estate	Tony Yip	2.0	2	2	6.0	0.0	['AIR_CONDITIONING_REVERSE_CYCLE', 'DISHWASHER']
178743281	SALES_RESIDENTIAL	The Perfect Home and Location Awaits	$619,900	2020-10-01 04:05:10		Rockwell - The Perfect Home and Location Awaits	Bruce	ACT	2617	-35.2416881314302	149.101469556726	TOWNHOUSE	535149	Agent	inStyle Estate Agents 	Alex Robson	3.0	2	2			[]
178764910	SALES_RESIDENTIAL	Fantastic entry-level offering in a sought after location	By Negotiation	2020-10-01 04:20:59		4 Cottam Place	Nicholls	ACT	2913	-35.1816961	149.1061436	HOUSE	84655	Agent	McGrath North Canberra	Theo Koutsikamanis	4.0	2	2	4.0	663.0	[]
178765142	SALES_RESIDENTIAL	Designer life style precinct	$525,000	2020-10-01 04:30:53		403/25 Edinburgh Avenue	Acton	ACT	2601	-35.284914	149.1225939	APARTMENT	73	Agent	Luton Properties Manuka	Sophie Luton	1.0	1	1	6.0	0.0	[]
178764954	SALES_RESIDENTIAL	Beautifully maintained and light-filled apartment!	Offers above $305,000 invited	2020-10-01 04:40:57		19/132 Thynne Street	Bruce	ACT	2617	-35.242656	149.0992618	APARTMENT	637551	Agent	Harcourts Prime Residential	Tim Stafford	1.0	1	1	6.0	0.0	[]
178765063	SALES_RESIDENTIAL	Large full brick 2 bedroom apartment	$589,000+	2020-10-01 04:41:43		19/5 Howitt Street	Kingston	ACT	2604	-35.31526320000001	149.1434455	APARTMENT	686333	Agent	Francis Properties Canberra	Jeremy Francis	2.0	2	1	0.5	0.0	[]
178765857	SALES_RESIDENTIAL	Simply breathtaking! Magnificent house, self-contained flat plus pool	Offers Over $1,400,000	2020-10-01 05:20:38		12 Mountain Circuit	Calwell	ACT	2905	-35.4366334	149.1092658	HOUSE	422	Agent	Luton Properties Tuggeranong	Andrew Campbell	5.0	5	0	4.5	934.0	['STUDY']
178768146	SALES_RESIDENTIAL	Wow- North facing, 3 bed 3 bath 2 car and study	$710,000+	2020-10-01 19:59:30		25/10 MacPherson Street	O'Connor	ACT	2602	-35.26363988	149.12193226	APARTMENT	10905	Agent	Edge Real Estate	Steve Thomas	3.0	3	2	3.5		['AIR_CONDITIONING_SPLIT_SYSTEM', 'BODY_CORPORATE', 'DINING_ROOM', 'DISHWASHER', 'FORMAL_LOUNGE_ROOM', 'OUTDOOR_ENTERTAINING_AREA', 'UNDERGROUND_PARKING']
178763351	SALES_RESIDENTIAL	Absolute Waterfront Location	$1,100,000	2020-10-01 21:47:01		69/11 Eastlake Parade	Kingston	ACT	2604	-35.3102619	149.14369908	APARTMENT	3498	Agent	Berkely Residential	Peter Salapatas	2.0	2	2	6.0		['AIR_CONDITIONING_REVERSE_CYCLE', 'ATRIUM', 'BODY_CORPORATE', 'BROADBAND', 'DISHWASHER', 'DOUBLE_GLAZED_WINDOWS', 'ELECTRIC_GARAGE_DOORS', 'ENTRANCE_HALL', 'FORMAL_LOUNGE_ROOM', 'HOPPER', 'INTERCOM', 'NETWORK_CABLING', 'SLAB_CONSTRUCTION', 'STUDY', 'UNDERGROUND_PARKING', 'WATERFRONT', 'WATER_VIEWS']
178768160	SALES_RESIDENTIAL	Light filled three-bedroom in the heart of Kingston	Under Offer	2020-10-01 22:40:27		35/94 Giles Street	Kingston	ACT	2604	-35.31439370000001	149.1436755	APARTMENT	12	Agent	Blackshaw Manuka	Debbie Maddigan	3.0	2	1	6.0	0.0	[]
178768307	SALES_RESIDENTIAL	Light & airy living with a touch of luxury	$470,000	2020-10-02 00:00:36		49/88 Narrambla Terrace	Lawson	ACT	2617	-35.22847570000001	149.0856355	TOWNHOUSE	5402	Agent	Independent Inner North & City	Aaron Lewis	2.0	2	1	6.0	0.0	[]
178768662	SALES_RESIDENTIAL	Be in by Christmas	$489,000+	2020-10-02 02:20:50		2301/120 Eastern Valley Way	Belconnen	ACT	2617	-35.24071400000001	149.07359530000005	APARTMENT	3285	Agent	Luton Properties Belconnen	Sarah Cooper	2.0	3	2	6.0	4285.0	['AIR_CONDITIONING', 'AIR_CONDITIONING_OTHER']
178754897	SALES_RESIDENTIAL	CONSTRUCTION PRICE ONLY. Build your house with a builder with engineering and design experience & background.	$275,000-$346,000	2020-10-02 03:23:23		(no street name provided)	Taylor	ACT	2913	-35.1459664	149.1085793	HOUSE_AND_LAND_PACKAGE	917942	PrivateLister	Private Lister		4.0	2	2	7.0		[]
177374296	SALES_RESIDENTIAL	2 bedroom - Display at 53 Lowrie Street Dickson	$650,000+	2020-10-02 06:13:00	2020-10-25 13:10:01	Olsen Row - 2 bedroom	Dickson	ACT	2602	-35.25442279999999	149.1359077	OTHER	896643	Agent	Rowan Glanville Projects	Rowan Glanville	2.0	1	2	6.0		['ALLOCATED_CAR_SPACE']
178743148	SALES_RESIDENTIAL	29/74 Leichhardt St	$429,000	2020-10-02 06:46:23		74 Leichhardt Street - 29/74 Leichhardt St	Griffith	ACT	2603	-35.32155758	149.14717186	OTHER	922223	Agent	Independent Inner North & City | Projects	Grahame O'Brien	1.0	1	1	9.1		['ALLOCATED_CAR_SPACE']
178743279	SALES_RESIDENTIAL	North facing oversized corner apartment with a beautiful tree-lined view towards Parliament house	$650,000	2020-10-02 06:48:59		74 Leichhardt Street - 26/74 Leichhardt St	Griffith	ACT	2603	-35.32155758	149.14717186	APARTMENT	922223	Agent	Independent Inner North & City | Projects	Grahame O'Brien	2.0	2	2	8.3		['ALLOCATED_CAR_SPACE']
178695825	SALES_RESIDENTIAL	North facing 2 Bedroom Townhouse on Ground Floor	$640,000	2020-10-02 07:00:41		Kingsborough - 2 Bedroom Townhouse	Kingston	ACT	2604	-35.31690641322629	149.149563967589	TOWNHOUSE	865503	Agent	Kingsborough Developments	Kingsborough	2.0	2	1	8.0		['AIR_CONDITIONING_REVERSE_CYCLE', 'BROADBAND', 'DISHWASHER', 'DOUBLE_GLAZED_WINDOWS', 'OFF_STREET_PARKING', 'SEPARATE_TOILET', 'SHOWER', 'SWIMMING_POOL']
178748467	SALES_RESIDENTIAL	Unit 8, 25 Forbes Street, Turner ACT 2612	$390,000	2020-10-03 04:13:13		8/25 Forbes Street	Turner	ACT	2612	-35.26542713	149.12976589	APARTMENT	918288	PrivateLister	Private Lister		1.0	1	1	6.0	1580.2	['ALLOCATED_CAR_SPACE']
178739017	SALES_RESIDENTIAL	Prestigious Family Home in Outstanding Location!!!	$775,000+	2020-10-03 06:27:02		16 Freshwater Street	Throsby	ACT	2914	-35.19378581	149.16600767	HOUSE	570129	Agent	Trusted Realtors	Rohan Janssen	4.0	3	2	6.0	404.0	[]
178743473	SALES_RESIDENTIAL	Single Level. Low Density. Location.	$690,000+	2020-10-05 00:03:46		12/5 Lane-Poole Place	Yarralumla	ACT	2600	-35.30732705	149.09099254	TOWNHOUSE	578299	Agent	Cargills Property	Scott Cargill	2.0	1	1	4.5		['BODY_CORPORATE']
178775678	SALES_RESIDENTIAL	"""AVOCA"""	Offers over $465,000	2020-10-05 21:50:24		56/116 Easty Street	Phillip	ACT	2606	-35.3465464	149.0906674	APARTMENT	3967	Agent	Blackshaw Queanbeyan & Jerrabomberra	Alexandra Ahkey	2.0	2	2	6.0	0.0	[]
178775660	SALES_RESIDENTIAL	A New Benchmark of Townhouse Living	$460,000+	2020-10-05 23:00:46		013/119 McMichael Terrace	Denman Prospect	ACT	2611	-35.3014547	149.0203448	TOWNHOUSE	535149	Agent	inStyle Estate Agents 	Alexander Anlezark	2.0	2	2	6.0	0.0	[]
178743289	SALES_RESIDENTIAL	3 bed 2 bath 2 car Apartment	$1,029,950	2020-10-06 00:09:33		82W - 3 bed 2 bath 2 car Apartment	Kingston	ACT	2604	-35.32022634	149.14722826	UNIT	620179	Agent	McGrath Projects	Justin Ingram	3.0	2	2	6.0		['ALLOCATED_CAR_SPACE']
178743153	SALES_RESIDENTIAL	3 bed 2 bath 2 car Apartment	$999,950	2020-10-06 00:09:57		82W - 3 bed 2 bath 2 car Apartment	Kingston	ACT	2604	-35.32022634	149.14722826	UNIT	620179	Agent	McGrath Projects	Justin Ingram	3.0	2	2			['ALLOCATED_CAR_SPACE']
178753992	SALES_RESIDENTIAL	CAPE Unit 712 - 2 Bedroom Apartment	$579,900	2020-10-06 02:43:48		DKSN - CAPE Unit 712 - 2 Bedroom Apartment	Dickson	ACT	2602	-35.250386695589796	149.13473965516002	OTHER	513247	Agent	Independent	Independent Projects	2.0	2	1	6.0		['AIR_CONDITIONING_SPLIT_SYSTEM', 'ALLOCATED_CAR_SPACE', 'BODY_CORPORATE', 'DISHWASHER', 'DOUBLE_GLAZED_WINDOWS', 'INTERCOM', 'MOUNTAIN_VIEWS', 'NEW_CONSTRUCTION', 'UNDERGROUND_PARKING']
178753031	SALES_RESIDENTIAL	CAPE Unit 607 - 2 Bedroom Apartment	$489,900	2020-10-06 02:58:27		DKSN - CAPE Unit 607 - 2 Bedroom Apartment	Dickson	ACT	2602	-35.250386695589796	149.13473965516002	OTHER	513247	Agent	Independent	Independent Projects	2.0	1	1	6.0		['AIR_CONDITIONING_SPLIT_SYSTEM', 'ALLOCATED_CAR_SPACE', 'BODY_CORPORATE', 'DISHWASHER', 'DOUBLE_GLAZED_WINDOWS', 'INTERCOM', 'MOUNTAIN_VIEWS', 'NEW_CONSTRUCTION', 'UNDERGROUND_PARKING']
178743611	SALES_RESIDENTIAL	CAPE Unit 705 - 2 Bedroom Apartment	$569,900	2020-10-06 03:02:23		DKSN - CAPE Unit 705 - 2 Bedroom Apartment	Dickson	ACT	2602	-35.250386695589796	149.13473965516002	APARTMENT	513247	Agent	Independent	Independent Projects	2.0	2	1	6.5		['AIR_CONDITIONING_SPLIT_SYSTEM', 'ALLOCATED_CAR_SPACE', 'BODY_CORPORATE', 'DOUBLE_GLAZED_WINDOWS', 'INTERCOM', 'NEW_CONSTRUCTION', 'UNDERGROUND_PARKING']
178778184	SALES_RESIDENTIAL	Centrally located â Plus exceptional lifestyle in Vierra	$379,000 +	2020-10-06 05:10:31		46/235 Flemington Road Road	Franklin	ACT	2913	-35.201405	149.1486045	APARTMENT	285646	Agent	White Rhino Property	John Longmire	2.0	1	2	6.0	0.0	['AIR_CONDITIONING', 'AIR_CONDITIONING_OTHER']
178780933	SALES_RESIDENTIAL	The Perfect Oasis for Relaxed Living and Entertaining	$745,000+	2020-10-06 22:41:31		23/119 McMichael Terrace	Denman Prospect	ACT	2611	-35.3014547	149.0203448	TOWNHOUSE	535149	Agent	inStyle Estate Agents 	Emma Baker	4.0	2	2	6.0	0.0	[]
178781245	SALES_RESIDENTIAL	Rare separately titled residence opposite reserve	$550,000-$600,000	2020-10-07 00:30:57		10 Nuleri Street	Crace	ACT	2911	-35.207453	149.1101378	HOUSE	84655	Agent	McGrath North Canberra	Jess Smith	3.0	2	1	6.0	189.0	[]
178743154	SALES_RESIDENTIAL	Unit 32 - 1 Bedroom Apartment	$480,000	2020-10-07 01:09:32		Illume - Unit 32 - 1 Bedroom Apartment	Griffith	ACT	2603	-35.3212054005561	149.137361464557	OTHER	513247	Agent	Independent	Independent Projects	1.0	1	1	6.0		['AIR_CONDITIONING_REVERSE_CYCLE', 'ALLOCATED_CAR_SPACE', 'BODY_CORPORATE', 'DISHWASHER', 'DOUBLE_GLAZED_WINDOWS', 'INTERCOM', 'NEW_CONSTRUCTION', 'UNDERGROUND_PARKING', 'WALK_IN_PANTRY']
178781970	SALES_RESIDENTIAL	"Choice of 2 stunning apartments in the exciting ""Grand Central Towers"""	$565,900 - $598,900	2020-10-07 01:21:05		Apartment 19 & 278 Grand Central Towers	Phillip	ACT	2606	-35.3441324	149.0868908	APARTMENT	5402	Agent	Independent Inner North & City	Grahame O'Brien	2.0	2	1	6.5	0.0	[]
178768302	SALES_RESIDENTIAL	Stunning & Modern Executive Townhouse	$519,000+	2020-10-07 01:41:53		17/5 Nevertire Street	Lawson	ACT	2617	-35.23321366	149.09131101	TOWNHOUSE	910293	Agent	Hualei Properties Canberra	Li Yu	2.0	4	2	6.0		[]
178782077	SALES_RESIDENTIAL	Tucked Away Terrace	$670,000	2020-10-07 02:00:51		4 Chanter Terrace	Coombs	ACT	2611	-35.3149058	149.0390487	HOUSE	4217	Agent	Civium Property Group - Residential	Josh Finnigan	4.0	3	2	6.0	199.0	['AIR_CONDITIONING', 'AIR_CONDITIONING_OTHER']
178703528	SALES_RESIDENTIAL	Elevated With Great Hilltop Views	$619,000	2020-10-07 02:05:52		4/1 Alan Watt Crescent	Casey	ACT	2913	-35.160361200000004	149.09836556	TOWNHOUSE	904993	Agent	Perkovic Group	Ivan Pavkovic	4.0	3	2	3.5		[]
178782519	SALES_RESIDENTIAL	Single level, freestanding townhouse	Offers over $545,000	2020-10-07 02:30:43		2/3 Fullston Way	Holt	ACT	2615	-35.230002	149.00205780000005	TOWNHOUSE	5399	Agent	Independent Belconnen	Matthew Peden	3.0	2	2	6.5	0.0	[]
178743614	SALES_RESIDENTIAL	Luxury Awaits at your 155m2 3 Bedroom Townhouse	$690,000-$749,000	2020-10-07 02:51:37		Rockwell - Luxury Awaits at your 155m2 3 Bedroom Townhouse	Bruce	ACT	2617	-35.2416881314302	149.101469556726	TOWNHOUSE	535149	Agent	inStyle Estate Agents 	Ante Vatavuk	3.0	3	2	7.6		[]
178782782	SALES_RESIDENTIAL	family.lifestyle.sustainability	$645,000	2020-10-07 03:10:25		13 Harcus Close	Bonython	ACT	2905	-35.4389149	149.08879109999995	HOUSE	577049	Agent	home.byholly	Sally Strang	4.0	2	2	3.5	0.0	[]
178743615	SALES_RESIDENTIAL	Unit 42 - 2 bedroom apartment	$476,500	2020-10-07 03:48:16		Vincent - Unit 42 - 2 bedroom apartment	Denman Prospect	ACT	2611	-35.29642059	149.02481495	OTHER	513247	Agent	Independent	Andrew Nelson	2.0	2	2	6.0		['AIR_CONDITIONING_SPLIT_SYSTEM', 'ALLOCATED_CAR_SPACE', 'BODY_CORPORATE', 'DISHWASHER', 'DOUBLE_GLAZED_WINDOWS', 'INTERCOM', 'UNDERGROUND_PARKING']
178743155	SALES_RESIDENTIAL	Unit 51 - 2 bedroom apartment	$482,500	2020-10-07 03:54:01		Vincent - Unit 51 - 2 bedroom apartment	Denman Prospect	ACT	2611	-35.29642059	149.02481495	OTHER	513247	Agent	Independent	Andrew Nelson	2.0	2	2	6.0		['AIR_CONDITIONING_SPLIT_SYSTEM', 'ALLOCATED_CAR_SPACE', 'BODY_CORPORATE', 'DISHWASHER', 'DOUBLE_GLAZED_WINDOWS', 'INTERCOM', 'UNDERGROUND_PARKING']
178783816	SALES_RESIDENTIAL	An apartment that defines the metropolitan dream	Auction 12/11/20	2020-10-07 04:10:27		59/53 Dawes Street	Kingston	ACT	2604	-35.316223	149.1462535	APARTMENT	3285	Agent	Luton Properties Belconnen	Tim and Annabelle McInnes	2.0	2	2	4.5	0.0	[]
178783760	SALES_RESIDENTIAL	Home Sweet Home	$550,000+	2020-10-07 04:21:39		23A Narrambla Terrace	Lawson	ACT	2617	-35.22859060000001	149.086896	VILLA	514317	Agent	Impact Properties	Shaun Iqbal	3.0	3	2	6.0	0.0	['AIR_CONDITIONING', 'AIR_CONDITIONING_OTHER', 'BROADBAND', 'DISHWASHER', 'OUTDOOR_ENTERTAINING_AREA']
178783710	SALES_RESIDENTIAL	Massive light filled home right next to the light rail. Ready for move in!	$510,000	2020-10-07 04:31:09		77/227 Flemington Road	Franklin	ACT	2913	-35.20238270000001	149.1482214	APARTMENT	139235	Agent	PRD Canberra	Mihailo Dragicevic	3.0	2	2	4.5	0.0	['DISHWASHER', 'GYM', 'TENNIS_COURT']
178782944	SALES_RESIDENTIAL	Chic Inner City Living with Park Views	$835,000	2020-10-07 05:02:03		308/6 Provan Street	Campbell	ACT	2612	-35.2887474	149.14387140000005	APARTMENT	73	Agent	Luton Properties Manuka	Richard Luton	3.0	2	2	6.0	0.0	[]
178785245	SALES_RESIDENTIAL	Spacious two bedroom apartment in prime location	Over $370,000	2020-10-07 07:10:13		74/120 Thynne Street	Bruce	ACT	2617	-35.24381029999999	149.0983895	APARTMENT	883084	Agent	McGrath South Canberra	Cameron Whitnall	2.0	1	2	6.0	0.0	['ALLOCATED_CAR_SPACE']
178786659	SALES_RESIDENTIAL	Ground floor apartment with a fantastic north-facing terrace living	$579,000+	2020-10-07 13:10:16		19/7 Hopegood Place	Garran	ACT	2605	-35.3441427	149.10682169999995	APARTMENT	854944	Agent	Blackshaw Woden, Weston Creek & Molonglo	Rick Dickson	2.0	2	2	6.0	0.0	[]
178786622	SALES_RESIDENTIAL	CHARM. ASTHETIC. CONTEMPORARY.	$1,050,000 +	2020-10-07 20:30:25		17 Macartney Crescent	Deakin	ACT	2600	-35.3158908	149.0999802	HOUSE	854944	Agent	Blackshaw Woden, Weston Creek & Molonglo	Anthony Weston	2.0	1	2	4.0	0.0	[]
178787080	SALES_RESIDENTIAL	Outstanding 3 Bedroom, Close to Shops and School - THIS IS A GEM	$429,000+	2020-10-07 21:30:17		1/15 Bill Ferguson Circuit	Bonner	ACT	2914	-35.1638856	149.1356161	APARTMENT	631459	Agent	Canberra Property Partners 	Brett Russell	3.0	2	2	3.5	0.0	['AIR_CONDITIONING_SPLIT_SYSTEM', 'BROADBAND', 'DISHWASHER', 'HEATING_OTHER', 'OUTDOOR_ENTERTAINING_AREA']
178787029	SALES_RESIDENTIAL	Two Storey Terrace Style Home	$494,000	2020-10-07 21:30:27		39/88 Narrambla Terrace	Lawson	ACT	2617	-35.22847570000001	149.0856355	TOWNHOUSE	73	Agent	Luton Properties Manuka	Sophie Luton	2.0	2	1	4.5	0.0	[]
178787030	SALES_RESIDENTIAL	Two Storey Terrace Style Home	$576,000	2020-10-07 21:30:41		26/88 Narrambla Terrace	Lawson	ACT	2617	-35.22847570000001	149.0856355	TOWNHOUSE	73	Agent	Luton Properties Manuka	Sophie Luton	3.0	2	2	4.5	0.0	[]
178787005	SALES_RESIDENTIAL	The Kingston Lifestyle Awaits	$365,000 - $375,000	2020-10-07 21:50:38		1/12 Howitt Street	Kingston	ACT	2604	-35.3162152	149.1436466	APARTMENT	98	Agent	LJ Hooker Manuka	Tyran Murphy	1.0	1	1	3.5	0.0	['AIR_CONDITIONING_REVERSE_CYCLE', 'DISHWASHER', 'FULLY_FURNISHED', 'SWIMMING_POOL']
178787023	SALES_RESIDENTIAL	One of a kind – Renovated Apartment!	$559,000	2020-10-07 22:00:28		243/1 Mouat Street	Lyneham	ACT	2602	-35.2485434	149.1327576	APARTMENT	915643	Agent	VERV Property	Jason Roses	2.0	2	2	6.0	0.0	[]
178787228	SALES_RESIDENTIAL	First Time Offered for Sale	$1,150,000	2020-10-07 23:41:33		34 Dalrymple Street	Red Hill	ACT	2603	-35.3417646	149.13779169999995	HOUSE	73	Agent	Luton Properties Manuka	Geraldine Collison	3.0	1	1	1.5	816.0	[]
178770460	SALES_RESIDENTIAL	CONVENIENTLY LOCATED FULLY FURNISHED 1BR UNIT RENT $316PW	$235,000	2020-10-07 23:49:38		12/46 McMillan Crescent	Narrabundah	ACT	2604	-35.32518191	149.15142928	UNIT	350395	Agent	Maureen Dwyer Property Consultant	Maureen Dwyer	1.0	1	1	5.0		['BODY_CORPORATE', 'FULLY_FURNISHED', 'HOPPER', 'OFF_STREET_PARKING', 'OUTDOOR_ENTERTAINING_AREA', 'SHOWER', 'SLAB_CONSTRUCTION']
178787135	SALES_RESIDENTIAL	Well Presented 2 Bedroom townhouse only a stone's throw away from the light rail	$450,000+	2020-10-08 00:01:41		10/70 Kings Canyon Street	Harrison	ACT	2914	-35.2073127	149.14881630000005	UNIT	252785	Agent	Luton Properties Gungahlin	Alysia Walsh	2.0	3	2	6.0	0.0	['AIR_CONDITIONING', 'AIR_CONDITIONING_OTHER']
178787488	SALES_RESIDENTIAL	Delightful 4 bedrooms townhouse-perfectly presented	$660,000+	2020-10-08 00:10:55		16/50 Peter Cullen Way	Wright	ACT	2611	-35.3232282	149.0352975	TOWNHOUSE	285646	Agent	White Rhino Property	John Longmire	4.0	2	2	5.0	0.0	['AIR_CONDITIONING', 'AIR_CONDITIONING_OTHER']
178787459	SALES_RESIDENTIAL	THE ENTERTAINER	By Negotiation	2020-10-08 00:21:00		39 Hicks Street	Red Hill	ACT	2603	-35.3361905	149.1295158	HOUSE	572389	Agent	Belle Property Kingston	Linda Lockwood	5.0	2	3	4.5	878.0	[]
178787546	SALES_RESIDENTIAL	million.dollar.views MOTIVATED VENDORS - OFFERS INVITED	$449,000	2020-10-08 00:21:20		32/77 Gozzard Street	Gungahlin	ACT	2912	-35.1818378	149.1329625	APARTMENT	577049	Agent	home.byholly	Jenny Michael And Mark McReynolds	2.0	2	2	6.0	0.0	[]
178787527	SALES_RESIDENTIAL	Elevated Position. Quality Design. Home.	$535,000	2020-10-08 00:30:38		017/119 McMichael Terrace	Denman Prospect	ACT	2611	-35.3014547	149.0203448	TOWNHOUSE	535149	Agent	inStyle Estate Agents 	Alexander Anlezark	3.0	2	2	6.0	0.0	[]
178787519	SALES_RESIDENTIAL	EFFORTLESS IN ELLIOTT	$2,250,000	2020-10-08 00:31:09		4 Elliott Street	Campbell	ACT	2612	-35.2915347	149.15515259999995	HOUSE	572389	Agent	Belle Property Kingston	Samantha Granter	4.0	3	2	5.0	0.0	[]
178480633	SALES_RESIDENTIAL	Exquisitely Renovated Loft Style Apartment	$789,000+	2020-10-08 00:48:32		41/94 Giles Street	Kingston	ACT	2604	-35.31439370000001	149.1436755	APARTMENT	50	Agent	PURNELL	Nick Purnell	3.0	2	1	3.0	0.0	['AIR_CONDITIONING_REVERSE_CYCLE', 'BODY_CORPORATE', 'MOUNTAIN_VIEWS', 'OUTDOOR_ENTERTAINING_AREA', 'STUDY']
178787492	SALES_RESIDENTIAL	Executive family home with multiple living options set on a substantial block	$1,135,000+	2020-10-08 01:01:11		38 Ruby Hunter Rise	Moncrieff	ACT	2914	-35.1628554	149.1188441	HOUSE	84655	Agent	McGrath North Canberra	Theo Koutsikamanis	5.0	4	2	5.5	673.0	[]
178787733	SALES_RESIDENTIAL	Modern Home in an Established Suburb. Two Courtyards. Two Master Rooms. Ready for move in now!	Offers Over 475,000	2020-10-08 01:11:44		1/9 Houghton Place	Spence	ACT	2615	-35.1938881	149.0642369	TOWNHOUSE	139235	Agent	PRD Canberra	Alex Wang	2.0	2	2	6.0	0.0	['AIR_CONDITIONING', 'AIR_CONDITIONING_OTHER', 'DISHWASHER', 'HEATING_GAS']
178787534	SALES_RESIDENTIAL	The best of the best	By Negotiation	2020-10-08 01:20:57		83 Ivo Whitton Circuit	Kambah	ACT	2902	-35.3923049	149.03560469999996	HOUSE	377855	Agent	One Agency Sandy Morris	Sandy Morris	5.0	3	3	5.5	1098.0	[]
178787744	SALES_RESIDENTIAL	Outstanding first home or investment opportunity	Offers Over $549,000	2020-10-08 01:31:10		7 Collyburl Crescent	Isabella Plains	ACT	2905	-35.4264937	149.0946466	HOUSE	5405	Agent	Independent Tuggeranong	Jacob Stanton	3.0	1	2	2.5	662.0	[]
178787863	SALES_RESIDENTIAL	Your Next Haven	$1,290,000+	2020-10-08 01:42:02		41 McIntyre Street	Narrabundah	ACT	2604	-35.33265510000001	149.1442288	HOUSE	188615	Agent	McIntyre Property	Kellie Chalker-Hall	4.0	3	3	4.5	752.0	['AIR_CONDITIONING', 'AIR_CONDITIONING_OTHER']
178788016	SALES_RESIDENTIAL	Renowned and sought after Willemsen design	$710,000+	2020-10-08 01:51:58		47/94 Giles Street	Kingston	ACT	2604	-35.314226	149.1434731	UNIT	421	Agent	Luton Properties Dickson	Aniko and Peter Carey	3.0	2	1	3.0	0.0	[]
178787693	SALES_RESIDENTIAL	SPACIOUS 2-BEDROOM CORNE RVIEW APARTMENT WITH CENTRAL BELCONNEN LOCATION	＄379,000	2020-10-08 01:52:02		270/84 Chandler Street	Belconnen	ACT	2617	-35.2426424	149.0704648	APARTMENT	876743	Agent	Avantus Capital	Celiya Young	2.0	1	1	6.0	0.0	[]
178787914	SALES_RESIDENTIAL	Spacious Apartment with Panoramic Views	$459,500	2020-10-08 02:10:42		703/17 Dooring Street	Braddon	ACT	2612	-35.2611399	149.1339243	APARTMENT	421	Agent	Luton Properties Dickson	Aniko and Peter Carey	2.0	1	1	6.0	0.0	[]
178770940	SALES_RESIDENTIAL	When rarity becomes a reality	$799,000+	2020-10-08 04:34:16		8 Donohoe Place	Gordon	ACT	2906	-35.44954144	149.08581229	HOUSE	462427	Agent	One Agency Andrew Thorpe	Andrew Thorpe	4.0	2	3	2.0		['AIR_CONDITIONING_EVAPORATIVE', 'ALARM', 'DISHWASHER', 'ENCLOSED_BACKYARD', 'FAMILY_ROOM', 'FORMAL_LOUNGE_ROOM', 'GARDEN_SHED', 'HEATING_GAS_CENTRAL', 'HEATING_WOOD_FIRE', 'PERGOLA', 'SEPARATE_TOILET', 'SHOWER', 'SOLAR_PANELS', 'SPA_OUTDOOR', 'THREE_PHASE_POWER']
178789436	SALES_RESIDENTIAL	Beautifully Presented One Bedroom Plus Study	$299,000+	2020-10-08 04:41:25		320/325 Anketell Street	Greenway	ACT	2900	-35.4215945	149.0725767	APARTMENT	422	Agent	Luton Properties Tuggeranong	Michael Martin	1.0	1	1	6.0	0.0	[]
178789966	SALES_RESIDENTIAL	LOW MAINTENANCE HIGH QUALITY HOME	Auction 11/11/20	2020-10-08 05:10:41	2020-10-28 21:52:22	2 Obad Street	Denman Prospect	ACT	2611	-35.3076541	149.0211954	HOUSE	572389	Agent	Belle Property Kingston	Michael Pead	3.0	2	2	4.5	247.0	[]
178768284	SALES_RESIDENTIAL	Iconic Mayfair	$415,000	2020-10-08 05:30:17		97/45 West Row	City	ACT	2601	-35.27859659	149.12734576	APARTMENT	377855	Agent	One Agency Sandy Morris	Sandy Morris	1.0	1	1	6.0	0.0	['DOUBLE_GLAZED_WINDOWS', 'ELECTRIC_GARAGE_DOORS', 'HOPPER', 'OFF_STREET_PARKING', 'OUTDOOR_KITCHEN', 'SHOWER']
178790321	SALES_RESIDENTIAL	Location and Style!	$750,000+	2020-10-08 06:10:51		2 Redbank Street	Harrison	ACT	2914	-35.18822249999999	149.15231930000004	HOUSE	252785	Agent	Luton Properties Gungahlin	Katrice Velnaar	4.0	2	2	4.0	486.0	[]
178786770	SALES_RESIDENTIAL	A Residential Estate of Extraordinary Beauty and Refinement	EOI 11/11/20	2020-10-08 13:22:25		82 Empire Circuit	Deakin	ACT	2600	-35.3141484	149.11339104	HOUSE	3498	Agent	Berkely Residential	Bill Lyristakis	5.0	4	6	3.0	2816.0	['AIR_CONDITIONING_REVERSE_CYCLE', 'ALARM', 'BREAKFAST_ROOM', 'BROADBAND', 'CIRCULAR_DRIVEWAY', 'DINING_ROOM', 'DISHWASHER', 'DOUBLE_GLAZED_WINDOWS', 'DUCTED_VACCUM', 'ELECTRIC_GARAGE_DOORS', 'ENCLOSED_BACKYARD', 'ENTRANCE_HALL', 'FAMILY_ROOM', 'FENCING', 'FORMAL_LOUNGE_ROOM', 'HEATING_IN_SLAB', 'HEATING_WOOD_FIRE', 'INTERCOM', 'IRRIGATION', 'NETWORK_CABLING', 'OUTDOOR_ENTERTAINING_AREA', 'OUTDOOR_KITCHEN', 'POND_WATER_FEATURE', 'POWDER_ROOM', 'RUMPUS_ROOM', 'SLAB_CONSTRUCTION', 'SPRINKLERS', 'SWIMMING_POOL', 'TENNIS_COURT', 'UNDERGROUND_PARKING', 'WALK_IN_PANTRY', 'WALK_IN_ROBE']
178726750	SALES_RESIDENTIAL	Brand new apartment on Northbourne Avenue	$479,900+	2020-10-08 13:49:56		110/253 Northbourne Avenue	Lyneham	ACT	2602	-35.2578029	149.1320501	APARTMENT	864753	Agent	Cercis Property	Jane Yang	2.0	2	2	6.0		['AIR_CONDITIONING_REVERSE_CYCLE', 'ALLOCATED_CAR_SPACE', 'BODY_CORPORATE', 'BROADBAND', 'DISHWASHER', 'FAMILY_ROOM', 'MOUNTAIN_VIEWS', 'NEW_CONSTRUCTION', 'OUTDOOR_ENTERTAINING_AREA', 'PLANS_APPROVED', 'SHOWER', 'UNDERGROUND_PARKING', 'WASH_CLOSET']
178791834	SALES_RESIDENTIAL	Brand New Home - Ready to Move in upon Purchase !	By Negotiation	2020-10-08 21:30:17		11B Holland Street	MacGregor	ACT	2615	-35.2121104	149.0208151	HOUSE	514317	Agent	Impact Properties	Anish Sebastian	3.0	2	1	6.0	0.0	['AIR_CONDITIONING', 'AIR_CONDITIONING_OTHER', 'BROADBAND', 'STUDY']
178792388	SALES_RESIDENTIAL	An Exceptionally Rare Opportunity	$2,500,000+	2020-10-08 23:41:26		18 Kallaroo Road	Pialligo	ACT	2609	-35.311977	149.180677	LAND	12	Agent	Blackshaw Manuka	Andrew Chamberlain	0.0	0	0		25850.0	[]
175954479	SALES_RESIDENTIAL	Renovated Four Bedroom Apartment	$485,000-$520,000	2020-10-08 23:44:41		34/18 Glenmaggie Street	Duffy	ACT	2611	-35.336079	149.03333869999997	APARTMENT	50	Agent	PURNELL	Nick Purnell	4.0	2	1	3.5	8005.0	['AIR_CONDITIONING_REVERSE_CYCLE', 'BODY_CORPORATE', 'CORE_AREA', 'DINING_ROOM', 'FORMAL_LOUNGE_ROOM', 'OFF_STREET_PARKING', 'OUTDOOR_ENTERTAINING_AREA']
178792390	SALES_RESIDENTIAL	Timeless Elegance + New World Luxury	$1,950,000	2020-10-09 00:01:27		48 Cowper Street	Ainslie	ACT	2602	-35.2595467	149.1419635	HOUSE	80917	Agent	Ray White Canberra 	Peter Walker	4.0	2	2	5.0	885.0	['AIR_CONDITIONING', 'AIR_CONDITIONING_OTHER']
178792727	SALES_RESIDENTIAL	"""Metropol"" in Reid"	$610,000-$670,000	2020-10-09 01:11:24		315/81 Cooyong Street	Reid	ACT	2612	-35.27983610000001	149.135986	APARTMENT	84655	Agent	McGrath North Canberra	Kris Hellier	2.0	2	2	7.0	0.0	[]
178792728	SALES_RESIDENTIAL	Flexible living, peaceful location	$499,000+	2020-10-09 01:40:44		111/9 The Causeway	Kingston	ACT	2604	-35.31697570000001	149.1501406	APARTMENT	896193	Agent	Rowan Glanville	Rowan Glanville	2.0	1	1	6.0	75.0	[]
178792693	SALES_RESIDENTIAL	Exception buying is a great location.	By Negotiation	2020-10-09 01:41:44		48A Kalgoorie Crescent	Fisher	ACT	2611	-35.3625875	149.05864519999997	HOUSE	854944	Agent	Blackshaw Woden, Weston Creek & Molonglo	Robert Peaker	3.0	2	2	3.0	0.0	['AIR_CONDITIONING', 'AIR_CONDITIONING_OTHER']
178794761	SALES_RESIDENTIAL	Safe As Houses Investment Opportunity	$659,000	2020-10-09 06:00:52		(no street name provided)	Amaroo	ACT	2914	-35.1714545	149.1356385	HOUSE	421	Agent	Luton Properties Dickson	Melissa Martin-Smith	3.0	2	2	4.0	453.0	[]
178795886	SALES_RESIDENTIAL	Urban Sanctuary	$323,000+	2020-10-09 08:31:10		19/60 John Gorton Drive	Coombs	ACT	2611	-35.32128723	149.04044893	APARTMENT	857403	Agent	Edge Dewi Radyanto	Dewi Radyanto	2.0	1	1	6.0		[]
178768331	SALES_RESIDENTIAL	Stunning Home with Mountain Views	EOI 19/11/20	2020-10-10 04:18:19		15 Jamrozik Street	Denman Prospect	ACT	2611	-35.30652833	149.02256196	HOUSE	103535	Agent	Kolak Living Pty Ltd	Hamzah Asfour	5.0	3	2	6.0	645.0	['AIR_CONDITIONING_REVERSE_CYCLE', 'ALARM', 'DINING_ROOM', 'DOUBLE_GLAZED_WINDOWS', 'ELECTRIC_HEATING', 'ENTRANCE_HALL', 'FAMILY_ROOM', 'FENCING', 'FORMAL_LOUNGE_ROOM', 'INTERCOM', 'MOUNTAIN_VIEWS', 'OUTDOOR_ENTERTAINING_AREA', 'OUTDOOR_KITCHEN', 'POWDER_ROOM', 'SEPARATE_TOILET', 'SHOWER', 'SOLAR_PANELS', 'SWIMMING_POOL', 'UNDERGROUND_POWERLINES', 'WALK_IN_PANTRY', 'WALK_IN_ROBE']
178797058	SALES_RESIDENTIAL	lynnwood.house	By Negotiation	2020-10-10 05:00:26		5/31 Mugglestone Place	Bruce	ACT	2617	-35.2497024	149.07868190000005	TOWNHOUSE	577049	Agent	home.byholly	Cris O'Brien	3.0	2	2	3.5	0.0	[]
178787309	SALES_RESIDENTIAL	Midnight - 514/1 Elouera Street, Braddon ACT 2612	$469,900	2020-10-11 03:44:44		514/1 Elouera Street	Braddon	ACT	2612	-35.27285438805429	149.130862246442	UNIT	649774	PrivateLister	Private Lister		2.0	1	0	6.9		[]
178797654	SALES_RESIDENTIAL	From Humble Beginnings	Auction 14/11/20	2020-10-11 22:41:13		1/37 Nott Street	Fraser	ACT	2615	-35.19259320000001	149.0468886	TOWNHOUSE	188615	Agent	McIntyre Property	Terry Cooper	3.0	3	2	6.0	0.0	['AIR_CONDITIONING', 'AIR_CONDITIONING_OTHER']
178788527	SALES_RESIDENTIAL	INVESTORS/FIRST HOME OWNERS - BRAND NEW SOPHISTICATED UNIT	$515,000	2020-10-11 23:04:57		1212/3 Gaziers Lane	Belconnen	ACT	2617	-35.2401875	149.0719814	UNIT	5182	Agent	Peter Mylonas Property Solutions	Ally Smith	2.0	2	1	6.8		['AIR_CONDITIONING_SPLIT_SYSTEM', 'DISHWASHER', 'DOUBLE_GLAZED_WINDOWS', 'INTERCOM', 'SHOWER', 'UNDERGROUND_PARKING']
178796667	SALES_RESIDENTIAL	Superb executive residence in prime location and large backyard !	$1,140,000-$1,170,000	2020-10-12 01:09:43		10 Swagman Street	Lawson	ACT	2617	-35.22950289	149.09300973	HOUSE	599	Agent	GoldRuby Homes	Matthew Smith	4.0	3	2	4.5	450.0	[]
178799909	SALES_RESIDENTIAL	Easy Care Living, Close to it All	By Negotiation	2020-10-12 04:50:55		100/9 Murdoch Street	Lyneham	ACT	2602	-35.25231129999999	149.1328119	TOWNHOUSE	80917	Agent	Ray White Canberra 	Treston Bamber	2.0	1	1	6.0	0.0	[]
178471476	SALES_RESIDENTIAL	Brand new residence with a stunning list of features	$589,900	2020-10-12 05:31:48		Merakai Residences - 3 bedroom townhouse	Taylor	ACT	2913	-35.148182	149.11275791534402	TOWNHOUSE	513247	Agent	Independent	Paul Corazza	3.0	2	2	6.0		['AIR_CONDITIONING_REVERSE_CYCLE', 'BODY_CORPORATE', 'DISHWASHER', 'DOUBLE_GLAZED_WINDOWS', 'NEW_CONSTRUCTION']
178450200	SALES_RESIDENTIAL	Stunning new residence opposite nature reserve	$625,900	2020-10-12 05:32:12		Merakai Residences - 4 bedroom townhouse	Taylor	ACT	2913	-35.148182	149.11275791534402	TOWNHOUSE	513247	Agent	Independent	Paul Corazza	4.0	2	2	6.0		['BODY_CORPORATE', 'DISHWASHER', 'DOUBLE_GLAZED_WINDOWS', 'NEW_CONSTRUCTION']
178794370	SALES_RESIDENTIAL	BESPOKE - Residence 3	$995,000+	2020-10-12 18:15:22		BESPOKE - Residence 3	Turner	ACT	2612	-35.26661261	149.12589198	TOWNHOUSE	909813	Agent	Kasunic Group Developments Pty Ltd	Kasunic Group Sales	3.0	2	2	6.0		[]
178795890	SALES_RESIDENTIAL	Now or Never!! Call it your Home	$639,000+	2020-10-12 21:02:33		40 Scholtens Street	Casey	ACT	2913	-35.15633149	149.10113237	HOUSE	888993	Agent	New Door Properties	Yash Sethi	3.0	2	2	5.0	325.0	[]
178802439	SALES_RESIDENTIAL	A fairy-tale ending…or just the beginning	Offers over $425,000	2020-10-12 22:31:12		13/49-51 Freda Bennett Circuit	Nicholls	ACT	2913	-35.180193100000004	149.1077088	TOWNHOUSE	5402	Agent	Independent Inner North & City	Mark Larmer	2.0	1	2	4.5	0.0	[]
178794348	SALES_RESIDENTIAL	North/East Facing Two Bedroom	$455,950	2020-10-12 23:01:39		KOKO - Molonglo - Unit 10, D plan, 81m2 Living, North/East Facing Two Bedroom- $455,950	Wright	ACT	2611	-35.3208	149.0373	OTHER	76	Agent	Metropolis Real Estate	Nick Brearley	2.0	2	2	6.5		[]
178794368	SALES_RESIDENTIAL	Unit 104, C plan, level 2, 83m2 living- $445,950	$445,950	2020-10-12 23:01:47		KOKO - Molonglo - Unit 104, C plan, level 2, 83m2 living- $445,950	Wright	ACT	2611	-35.3208	149.0373	OTHER	76	Agent	Metropolis Real Estate	Nick Brearley	2.0	2	2	6.5		[]
178802576	SALES_RESIDENTIAL	simple.pleasures	$530,000+	2020-10-12 23:31:49		51 Biffin Street	Cook	ACT	2614	-35.2561276	149.06322649999996	TOWNHOUSE	577049	Agent	home.byholly	Sally Strang	2.0	1	1	0.5	0.0	[]
178797741	SALES_RESIDENTIAL	Be just like Will Smith in Bel-Air	$425,000+	2020-10-13 00:32:02		36/39 Eastlake Parade	Kingston	ACT	2604	-35.31346677	149.14704952	APARTMENT	901183	Agent	Edge Sam Buchanan	Sam Buchanan	1.0	1	1	6.0		[]
178803218	SALES_RESIDENTIAL	Fully Renovated And Neat as a Pin with Views!	$440,000+	2020-10-13 01:31:23		14/57 Newman Morris	Oxley	ACT	2903	-35.4098351	149.07547769999996	HOUSE	1517	Agent	Blackshaw Tuggeranong	Robert Peaker	2.0	1	1	2.5	0.0	['AIR_CONDITIONING', 'AIR_CONDITIONING_OTHER']
178798080	SALES_RESIDENTIAL	Experience easy living with one of the best views in town	$690,000+	2020-10-13 02:26:15		164/15 Bowes Street	Phillip	ACT	2606	-35.3441316	149.0868669	APARTMENT	76	Agent	Metropolis Real Estate	Nick Brearley	3.0	2	2	7.0	3198.0	[]
178803275	SALES_RESIDENTIAL	THE SALE OF THIS PROPERTY IS ON HOLD AT THE MOMENT	$560,000+	2020-10-13 02:30:55		2 Quealy Street	Casey	ACT	2913	-35.1589412	149.0988505	TOWNHOUSE	84655	Agent	McGrath North Canberra	Kris Hellier	3.0	3	2	6.0	0.0	[]
178794352	SALES_RESIDENTIAL	Bold & Refined	$1,899,900	2020-10-13 04:15:40		Renaissance - 5/2 Light Street	Griffith	ACT	2603	-35.322219606738294	149.13619022242702	TOWNHOUSE	866913	Agent	Morris Property Group	Michael Morris	3.0	2	3	6.6		[]
178804990	SALES_RESIDENTIAL	Lovely spacious home in a prime location!	$929,000	2020-10-13 05:40:58		6/6-8 Towns Crescent	Turner	ACT	2612	-35.26339	149.12962119999997	TOWNHOUSE	139235	Agent	PRD Canberra	Kim Stewart	3.0	3	2	5.0	0.0	['AIR_CONDITIONING', 'AIR_CONDITIONING_OTHER', 'DISHWASHER', 'HEATING_CENTRAL', 'OUTDOOR_ENTERTAINING_AREA']
178797737	SALES_RESIDENTIAL	All the hard work is already done.	$475,000+	2020-10-13 13:04:19		7/93 Bimberi Crescent	Palmerston	ACT	2913	-35.19428622	149.11363879	TOWNHOUSE	234605	Agent	Southern Property Canberra	Adrian Southern	3.0	1	1	4.5		['BODY_CORPORATE', 'BROADBAND', 'DISHWASHER', 'ENCLOSED_BACKYARD', 'FAMILY_ROOM', 'FENCING', 'FORMAL_LOUNGE_ROOM', 'HEATING_GAS_CENTRAL', 'OFF_STREET_PARKING', 'OUTDOOR_ENTERTAINING_AREA', 'SEPARATE_TOILET', 'SHOWER']
178799423	SALES_RESIDENTIAL	Luxurious Apartment with Ultra-Modern Interiors	$399,000+	2020-10-13 21:27:35		805/8 Gribble Street	Gungahlin	ACT	2912	-35.18214784	149.13113309	APARTMENT	888993	Agent	New Door Properties	Gurjant Singh	2.0	1	1	6.0		[]
178802490	SALES_RESIDENTIAL	Superb Family Home	$819,000+	2020-10-13 22:16:32		7 Amphlett Street	Moncrieff	ACT	2914	-35.15916327	149.11139272	HOUSE	888993	Agent	New Door Properties	Yash Sethi	5.0	2	2	6.0	552.0	[]
178807203	SALES_RESIDENTIAL	Live in or invest, either way, you win with this location	Offers Over $445,000	2020-10-13 22:31:03		198/60 College Street	Belconnen	ACT	2617	-35.242506	149.07001330000003	APARTMENT	5403	Agent	Independent Gungahlin	Michael Wang	2.0	3	2	6.0	0.0	['AIR_CONDITIONING', 'AIR_CONDITIONING_OTHER']
178768333	SALES_RESIDENTIAL	A great return for investors!	$845,000	2020-10-13 22:41:27		1/4 Pell Place	Chifley	ACT	2606	-35.35230410000001	149.0735122	DUAL_OCCUPANCY	60	Agent	Homefinders Real Estate	Julie Castrission	4.0	2	2	1.5		['AIR_CONDITIONING_EVAPORATIVE', 'AIR_CONDITIONING_REVERSE_CYCLE', 'HEATING_CENTRAL', 'OFF_STREET_PARKING', 'SELF_CONTAINED_FLAT']
178807171	SALES_RESIDENTIAL	Stylish and private oasis, with huge living and entertaining, close to the Woden hub!	$960,000+	2020-10-13 23:21:17		3 Pollock Street	Chifley	ACT	2606	-35.3523065	149.07949109999996	HOUSE	1624	Agent	Blackshaw Gungahlin	Luke McAuliffe	3.0	2	2	2.5	655.0	[]
178807264	SALES_RESIDENTIAL	Panoramic views of Ngunnawal and beyond	$1,299,000+	2020-10-14 00:00:56		12 Ahmatt Street	Ngunnawal	ACT	2913	-35.1657701	149.1086554	HOUSE	84655	Agent	McGrath North Canberra	Kris Hellier	4.0	2	2	4.5	0.0	[]
178807469	SALES_RESIDENTIAL	In the Heart of the City	$540,000+	2020-10-14 00:10:59		210/27 Lonsdale Street	Braddon	ACT	2612	-35.2719619	149.1326108	APARTMENT	135415	Agent	Ray White Queanbeyan/Jerrabomberra	Ben Mills	1.0	1	1	6.0	0.0	['AIR_CONDITIONING', 'AIR_CONDITIONING_OTHER', 'ALARM']
178807315	SALES_RESIDENTIAL	Easy Care Single Level Home	$540,000	2020-10-14 00:11:14		5/28 Ringrose Crescent	Isaacs	ACT	2607	-35.367314	149.11047109999996	TOWNHOUSE	73	Agent	Luton Properties Manuka	Miriana Cavic	3.0	2	1	2.0	0.0	[]
178807441	SALES_RESIDENTIAL	Luxurious Family Home! An Entertainer's Delight	Auction 14/11/20	2020-10-14 00:20:38		10 Kilgariff Street	Coombs	ACT	2611	-35.312646	149.0420348	HOUSE	4217	Agent	Civium Property Group - Residential	Sam Vachaspati	4.0	3	2	6.0	594.0	['OUTDOOR_ENTERTAINING_AREA', 'SWIMMING_POOL']
178797841	SALES_RESIDENTIAL	2 bedroom	$709,900	2020-10-14 01:03:39		Renaissance - 2 bedroom	Griffith	ACT	2603	-35.322219606738294	149.13619022242702	APARTMENT	866913	Agent	Morris Property Group	Michael Morris	2.0	2	2	6.6		[]
178804121	SALES_RESIDENTIAL	top floor private apartment.	$399,000+	2020-10-14 01:04:45		141/11 Giles Street	Griffith	ACT	2603	-35.31802745	149.13762156	APARTMENT	50	Agent	PURNELL	Nick Purnell	2.0	1	1	5.5		['BODY_CORPORATE', 'ENTRANCE_HALL', 'OUTDOOR_ENTERTAINING_AREA', 'SAUNA', 'SWIMMING_POOL', 'SWIMMING_POOL_INDOOR', 'UNDERGROUND_PARKING']
178808084	SALES_RESIDENTIAL	Superior design to elevate your lifestyle	Auction	2020-10-14 02:01:10		141 Thynne Street	Bruce	ACT	2617	-35.2399466	149.0934789	HOUSE	80917	Agent	Ray White Canberra 	Andrew Lonsdale	3.0	2	2	6.0	0.0	[]
178808467	SALES_RESIDENTIAL	House and Land Packages in Throsby	$799,000+	2020-10-14 02:21:05		(no street name provided)	Throsby	ACT	2914	-35.18895983	149.16176442	LAND	709273	Agent	Carter and Co Agents	Nik Brozinic	4.0	3	2	6.0	450.0	[]
178808193	SALES_RESIDENTIAL	The perfect property for two, in the heart of Belconnen	Offers over $499,000	2020-10-14 02:21:29		2304/120 Eastern Valley Way	Belconnen	ACT	2617	-35.24071400000001	149.07359530000005	APARTMENT	5403	Agent	Independent Gungahlin	Rahul Mehta	2.0	2	2	6.0	0.0	[]
178807117	SALES_RESIDENTIAL	Impressive Ground Floor Apartment With Stunning Courtyard	By Negotiation	2020-10-14 02:24:56		30/53 Eyre Street	Kingston	ACT	2604	-35.31420494	149.14509452	APARTMENT	3498	Agent	Berkely Residential	Simon Richards	3.0	2	2	6.0		['AIR_CONDITIONING_REVERSE_CYCLE', 'BODY_CORPORATE', 'DISABILITY_FRIENDLY', 'DISHWASHER', 'ENTRANCE_HALL', 'FENCING', 'INTERCOM', 'OFF_STREET_PARKING', 'OUTDOOR_ENTERTAINING_AREA', 'SLAB_CONSTRUCTION']
178808509	SALES_RESIDENTIAL	Extravagant Home to Enjoy Living Daily !	By Negotiation	2020-10-14 02:30:44		1 Rigby Street	Denman Prospect	ACT	2611	-35.3038437	149.0219397	HOUSE	514317	Agent	Impact Properties	Anish Sebastian	6.0	4	2	4.0	438.0	['AIR_CONDITIONING', 'AIR_CONDITIONING_OTHER', 'ALARM', 'BROADBAND', 'DISHWASHER', 'OUTDOOR_ENTERTAINING_AREA', 'RUMPUS_ROOM', 'STUDY']
178809470	SALES_RESIDENTIAL	Luxurious Entertainers' Lifestyle With Picturesque Outlook	By Negotiation	2020-10-14 04:11:22		23 Hickenbotham Street	Gordon	ACT	2906	-35.4686721	149.0849388	HOUSE	422	Agent	Luton Properties Tuggeranong	Michael Martin	5.0	3	2	3.0	981.0	[]
178809383	SALES_RESIDENTIAL	Modern apartment in central location	$399,000	2020-10-14 05:02:03		602/4 Masson Street	Turner	ACT	2612	-35.2705077	149.12944850000005	UNIT	682863	Agent	Hayman Partners	Brett Hayman	1.0	1	1	6.0	0.0	[]
178811806	SALES_RESIDENTIAL	Minutes from Lake Ginninderra and near Westfield Belconnen	$597,000+	2020-10-14 09:21:07		2 Simons Close	McKellar	ACT	2617	-35.21899572	149.07538351	HOUSE	10905	Agent	Edge Real Estate	Steve Thomas	3.0	1	2	1.0		['AIR_CONDITIONING_SPLIT_SYSTEM', 'DINING_ROOM', 'ENTRANCE_HALL', 'FORMAL_LOUNGE_ROOM', 'SEPARATE_TOILET']
178786766	SALES_RESIDENTIAL	Iconic development to start a relaxed and elegant lifestyle	$858,800+	2020-10-14 15:44:16		506/19 Marcus Clarke Street	City	ACT	2601	-35.28501541	149.12475239	APARTMENT	864753	Agent	Cercis Property	Jane Yang	2.0	2	2	6.0		['AIR_CONDITIONING_REVERSE_CYCLE', 'ALLOCATED_CAR_SPACE', 'BODY_CORPORATE', 'BROADBAND', 'DISHWASHER', 'DOUBLE_GLAZED_WINDOWS', 'FAMILY_ROOM', 'GYM', 'INTERCOM', 'MOUNTAIN_VIEWS', 'OUTDOOR_ENTERTAINING_AREA', 'PLANS_APPROVED', 'SHOWER', 'STUDY', 'STUDY_NOOK', 'UNDERGROUND_PARKING', 'WALK_IN_ROBE', 'WASH_CLOSET', 'WATER_VIEWS']
178812041	SALES_RESIDENTIAL	Tranquil Family Living in Prime Location	Auction 15/11/20	2020-10-14 18:11:01		102 Hawkesbury Crescent	Farrer	ACT	2607	-35.3830844	149.1068889	HOUSE	682863	Agent	Hayman Partners	Anthony McCormack	4.0	3	2	2.0	1253.0	['STUDY']
178812078	SALES_RESIDENTIAL	LUXURY LIVING I CONVENIENCE I INNER SOUTH LOCATION	$950,000+	2020-10-14 19:30:15		324/2 Grose Street	Deakin	ACT	2600	-35.31380720000001	149.1070887	APARTMENT	572389	Agent	Belle Property Kingston	Steve Whitelock	2.0	2	1	6.0	0.0	[]
178811992	SALES_RESIDENTIAL	LOOKING FOR AN ALTERNATIVE TO RENTING?	$330,000	2020-10-14 19:30:29		45/7 Medley Street	Chifley	ACT	2606	-35.3534073	149.084582	UNIT	572389	Agent	Belle Property Kingston	Greg Hedger	2.0	1	1	5.5	0.0	[]
178812087	SALES_RESIDENTIAL	PENTHOUSE WATERFRONT LIVING	$879,000	2020-10-14 19:31:01		126/11 Trevillian Quay	Kingston	ACT	2604	-35.3109089	149.1466063	APARTMENT	572389	Agent	Belle Property Kingston	Linda Lockwood	2.0	2	2	4.5	0.0	[]
178812097	SALES_RESIDENTIAL	ISKIA, EPITOME OF LUXURY	$1,650,000	2020-10-14 19:31:17		127/81 Constitution Avenue	Campbell	ACT	2612	-35.2920258	149.1460582	TOWNHOUSE	572389	Agent	Belle Property Kingston	Samantha Granter	4.0	3	2	6.5	0.0	[]
178812218	SALES_RESIDENTIAL	THIS VIEW!	$325,000+	2020-10-14 21:20:17		170/41 Philip Hodgins Street	Wright	ACT	2611	-35.316793200000006	149.03359880000005	APARTMENT	572389	Agent	Belle Property Kingston	Leanne Palmer	1.0	1	1	6.0	0.0	[]
178811826	SALES_RESIDENTIAL	spacious with study.	$739,000+	2020-10-14 21:53:58		206/55 The Causeway	Kingston	ACT	2604	-35.31324075	149.15026892	APARTMENT	50	Agent	PURNELL	Nick Purnell	2.0	2	2	6.0		['AIR_CONDITIONING_REVERSE_CYCLE', 'BODY_CORPORATE', 'DISHWASHER', 'ENTRANCE_HALL', 'INTERCOM', 'OUTDOOR_ENTERTAINING_AREA', 'STUDY', 'UNDERGROUND_PARKING', 'WALK_IN_PANTRY', 'WATER_VIEWS']
178807123	SALES_RESIDENTIAL	sun-drenched and solid.	$498,000+	2020-10-14 21:54:08		27/43-51 Giles Street	Kingston	ACT	2604	-35.31403710000001	149.14244512	APARTMENT	50	Agent	PURNELL	Nick Purnell	2.0	1	1	2.0	854.0	['AIR_CONDITIONING_REVERSE_CYCLE', 'BODY_CORPORATE', 'DISHWASHER', 'INTERCOM', 'OFF_STREET_PARKING', 'UNDERGROUND_PARKING']
178812228	SALES_RESIDENTIAL	Open home 24/10/20 cancelled - offer accepted	Under Offer	2020-10-14 22:00:53		25 Cathcart Close	Chisholm	ACT	2905	-35.4184847	149.11674419999997	HOUSE	558799	Agent	Irwin Property	Jonathan Irwin	3.0	1	1	0.5	401.0	[]
178812142	SALES_RESIDENTIAL	Luxury Foreshore Living	$649,900 - $669,900	2020-10-14 22:10:45		66/46 Honeysett View	Kingston	ACT	2604	-35.3131249	149.1489326	APARTMENT	98	Agent	LJ Hooker Manuka	Stephen Thompson	2.0	2	1	6.0	0.0	[]
178812143	SALES_RESIDENTIAL	inspirational.peaceful.home	Auction 14/11/20	2020-10-14 22:20:48		5 Andruco Street	Harrison	ACT	2914	-35.2016294	149.1605364	HOUSE	577049	Agent	home.byholly	Jenny Michael And Mark McReynolds	4.0	3	2	4.0	0.0	[]
178798079	SALES_RESIDENTIAL	Character and convenience in spades	Auction 14/11/20	2020-10-14 22:24:56		3 Rehfisch Close	Lyneham	ACT	2602	-35.24235443	149.12142998	HOUSE	462427	Agent	One Agency Andrew Thorpe	Andrew Thorpe	3.0	2	2	3.0		['AIR_CONDITIONING_REVERSE_CYCLE', 'ALARM', 'DINING_ROOM', 'DISHWASHER', 'ENCLOSED_BACKYARD', 'ENTRANCE_HALL', 'FAMILY_ROOM', 'FORMAL_LOUNGE_ROOM', 'GARDEN_SHED', 'HEATING_WOOD_FIRE', 'OFF_STREET_PARKING', 'OUTDOOR_ENTERTAINING_AREA', 'PERGOLA', 'POND_WATER_FEATURE', 'SOLAR_PANELS']
178812210	SALES_RESIDENTIAL	Arguably the best!	$415,000	2020-10-14 22:41:13		2605/120 Eastern Valley Way	Belconnen	ACT	2617	-35.24071400000001	149.07359530000005	APARTMENT	12	Agent	Blackshaw Manuka	Luke Revet	1.0	1	1	6.0	0.0	[]
178812181	SALES_RESIDENTIAL	Stunning New Apartment in the Heart of Braddon	$890,000	2020-10-14 22:51:31		G02/43-47 Currong Street North	Braddon	ACT	2612	-35.2785339	149.1367916	APARTMENT	12	Agent	Blackshaw Manuka	Luke Revet	3.0	2	2	6.0	0.0	[]
178192939	SALES_RESIDENTIAL	Display home now open	$709,900	2020-10-14 23:20:37		Fresco - 115 Mortimer Lewis Drive	Greenway	ACT	2900	-35.4072054700183	149.072737739848	TOWNHOUSE	687413	Agent	Blackshaw Projects	Sam Dodimead	3.0	2	2	6.0		['AIR_CONDITIONING_REVERSE_CYCLE', 'DISHWASHER', 'DOUBLE_GLAZED_WINDOWS', 'SEPARATE_TOILET', 'SHOWER']
178450203	SALES_RESIDENTIAL	Highly finished two bedroom Townhome	$430,000+	2020-10-14 23:20:39		Fresco - 115 Mortimer Lewis Drive	Greenway	ACT	2900	-35.4072054700183	149.072737739848	TOWNHOUSE	687413	Agent	Blackshaw Projects	Sam Dodimead	2.0	1	1	7.0		[]
178295640	SALES_RESIDENTIAL	Display home now open	$625,000	2020-10-14 23:20:42		Fresco - 115 Mortimer Lewis Drive	Greenway	ACT	2900	-35.4072054700183	149.072737739848	TOWNHOUSE	687413	Agent	Blackshaw Projects	Sam Dodimead	3.0	2	2	8.0		['AIR_CONDITIONING_REVERSE_CYCLE', 'DISHWASHER', 'DOUBLE_GLAZED_WINDOWS', 'SEPARATE_TOILET', 'SHOWER']
178192940	SALES_RESIDENTIAL	Display home now open	$749,900	2020-10-14 23:20:44		Fresco - 115 Mortimer Lewis Drive	Greenway	ACT	2900	-35.4072054700183	149.072737739848	TOWNHOUSE	687413	Agent	Blackshaw Projects	Sam Dodimead	3.0	2	2	6.0		['AIR_CONDITIONING_REVERSE_CYCLE', 'DISHWASHER', 'DOUBLE_GLAZED_WINDOWS', 'SEPARATE_TOILET', 'SHOWER']
178698893	SALES_RESIDENTIAL	Display home now open	$864,900	2020-10-14 23:20:46		Fresco - Display home now open	Greenway	ACT	2900	-35.4072054700183	149.072737739848	TOWNHOUSE	687413	Agent	Blackshaw Projects	Sam Dodimead	4.0	2	2	7.0		['AIR_CONDITIONING_REVERSE_CYCLE', 'DISHWASHER', 'DOUBLE_GLAZED_WINDOWS', 'SEPARATE_TOILET', 'SHOWER']
178794371	SALES_RESIDENTIAL	$25,000 HomeBuilder Grant eligible	$729,900	2020-10-14 23:23:32		Norrebro - $25,000 HomeBuilder Grant eligible	Watson	ACT	2602	-35.2328828	149.1610807	TOWNHOUSE	687413	Agent	Blackshaw Projects	Sam Dodimead	3.0	2	2	6.0		['AIR_CONDITIONING_REVERSE_CYCLE', 'DISHWASHER', 'DOUBLE_GLAZED_WINDOWS', 'POWDER_ROOM', 'SHOWER']
178797838	SALES_RESIDENTIAL	$25,000 HomeBuilder Grant eligible	$301,900	2020-10-14 23:23:35		Norrebro - $25,000 HomeBuilder Grant eligible	Watson	ACT	2602	-35.2328828	149.1610807	APARTMENT	687413	Agent	Blackshaw Projects	Sam Dodimead	1.0	1	1	9.0		['AIR_CONDITIONING_SPLIT_SYSTEM', 'ALLOCATED_CAR_SPACE', 'DISHWASHER', 'DOUBLE_GLAZED_WINDOWS', 'SHOWER']
178794361	SALES_RESIDENTIAL	$25,000 HomeBuilder Grant eligible	$749,900	2020-10-14 23:23:37		Norrebro - $25,000 HomeBuilder Grant eligible	Watson	ACT	2602	-35.2328828	149.1610807	TOWNHOUSE	687413	Agent	Blackshaw Projects	Sam Dodimead	3.0	2	2	6.0		['ALLOCATED_CAR_SPACE', 'DISHWASHER', 'DOUBLE_GLAZED_WINDOWS', 'POWDER_ROOM', 'SEPARATE_TOILET']
178797837	SALES_RESIDENTIAL	$25,000 HomeBuilder Grant eligible	$654,900	2020-10-14 23:23:39		Norrebro - $25,000 HomeBuilder Grant eligible	Watson	ACT	2602	-35.2328828	149.1610807	TOWNHOUSE	687413	Agent	Blackshaw Projects	Sam Dodimead	3.0	2	2	7.0		['AIR_CONDITIONING_SPLIT_SYSTEM', 'ALLOCATED_CAR_SPACE', 'DISHWASHER', 'DOUBLE_GLAZED_WINDOWS', 'SHOWER']
178794353	SALES_RESIDENTIAL	$25,000 HomeBuilder Grant eligible	$559,900	2020-10-14 23:23:41		Norrebro - $25,000 HomeBuilder Grant eligible	Watson	ACT	2602	-35.2328828	149.1610807	TOWNHOUSE	687413	Agent	Blackshaw Projects	Sam Dodimead	2.0	2	2	6.0		['AIR_CONDITIONING_REVERSE_CYCLE', 'DISHWASHER', 'DOUBLE_GLAZED_WINDOWS', 'SHOWER', 'SOLAR_PANELS']
178649537	SALES_RESIDENTIAL	$25,000 HomeBuilder Grant eligible.	$699,900	2020-10-14 23:23:44		Norrebro - $25,000 HomeBuilder Grant eligible.	Watson	ACT	2602	-35.23287329999999	149.1610824	TOWNHOUSE	687413	Agent	Blackshaw Projects	Sam Dodimead	4.0	2	2	6.0		['AIR_CONDITIONING_REVERSE_CYCLE', 'DISHWASHER', 'DOUBLE_GLAZED_WINDOWS', 'SHOWER', 'SOLAR_PANELS', 'WALK_IN_ROBE']
178794362	SALES_RESIDENTIAL	$25,000 HomeBuilder Grant eligible	$581,900	2020-10-14 23:23:46		Norrebro - $25,000 HomeBuilder Grant eligible	Watson	ACT	2602	-35.2328828	149.1610807	APARTMENT	687413	Agent	Blackshaw Projects	Sam Dodimead	3.0	2	2	7.0		['AIR_CONDITIONING_REVERSE_CYCLE', 'ALLOCATED_CAR_SPACE', 'DISHWASHER', 'DOUBLE_GLAZED_WINDOWS', 'SHOWER']
178794354	SALES_RESIDENTIAL	$25,000 HomeBuilder Grant eligible	$694,900	2020-10-14 23:23:49		Norrebro - $25,000 HomeBuilder Grant eligible	Watson	ACT	2602	-35.2328828	149.1610807	TOWNHOUSE	687413	Agent	Blackshaw Projects	Sam Dodimead	3.0	2	2	6.0		['AIR_CONDITIONING_REVERSE_CYCLE', 'ALLOCATED_CAR_SPACE', 'DISHWASHER', 'DOUBLE_GLAZED_WINDOWS', 'POWDER_ROOM', 'SHOWER']
178812254	SALES_RESIDENTIAL	Off-the-plan townhouses offering spacious and luxurious living	$749,000	2020-10-14 23:30:58		2/44 McGlashan Street	Taylor	ACT	2913	-35.1477838	149.1213563	OTHER	539	Agent	LJ Hooker Gungahlin	Jason Hall	5.0	3	2	0.0	551.23	['OUTDOOR_ENTERTAINING_AREA']
178812318	SALES_RESIDENTIAL	Moving on, moving up, moving in!	$949,000	2020-10-14 23:41:52		22 Ivo Whitton Circuit	Kambah	ACT	2902	-35.39438170000001	149.03883180000003	HOUSE	377855	Agent	One Agency Sandy Morris	Sandy Morris	4.0	3	2	3.5	884.0	[]
178812204	SALES_RESIDENTIAL	madigan.magic	$940,000+	2020-10-14 23:50:46		34 Madigan Street	Hackett	ACT	2602	-35.2469843	149.1624101	HOUSE	577049	Agent	home.byholly	Jenny Michael And Mark McReynolds	3.0	2	2	2.0	0.0	[]
178807393	SALES_RESIDENTIAL	Luxury Executive Residence	By Negotiation	2020-10-14 23:56:50		1 Tredwell Street	Strathnairn	ACT	2615	-35.23135051	148.99871869999996	HOUSE	888993	Agent	New Door Properties	Gurjant Singh	4.0	3	2	4.5	428.0	[]
178812292	SALES_RESIDENTIAL	Single level, Low maintenance and NO STRATA!	$650,000+	2020-10-15 00:10:45		11 Hodgson Place	Pearce	ACT	2607	-35.3639111	149.08254	TOWNHOUSE	546400	Agent	LJ Hooker Woden	Dan Cooper	3.0	2	2	3.5	383.0	[]
178812561	SALES_RESIDENTIAL	SOHO	$1,695,000+	2020-10-15 00:30:57		1/58 Jacka Crescent	Campbell	ACT	2612	-35.29054489999999	149.1503972	HOUSE	572389	Agent	Belle Property Kingston	Samantha Granter	3.0	2	2	6.0	0.0	[]
178812573	SALES_RESIDENTIAL	Your outlook never looked better	$435,000	2020-10-15 00:31:47		34/15 Irving Street	Phillip	ACT	2606	-35.3374794	149.0862871	APARTMENT	5392	Agent	Independent Woden	Nicholas Jacob	1.0	1	0	6.0	0.0	[]
178812747	SALES_RESIDENTIAL	Location & lifestyle	Offers Over $339,000	2020-10-15 00:41:53		25/8 Baudinette Circuit	Bruce	ACT	2617	-35.2439756	149.0923368	UNIT	5405	Agent	Independent Tuggeranong	Will Honey	1.0	1	0	6.0	0.0	[]
178809094	SALES_RESIDENTIAL	Superb Location, Heritage listed	Auction 10/11/20	2020-10-15 01:12:18		27 Monaro Crescent	Griffith	ACT	2603	-35.32722819	149.12774364	HOUSE	33	Agent	Sadil Quinlan	Marc Sadil	3.0	1	1	1.0	1032.0	[]
178797842	SALES_RESIDENTIAL	Block 3 Section 43	$420,770	2020-10-15 01:34:45		Streetscape Plus - Block 3 Section 43	Strathnairn	ACT	2615	-35.23096123	148.99444603	LAND	679973	Agent	Ginninderry	Ross Hincksman		0	0			[]
178794355	SALES_RESIDENTIAL	Stunning 3 Bedroom Apartment	$709,900	2020-10-15 01:56:02		Banksii - Stunning 3 Bedroom Apartment	Macquarie	ACT	2614	-35.25349333	149.06940293	OTHER	919733	Agent	VERV Projects	Jason Roses	3.0	2	2	8.4		[]
178794335	SALES_RESIDENTIAL	2 Bedroom Apartment With Two Balconies	$699,900	2020-10-15 01:56:07		Banksii - 2 Bedroom Apartment With Two Balconies	Macquarie	ACT	2614	-35.25349333	149.06940293	OTHER	919733	Agent	VERV Projects	Jason Roses	2.0	2	2	8.4		[]
178794375	SALES_RESIDENTIAL	2 Bedroom Apartment With 82m2 Huge Terrace	$559,900	2020-10-15 01:56:13		Banksii - 2 Bedroom Terrace With Huge Courtyard	Macquarie	ACT	2614	-35.25349333	149.06940293	OTHER	919733	Agent	VERV Projects	Jason Roses	2.0	2	2	6.9		[]
178794334	SALES_RESIDENTIAL	North Facing - 1 Bedroom Apartments	$319,000+	2020-10-15 01:56:31		Banksii - 1 Bedroom Apartment	Macquarie	ACT	2614	-35.25349333	149.06940293	OTHER	919733	Agent	VERV Projects	Jason Roses	1.0	1	1	8.5		[]
178813518	SALES_RESIDENTIAL	Stylish Executive Living	$860,000+	2020-10-15 02:41:37		3/23 Bambridge Street	Weetangera	ACT	2614	-35.2450799	149.0543408	TOWNHOUSE	857413	Agent	Badenoch Real Estate Sales	Symon Badenoch	4.0	2	2	5.0	0.0	[]
178813967	SALES_RESIDENTIAL	Bright and Spacious in a Premier Location	$720,000 - $740,000	2020-10-15 03:20:53		38/3 Burbury Close	Barton	ACT	2600	-35.3121458	149.1336629	APARTMENT	98	Agent	LJ Hooker Manuka	Samuel Thompson	2.0	2	2	6.0	0.0	['AIR_CONDITIONING_SPLIT_SYSTEM', 'DISHWASHER']
178813977	SALES_RESIDENTIAL	East of EDEN?	$568,888- $598,000  (OFFERS WELCOME!)	2020-10-15 03:31:28		56/135 Easty Street	Phillip	ACT	2606	-35.3480104	149.09175280000005	TOWNHOUSE	139235	Agent	PRD Canberra	Stefan Alexander	2.0	2	2	5.0	0.0	['AIR_CONDITIONING', 'AIR_CONDITIONING_OTHER']
178812398	SALES_RESIDENTIAL	Affordable house just 18 month old	$640,000+	2020-10-15 04:11:38		17 Cricket Street	Throsby	ACT	2914	-35.19089815	149.16626913	HOUSE	617829	Agent	Capital Partner Real Estate	Michael Wu	4.0	2	2	6.0	250.0	[]
178814358	SALES_RESIDENTIAL	Showcasing a flexible floorplan with self-contained one bedroom flat.	$1,100,000+	2020-10-15 04:42:02		29 Kavel Street	Torrens	ACT	2607	-35.3686099	149.0859925	HOUSE	12	Agent	Blackshaw Manuka	Christine Bassingthwaighte	5.0	4	2	4.0	0.0	['AIR_CONDITIONING', 'AIR_CONDITIONING_OTHER']
178814377	SALES_RESIDENTIAL	Innovative design and superlative finishes in this brand new build – steps to nature and a tram stop!	$1,450,000	2020-10-15 05:01:07		38 Molesworth Street	Watson	ACT	2602	-35.2318852	149.1510701	HOUSE	421	Agent	Luton Properties Dickson	Aniko and Peter Carey	4.0	2	2	6.0	694.0	[]
178814474	SALES_RESIDENTIAL	Built to Entertain!!	$869,000 +	2020-10-15 05:41:17		168 Burrinjuck Crescent	Duffy	ACT	2611	-35.3393138	149.0383433	HOUSE	563089	Agent	Harcourts Belconnen	Ajay Kumar	4.0	3	2	6.0	950.0	[]
178815301	SALES_RESIDENTIAL	Grand multi-level family entertainer with stunning views	Offers Over $1,250,000	2020-10-15 06:11:17		49 Benalla Street	Crace	ACT	2911	-35.20537279999999	149.10678230000005	HOUSE	5405	Agent	Independent Tuggeranong	Obi Shadmaan	5.0	4	2	3.5	547.0	[]
178815245	SALES_RESIDENTIAL	Top floor North facing residence, vacant & ready now	Offers over $575,000	2020-10-15 06:30:39		504/8 Cape Street	Dickson	ACT	2602	-35.2516175	149.1375122	APARTMENT	5403	Agent	Independent Gungahlin	Paul Corazza	2.0	2	2	6.0	0.0	[]
178815043	SALES_RESIDENTIAL	Arguably the best & biggest one bedroom in the Inner North	Offers over $450,000	2020-10-15 06:50:26		506/8 Cape Street	Dickson	ACT	2602	-35.2516175	149.1375122	APARTMENT	5403	Agent	Independent Gungahlin	Paul Corazza	1.0	1	2	6.0	0.0	[]
178815305	SALES_RESIDENTIAL	Prestige, Comfort and Community	$1,130,000	2020-10-15 07:00:28		2/12 Key Street	Campbell	ACT	2612	-35.2837047	149.1503953	TOWNHOUSE	572	Agent	LJ Hooker Dickson	Stephen Bunday	3.0	2	2	5.0	0.0	[]
178808152	SALES_RESIDENTIAL	Immediately Available to Construct!	$599,000-$625,000	2020-10-15 07:06:35		(no street name provided)	Strathnairn	ACT	2615	-35.22529429999999	148.99819330000003	HOUSE	570129	Agent	Trusted Realtors	Serene Teoh	3.0	2	1	6.0	250.0	[]
178816470	SALES_RESIDENTIAL	Sensational Family Home with Separate Unit	$789,000	2020-10-15 09:40:15		33 Kinsella Street	Higgins	ACT	2615	-35.235871	149.0276719	HOUSE	115835	Agent	Luton Properties Kippax	David Konig	5.0	3	2	0.5	732.0	[]
178794349	SALES_RESIDENTIAL	BESPOKE - Residence 2	$1,089,000	2020-10-15 19:16:02		BESPOKE - Residence 2	Turner	ACT	2612	-35.26661261	149.12589198	OTHER	909813	Agent	Kasunic Group Developments Pty Ltd	Kasunic Group Sales	3.0	2	2	6.3		[]
178816963	SALES_RESIDENTIAL	Family Entertainer!	Over $749,000	2020-10-15 21:50:28		6 Paul Place	Monash	ACT	2904	-35.41821160000001	149.101956	HOUSE	883084	Agent	McGrath South Canberra	Benjamin James	4.0	2	4	3.5	971.0	[]
178817078	SALES_RESIDENTIAL	Amazing First Home or Investment	$292,000	2020-10-15 22:00:33		146/45 Catalano Street	Wright	ACT	2611	-35.3188539	149.033916	APARTMENT	857413	Agent	Badenoch Real Estate Sales	Symon Badenoch	1.0	1	1	6.0	0.0	[]
178813097	SALES_RESIDENTIAL	Block 4 Section 43	$428,570	2020-10-15 23:15:43		Streetscape Plus - Block 4 Section 43	Strathnairn	ACT	2615	-35.23096123	148.99444603	LAND	679973	Agent	Ginninderry	Ross Hincksman		0	0			[]
178817247	SALES_RESIDENTIAL	Ready to move in by January 2021 	$323,000+	2020-10-15 23:20:37		25/25 Bowes Street	Phillip	ACT	2606	-35.3440191	149.0863389	APARTMENT	514317	Agent	Impact Properties	Anish Sebastian	1.0	1	1	6.0	0.0	['AIR_CONDITIONING', 'AIR_CONDITIONING_OTHER', 'BROADBAND', 'OUTDOOR_ENTERTAINING_AREA', 'SWIMMING_POOL']
178817131	SALES_RESIDENTIAL	Meticulous townhouse on McGovern	$490,000+	2020-10-15 23:21:00		49 McGovern Street	Casey	ACT	2913	-35.1610054	149.1003853	HOUSE	709273	Agent	Carter and Co Agents	James Carter	2.0	1	2	4.5	322.0	[]
178813117	SALES_RESIDENTIAL	Block 24 Section 57	$417,850	2020-10-15 23:29:22		Streetscape Plus - Block 24 Section 57	Strathnairn	ACT	2615	-35.23096123	148.99444603	LAND	679973	Agent	Ginninderry	Ross Hincksman		0	0			[]
178794344	SALES_RESIDENTIAL	Block 4 Section 58	$412,060	2020-10-15 23:37:53		Streetscape Plus - Block 4 Section 58	Strathnairn	ACT	2615	-35.23096123	148.99444603	LAND	679973	Agent	Ginninderry	Ross Hincksman		0	0			[]
178817319	SALES_RESIDENTIAL	Large Block of Land - Ready to Build on Now !	$850,000+	2020-10-16 00:31:03		10 Emery Street	Chapman	ACT	2611	-35.3584579	149.0443449	LAND	514317	Agent	Impact Properties	Shaun Iqbal		0	0		975.0	[]
178817386	SALES_RESIDENTIAL	North-facing, resort style, fully furnished home in the center of City. Ready for move in now!	$310,000	2020-10-16 00:41:44		804/2 Akuna Street	City	ACT	2601	-35.28193870000001	149.13254009999997	UNIT	139235	Agent	PRD Canberra	Alex Wang	1.0	1	1	6.0	0.0	['DISHWASHER', 'TENNIS_COURT']
178817407	SALES_RESIDENTIAL	Hidden gem in popular Farrer	Offers over $860,000	2020-10-16 00:51:57		16 Cameron Street	Farrer	ACT	2607	-35.3763844	149.10087969999995	HOUSE	844933	Agent	Peter Morrell Real Estate	Peter Morrell	4.0	2	2	1.0	772.0	[]
178818307	SALES_RESIDENTIAL	Bordering Braddon & Dickson, Grace is only minutes from the CBD but feels miles from anywhere!	$879,000	2020-10-16 02:50:45		5/4-8 McGowan Place	Dickson	ACT	2602	-35.26021400000001	149.1353694	TOWNHOUSE	139235	Agent	PRD Canberra	Andrew Early	3.0	3	2	6.0	0.0	[]
178794345	SALES_RESIDENTIAL	North Facing 3 Bedroom - Move in Now	$689,000	2020-10-16 03:27:41		Embark - 417/253 Northbourne Ave	Lyneham	ACT	2602	-35.2576541734516	149.132058315434	APARTMENT	510357	Agent	JWLand	Chloe Sun	3.0	2	2	6.0		[]
178817426	SALES_RESIDENTIAL	Block 5 Section 66	$389,000	2020-10-16 03:50:06		Taylor - Block 5 Section 66	Taylor	ACT	2913	-35.14680388	149.10722943	OTHER	699043	Agent	Suburban Land Agency	Cassandra Cumberland		0	0		551.0	[]
178797845	SALES_RESIDENTIAL	Block 14 Section 64	$392,000	2020-10-16 03:50:24		Taylor - Block 14 Section 64	Taylor	ACT	2913	-35.14680388	149.10722943	LAND	699043	Agent	Suburban Land Agency	Cassandra Cumberland		0	0		540.0	[]
178813119	SALES_RESIDENTIAL	Block 4 Section 66	$404,000	2020-10-16 03:50:48		Taylor - Block 4 Section 66	Taylor	ACT	2913	-35.14680388	149.10722943	LAND	699043	Agent	Suburban Land Agency	Cassandra Cumberland		0	0		607.0	[]
178813127	SALES_RESIDENTIAL	Block 3 Section 66	$461,000	2020-10-16 03:51:39		Taylor - Block 3 Section 66	Taylor	ACT	2913	-35.14680388	149.10722943	LAND	699043	Agent	Suburban Land Agency	Cassandra Cumberland		0	0		829.0	[]
178817847	SALES_RESIDENTIAL	Superb Home in the Green Oasis of The Gardens	$725,000+	2020-10-16 04:46:26		19/25 Temperley Street	Nicholls	ACT	2913	-35.18360724	149.09343887	TOWNHOUSE	918323	PrivateLister	Private Lister		3.0	2	2	4.0	15040.0	[]
178812393	SALES_RESIDENTIAL	A premium customised house and land package on a massive 557 m2 block	$849,000	2020-10-18 13:28:06		7 Dadswell Street	Whitlam	ACT	2615	-35.27705449	149.03592661	HOUSE	5403	Agent	Independent Gungahlin	Rahul Mehta	4.0	3	2	6.0	557.0	[]
178822158	SALES_RESIDENTIAL	Beautiful family home captures mountain outlook	Over $710,000	2020-10-18 22:40:45		9 McBride Place	Calwell	ACT	2905	-35.44403339999999	149.1072028	HOUSE	883084	Agent	McGrath South Canberra	Cameron Whitnall	4.0	2	2	1.5	906.0	['AIR_CONDITIONING', 'AIR_CONDITIONING_OTHER']
178822050	SALES_RESIDENTIAL	Home on Hopetoun	Auction 14/11/20	2020-10-18 23:31:01		146 Hopetoun Circuit	Yarralumla	ACT	2600	-35.3029273	149.107528	HOUSE	113175	Agent	Capital Residential	Cory McPherson	4.0	3	2	4.0	700.0	[]
178698889	SALES_RESIDENTIAL	Simply stunning 2-bedroom apartment in the heart of Kingston boasting 134m2 of indoor/outdoor living	$659,000	2020-10-19 01:31:56		Atria - Unit 103/38 Eyre Street	Kingston	ACT	2604	-35.3162349	149.142807	APARTMENT	513247	Agent	Independent	Mark Wolens	2.0	2	1	6.0		['ALLOCATED_CAR_SPACE']
178823395	SALES_RESIDENTIAL	Location and lifestyle Large 1 bedroom apartment	By Negotiation	2020-10-19 03:51:09		8/4 Verdon Street	O'Connor	ACT	2602	-35.26163620000001	149.1284906	APARTMENT	435947	Agent	Leader Capital Real Estate	Tony Yip	1.0	1	1	5.5	0.0	['AIR_CONDITIONING_REVERSE_CYCLE', 'DISHWASHER']
178823402	SALES_RESIDENTIAL	Your Sophisticated Oasis in the Heart of Canberra	By Negotiation	2020-10-19 03:51:26		10/19 State Circle	Forrest	ACT	2603	-35.31237810000001	149.1225845	APARTMENT	28075	Agent	Maria Selleck Properties	Maria Selleck	1.0	1	0	6.0	0.0	[]
178823403	SALES_RESIDENTIAL	Charming home in Kambah! AUCTION 07/11/20 at 10AM	Auction 07/11/20	2020-10-19 04:01:34		11 Burges Place	Kambah	ACT	2902	-35.39050770000001	149.07348330000005	HOUSE	285646	Agent	White Rhino Property	Jonny Warren	3.0	2	2	1.0	1146.0	[]
178823900	SALES_RESIDENTIAL	Fantastic Home with Stunning Views of Entire Canberra !	By Negotiation	2020-10-19 04:30:51		15 Bilin Bilin Street	Bonner	ACT	2914	-35.1536434	149.14712749999995	HOUSE	514317	Agent	Impact Properties	Anish Sebastian	4.0	2	2	5.0	630.0	['AIR_CONDITIONING', 'AIR_CONDITIONING_OTHER', 'BROADBAND', 'DISHWASHER', 'OUTDOOR_ENTERTAINING_AREA']
178823713	SALES_RESIDENTIAL	High-set family home backing reserve!	By Negotiation	2020-10-19 05:01:34		23 Fairley Crescent	Theodore	ACT	2905	-35.454801399999994	149.1200071	HOUSE	637551	Agent	Harcourts Prime Residential	Tim Stafford	4.0	2	3	4.0	0.0	[]
178817436	SALES_RESIDENTIAL	Block 28 Section 90	$431,000	2020-10-19 06:35:22		Taylor - Block 28 Section 90	Taylor	ACT	2913	-35.14680388	149.10722943	LAND	699043	Agent	Suburban Land Agency	Cassandra Cumberland		0	0		685.0	[]
178826886	SALES_RESIDENTIAL	One of the Finest in the Region	Auction 14/11/20	2020-10-19 21:41:54		10 Brinkley Circuit	Palmerston	ACT	2913	-35.19242425	149.11332201	HOUSE	118445	Agent	Morrissey Property	Trenton Morrissey	5.0	2	2	5.0		['AIR_CONDITIONING_REVERSE_CYCLE', 'CUBBY_HOUSE', 'DINING_ROOM', 'DISHWASHER', 'DUCTED_VACCUM', 'ENCLOSED_BACKYARD', 'ENTRANCE_HALL', 'FAMILY_ROOM', 'FORMAL_LOUNGE_ROOM', 'GARDEN_SHED', 'HEATING_GAS_CENTRAL', 'OUTDOOR_ENTERTAINING_AREA', 'PERGOLA', 'SEPARATE_TOILET', 'SOLAR_PANELS', 'SPA_OUTDOOR', 'WALK_IN_PANTRY', 'WALK_IN_ROBE']
178826828	SALES_RESIDENTIAL	Renovated so you don't have to...	$535,000 - $550,000	2020-10-19 21:50:28		12/46 Shumack Street	Weetangera	ACT	2614	-35.2487341	149.04934269999995	UNIT	700494	Agent	HIVE Property	Steve Langford	3.0	2	1	5.5	0.0	[]
178695819	SALES_RESIDENTIAL	Brand new stunning 2-bedroom apartment in the heart of Kingston	$630,000	2020-10-19 22:37:26		Atria - Unit 218/38 Eyre Street	Kingston	ACT	2604	-35.3162349	149.142807	APARTMENT	513247	Agent	Independent	Nicholas Jacob	2.0	2	1	6.0		['ALLOCATED_CAR_SPACE']
178826788	SALES_RESIDENTIAL	Well-presented 1st floor apartment only a short walking distance to all that the Woden town centre has to offer	Offers over $240,000	2020-10-19 22:41:08		52B/12 Albermarle Place	Phillip	ACT	2606	-35.34744879999999	149.0980892	APARTMENT	5392	Agent	Independent Woden	Mark Wolens	1.0	1	1	6.0	0.0	[]
178826902	SALES_RESIDENTIAL	Architectural Masterpiece.	Auction 14/11/20	2020-10-19 23:11:14		15 Goble Street	Hughes	ACT	2605	-35.332818	149.0996151	HOUSE	73	Agent	Luton Properties Manuka	Sophie Luton	5.0	3	2	3.5	853.0	[]
178827741	SALES_RESIDENTIAL	Classic Elegance Paired with a Modern Restoration In a Picturesque Setting.	Auction 14/11/20	2020-10-20 02:10:53		15 White Crescent	Campbell	ACT	2612	-35.28764779999999	149.1547518	DUPLEX	73	Agent	Luton Properties Manuka	Sophie Luton	3.0	1	1	2.5	349.0	[]
178829187	SALES_RESIDENTIAL	Stylish home in Dunlop!	AUCTION	2020-10-20 04:11:18		29 Shoobridge Circuit	Dunlop	ACT	2615	-35.19252	149.0214425	HOUSE	285646	Agent	White Rhino Property	Jonny Warren	3.0	2	2	4.5	605.0	['AIR_CONDITIONING', 'AIR_CONDITIONING_OTHER', 'ALARM']
178827864	SALES_RESIDENTIAL	EXCELLENT BUYING IN THE INNER SOUTH	$359,000	2020-10-20 04:11:31		2/22 Discovery Street	Red Hill	ACT	2603	-35.3410767	149.1340031	APARTMENT	709184	Agent	Christine Shaw Properties	Christine Shaw	2.0	1	1	4.0	1389.0	[]
178824321	SALES_RESIDENTIAL	Display Home!	$279,000+	2020-10-20 11:09:55		10 Barramundi Street	Throsby	ACT	2914	-35.19477716	149.1666768	HOUSE	699513	Agent	Illustrated Properties	Parisa Noubakht	4.0	3	2	6.0		[]
178823833	SALES_RESIDENTIAL	Enjoy a home that fits all your needs!	$765,000+	2020-10-20 13:00:00		11 Selleck Street	Casey	ACT	2913	-35.16189266	149.09899408	HOUSE	10905	Agent	Edge Real Estate	Steve Thomas	4.0	2	2	5.0	464.0	['AIR_CONDITIONING', 'AIR_CONDITIONING_OTHER', 'ALARM', 'DISHWASHER', 'DUCTED_VACCUM', 'ELECTRIC_HEATING', 'OUTDOOR_ENTERTAINING_AREA', 'SEPARATE_TOILET', 'WALK_IN_ROBE']
178829289	SALES_RESIDENTIAL	The Canberra Icon.	$1,398,000+	2020-10-20 20:20:27		4/1 Jardine Street	Kingston	ACT	2604	-35.31317070000001	149.14047231	APARTMENT	50	Agent	PURNELL	Nick Purnell	3.0	2	2	1.0		['AIR_CONDITIONING_REVERSE_CYCLE', 'BODY_CORPORATE', 'DISHWASHER', 'OUTDOOR_ENTERTAINING_AREA', 'WALK_IN_ROBE']
178817155	SALES_RESIDENTIAL	spacious corner apartment.	$795,000+	2020-10-20 20:20:38		44/18 Kennedy Street	Kingston	ACT	2604	-35.31802194	149.1420534	APARTMENT	50	Agent	PURNELL	Nick Purnell	2.0	2	2	6.0		['AIR_CONDITIONING_REVERSE_CYCLE', 'BODY_CORPORATE', 'DISHWASHER', 'ENTRANCE_HALL', 'INTERCOM', 'OUTDOOR_ENTERTAINING_AREA', 'STUDY_NOOK', 'UNDERGROUND_PARKING', 'WALK_IN_ROBE']
178831569	SALES_RESIDENTIAL	Magnificent Town house on Melomys	Auction 28/11/20	2020-10-20 21:10:14		26 Melomys Circuit	Throsby	ACT	2914	-35.1996951	149.1671515	TOWNHOUSE	709273	Agent	Carter and Co Agents	Nik Brozinic	3.0	2	2	5.5	0.0	[]
178831472	SALES_RESIDENTIAL	The Neatest!	$525,000 - $545,000	2020-10-20 21:20:16		34/2 Clare Burton Crescent	Franklin	ACT	2913	-35.1991593	149.1485419	VILLA	700494	Agent	HIVE Property	Steve Langford	3.0	3	2	6.0	0.0	[]
178831401	SALES_RESIDENTIAL	A Sanctuary on the City fringe	$1,290,000+	2020-10-20 21:30:22		2/14 Gould Street	Turner	ACT	2612	-35.2730885	149.1275378	TOWNHOUSE	108	Agent	LJ Hooker Canberra City	Kaylene King	4.0	3	2	6.0	0.0	[]
178831563	SALES_RESIDENTIAL	Charming, light-filled Dual Occupancy	Auction 14/11/20	2020-10-20 22:10:32		66A Mueller Street	Yarralumla	ACT	2600	-35.30495339999999	149.0998626	TOWNHOUSE	73	Agent	Luton Properties Manuka	Richard Luton	2.0	1	1	2.0	361.0	[]
178831678	SALES_RESIDENTIAL	Opportunity Knocks	$475,000+	2020-10-20 22:10:45		38 McDougall Street	Charnwood	ACT	2615	-35.200388200000006	149.0428209	HOUSE	93	Agent	LJ Hooker Belconnen	George Vlandis	3.0	1	2	1.5	569.0	[]
175942146	SALES_RESIDENTIAL	Spacious one bedroom.	$429,000+	2020-10-20 22:16:33	2020-04-02 21:52:00	10/33 Eastlake Parade	Kingston	ACT	2604	-35.3124313	149.1463688	APARTMENT	50	Agent	PURNELL	Nick Purnell	1.0	1	1	6.0	5309.0	['AIR_CONDITIONING_REVERSE_CYCLE', 'BODY_CORPORATE', 'BROADBAND', 'CORE_AREA', 'DISHWASHER', 'ENTRANCE_HALL', 'HOPPER', 'INTERCOM', 'OUTDOOR_ENTERTAINING_AREA', 'STUDY_NOOK']
178831405	SALES_RESIDENTIAL	Grand scale family residence	$1,375,000	2020-10-20 22:20:34		62 Samaria Street	Crace	ACT	2911	-35.2029306	149.1119342	HOUSE	539	Agent	LJ Hooker Gungahlin	Troy Thompson	4.0	2	2	5.0	832.0	[]
178831475	SALES_RESIDENTIAL	An exceptional property in an outstanding location...	$1,100,000	2020-10-20 22:21:10		21 Conjola Close	Amaroo	ACT	2914	-35.1714211	149.1244698	HOUSE	539	Agent	LJ Hooker Gungahlin	Jeff Shortland	5.0	2	5	5.5	723.0	[]
178831736	SALES_RESIDENTIAL	A truly unique offering in an ultra convenient setting	Auction 14/11/20	2020-10-20 22:31:08		14 Buller Crescent	Palmerston	ACT	2913	-35.1895198	149.119581	HOUSE	1624	Agent	Blackshaw Gungahlin	Thom Eriksson-Lake	4.0	2	1	3.5	789.0	['AIR_CONDITIONING', 'AIR_CONDITIONING_OTHER']
178732010	SALES_RESIDENTIAL	OPEN SAT! NEW RELEASE! 2BED/2BED/2CAR TOWNHOUSE	$485,000	2020-10-20 22:46:03		Alba - INSPECT ALL AVAILABLE ALBA HOMES THIS WEEKEND!	Throsby	ACT	2914	-35.1835644847213	149.157726486537	TOWNHOUSE	698063	Agent	Living Design Projects	Don McPherson	2.0	2	2	6.0		['AIR_CONDITIONING_REVERSE_CYCLE', 'BODY_CORPORATE', 'DISHWASHER', 'ENCLOSED_BACKYARD', 'HEATING_CENTRAL', 'NETWORK_CABLING', 'NEW_CONSTRUCTION', 'OFF_STREET_PARKING', 'OUTDOOR_ENTERTAINING_AREA']
178722181	SALES_RESIDENTIAL	Build your dream home	$295,000+	2020-10-20 22:47:26		(no street name provided)	Denman Prospect	ACT	2611	-35.30796147	149.02628119	HOUSE	5405	Agent	Independent Tuggeranong	Will Honey	4.0	2	2	5.0		[]
178831545	SALES_RESIDENTIAL	Grand architecturally designed family residence	Auction 14/11/20	2020-10-20 22:50:38		18 Whitelaw Street	Pearce	ACT	2607	-35.357246	149.08159840000005	HOUSE	5392	Agent	Independent Woden	Jonathan Charles	4.0	3	2	3.5	802.0	[]
178831395	SALES_RESIDENTIAL	On the Island with Views, a 'Lakefront' Apartment.	$495,000+	2020-10-21 00:01:15		139/11 Trevillian Quay	Kingston	ACT	2604	-35.3109089	149.1466063	APARTMENT	12	Agent	Blackshaw Manuka	Robert Westropp-Evans	1.0	1	1	3.5	0.0	[]
178831870	SALES_RESIDENTIAL	Impressive family home adjacent to Mulligans Flat Nature Reserve	Auction 14/11/20	2020-10-21 01:00:57		3 Jessie Street	Forde	ACT	2914	-35.165445500000004	149.1452382	HOUSE	5403	Agent	Independent Gungahlin	Paul Corazza	4.0	2	2	4.0	387.0	[]
178832578	SALES_RESIDENTIAL	Brand New modern Sanctuary of Style, Space and Quality	Auction 14/11/20	2020-10-21 01:20:33		67 Investigator Street	Red Hill	ACT	2603	-35.3430889	149.13498810000004	HOUSE	709273	Agent	Carter and Co Agents	Jake Winters	4.0	3	3	4.0	754.0	[]
178831975	SALES_RESIDENTIAL	Family Haven	Auction 14/11/20	2020-10-21 01:21:11		16 Gellibrand Street	Campbell	ACT	2612	-35.2887542	149.1603794	HOUSE	73	Agent	Luton Properties Manuka	Geraldine Collison	3.0	3	2	2.0	983.0	[]
178832635	SALES_RESIDENTIAL	Top Floor Loft Style Apartment	$700,000+	2020-10-21 02:21:58		47/219A Northbourne Avenue	Turner	ACT	2612	-35.2614318	149.13148940000005	APARTMENT	709273	Agent	Carter and Co Agents	James Carter	2.0	2	2	5.0	0.0	[]
178832779	SALES_RESIDENTIAL	A superb family home, located in one of Tuggeranong's most popular & sought after suburbs	Auction 14/11/20	2020-10-21 02:30:57		8 Wuronga Hill	Bonython	ACT	2905	-35.4367041	149.0862167	HOUSE	5405	Agent	Independent Tuggeranong	Eliana Rojas-Terry	5.0	2	3	1.5	834.0	[]
178832802	SALES_RESIDENTIAL	Picture perfect family home with an entertainers alfresco	Auction 14/11/20	2020-10-21 02:50:40		8 Pikler Rise	Moncrieff	ACT	2914	-35.1608883	149.1176517	HOUSE	5403	Agent	Independent Gungahlin	Rahul Mehta	4.0	2	2	5.5	419.0	[]
178832780	SALES_RESIDENTIAL	Start your new life in Kambah	Offers over $595,000	2020-10-21 03:00:39		14 Amherst Street	Kambah	ACT	2902	-35.386221	149.0631271	HOUSE	4217	Agent	Civium Property Group - Residential	Noah Shafron	3.0	2	1	1.0	886.0	[]
178833079	SALES_RESIDENTIAL	Renovated throughout	Auction 12/11/20	2020-10-21 03:01:59		7 Leggatt Street	Wanniassa	ACT	2903	-35.3931686	149.0856338	HOUSE	4217	Agent	Civium Property Group - Residential	Noah Shafron	2.0	1	0	2.0	699.0	[]
178833154	SALES_RESIDENTIAL	Modern and spacious North East facing Apartment on the light rail and with beautiful views.	$425,000	2020-10-21 03:21:02		59/275 Flemington Road	Franklin	ACT	2913	-35.1930852	149.15045669999995	APARTMENT	519077	Agent	Boris Property	Boris Teodorowych	2.0	2	2	6.0	0.0	['AIR_CONDITIONING', 'AIR_CONDITIONING_OTHER']
178738656	SALES_RESIDENTIAL	Up in treetops with mountain views	$369,000+	2020-10-21 04:48:03		219A Northbourne Avenue	Turner	ACT	2612	-35.26148257	149.1315861	APARTMENT	44	Agent	Taylors Real Estate	Darryl Taylor	1.0	1	1	6.0		['AIR_CONDITIONING_REVERSE_CYCLE', 'BODY_CORPORATE', 'DISHWASHER', 'GYM', 'MOUNTAIN_VIEWS', 'SWIMMING_POOL_INDOOR']
178833780	SALES_RESIDENTIAL	TWO BED, TWO BATH, TWO CAR – TOO CHEAP!	$350,000 +	2020-10-21 04:50:48		186/142 Anketell Street	Greenway	ACT	2900	-35.4142901	149.06627930000005	APARTMENT	709273	Agent	Carter and Co Agents	Jake Winters	2.0	2	2	6.0	0.0	[]
178833702	SALES_RESIDENTIAL	A rare find – North east facing corner apartment with park views & gas cooking	Offers over $360,000	2020-10-21 04:50:49		43/35 Tay Street	Watson	ACT	2602	-35.22491489999999	149.1682865	APARTMENT	5402	Agent	Independent Inner North & City	Adrian Stroh	2.0	1	1	6.0	9585.5	[]
178833753	SALES_RESIDENTIAL	WE HAVE CLEAR INSTRUCTIONS; THIS PROPERTY MUST SELL! Guide Price $490,000+	Auction 14/11/20	2020-10-21 04:50:56		25 Constance Stone Street	MacGregor	ACT	2615	-35.20858870000001	149.0046084	HOUSE	709273	Agent	Carter and Co Agents	Sam Howes	3.0	1	1	5.5	300.0	[]
178834586	SALES_RESIDENTIAL	Inviting, single level, four bedroom, dual occupancy residence amidst stunning gardens, close to parkland, local shops and the City!	Auction 14/11/20	2020-10-21 05:30:49		8A Rutherford Crescent	Ainslie	ACT	2602	-35.258581	149.1490899	HOUSE	421	Agent	Luton Properties Dickson	Aniko and Peter Carey	4.0	2	2	4.5	517.0	[]
178834676	SALES_RESIDENTIAL	Potential Plus In A Prime Location!	$369,000	2020-10-21 05:51:28		24/20 Oliver Street	Lyneham	ACT	2602	-35.2500317	149.1327149	UNIT	669351	Agent	Upside	Catherine Halloran	2.0	1	1	4.5	0.0	['HEATING_GAS']
178834415	SALES_RESIDENTIAL	Modern & Luxurious Home - When only the best will do	By Negotiation	2020-10-21 06:00:48		17 Janine Haines Terrace	Coombs	ACT	2611	-35.31597700000001	149.04288119999995	HOUSE	514317	Agent	Impact Properties	Anish Sebastian	4.0	3	2	5.5	450.0	['AIR_CONDITIONING', 'AIR_CONDITIONING_OTHER', 'BROADBAND', 'DISHWASHER', 'OUTDOOR_ENTERTAINING_AREA', 'RUMPUS_ROOM', 'STUDY']
178789474	SALES_RESIDENTIAL	Beautiful and modern KING SIZED one bedroom apartment for sale at the sought after KINGSTON FORESHORE	$455,000+	2020-10-21 09:14:38		217/2 Kerridge Street	Kingston	ACT	2604	-35.31363229999999	149.1486252	APARTMENT	151955	PrivateLister	Private Lister		1.0	1	1	6.0	4860.0	['AIR_CONDITIONING', 'AIR_CONDITIONING_OTHER', 'BODY_CORPORATE', 'DUCTED_VACCUM', 'HEATING_CENTRAL']
178836647	SALES_RESIDENTIAL	This is Just the Beginning	Auction 14/11/20	2020-10-21 13:22:00		56 Bamford Street	Hughes	ACT	2605	-35.33642670000001	149.0996241	HOUSE	308516	Agent	Michael Potter Real Estate	Alisa Lawrence	4.0	2	2	0.5	794.0	[]
178836916	SALES_RESIDENTIAL	Rare opportunities like this don't last long!	Auction 14/11/20	2020-10-21 15:02:00		6 Brassey Street	Deakin	ACT	2600	-35.32221129999999	149.1019784	HOUSE	682863	Agent	Hayman Partners	Brett Hayman	3.0	2	2	2.0	758.0	[]
178836928	SALES_RESIDENTIAL	So much for so little!!!!	Auction 21/11/20	2020-10-21 15:03:00		13 Rischbieth Crescent	Gilmore	ACT	2905	-35.4169805	149.1406819	HOUSE	682863	Agent	Hayman Partners	Brett Hayman	6.0	3	2	2.0	811.0	[]
178836917	SALES_RESIDENTIAL	Simply stunning - Not a thing to do - Just move in before xmas	Auction 14/11/20	2020-10-21 15:03:19		16 Nunan Crescent	Oxley	ACT	2903	-35.4106153	149.0813757	HOUSE	682863	Agent	Hayman Partners	Brett Hayman	3.0	2	2	2.0	990.0	[]
178836638	SALES_RESIDENTIAL	Bespoke Lifestyle Living with Breathtaking Panoramic Views	Auction 12/11/20	2020-10-21 18:12:00		26 Galbraith Close	Banks	ACT	2906	-35.4736944	149.10296499999995	HOUSE	682863	Agent	Hayman Partners	Anthony McCormack	5.0	3	2	5.0	705.0	[]
178836618	SALES_RESIDENTIAL	It's all about location!	Auction 22/11/20	2020-10-21 18:12:42		14/10 Ipima Street	Braddon	ACT	2612	-35.266788700000006	149.13189309999996	APARTMENT	682863	Agent	Hayman Partners	Anthony McCormack	1.0	1	1	6.0	0.0	[]
178836619	SALES_RESIDENTIAL	DELIGHTFUL HOME IN EXCELLENT CONDITION	Auction 14/11/20	2020-10-21 19:22:00		26 Kneeshaw Street	Monash	ACT	2904	-35.4194876	149.1001622	HOUSE	572389	Agent	Belle Property Kingston	Leanne Palmer	3.0	2	1	1.5	739.0	[]
178836667	SALES_RESIDENTIAL	1565m2 block with unlimited potential	Auction 13/11/20	2020-10-21 19:22:01		9 Wuruma Place	Duffy	ACT	2611	-35.3417138	149.0402683	HOUSE	1599	Agent	Luton Properties Weston Creek and Molonglo Valley	Tim And Justine Burke	4.0	2	4	0.5	1565.0	[]
178836719	SALES_RESIDENTIAL	NORTH FACING, LARGE ONE BEDROOM PLUS STUDY IN AVOCA	Offers Over $383,000	2020-10-21 19:22:14		151/116 Easty Street	Phillip	ACT	2606	-35.3465464	149.0906674	APARTMENT	572389	Agent	Belle Property Kingston	Rob Cappuccio	2.0	1	1	6.0	0.0	[]
178836658	SALES_RESIDENTIAL	The perfect start	Auction 14/11/20	2020-10-21 19:22:19		20 Angophora Street	Rivett	ACT	2611	-35.34738529999999	149.03125730000005	HOUSE	1599	Agent	Luton Properties Weston Creek and Molonglo Valley	Tim And Justine Burke	3.0	1	3	4.0	733.0	[]
178836620	SALES_RESIDENTIAL	GROUND FLOOR COURTYARD APARTMENT IN BOUTIQUE COMPLEX	Offers Over $425,000	2020-10-21 19:22:23		14/25-29 Berrigan Crescent	O'Connor	ACT	2602	-35.2586881	149.1286148	APARTMENT	572389	Agent	Belle Property Kingston	Rob Cappuccio	1.0	1	1	6.0	0.0	[]
178836958	SALES_RESIDENTIAL	ARCHITECTURALLY DESIGNED MODERNIST STYLE HOME	Auction 11/11/20	2020-10-21 19:22:32		18 Pelsart Street	Red Hill	ACT	2603	-35.3354554	149.1291794	HOUSE	572389	Agent	Belle Property Kingston	Louise Harget	4.0	3	2	6.0	877.0	[]
178836710	SALES_RESIDENTIAL	Elegant family masterpiece of grand proportions	Auction 14/11/20	2020-10-21 19:22:37		9 Dargie Street	Weston	ACT	2611	-35.32316179999999	149.0580727	HOUSE	1599	Agent	Luton Properties Weston Creek and Molonglo Valley	Tim And Justine Burke	5.0	4	2	4.5	700.0	[]
178836737	SALES_RESIDENTIAL	HOLIDAY AT HOME	Auction 14/11/20	2020-10-21 19:22:48		7 Beauchamp Street	Deakin	ACT	2600	-35.321749	149.0993102	HOUSE	572389	Agent	Belle Property Kingston	Leanne Palmer	4.0	2	3	2.5	803.0	[]
178836720	SALES_RESIDENTIAL	ABSOLUTE WATERFRONT LIVING	$1,050,000+	2020-10-21 19:32:01		15/17 Eastlake Parade	Kingston	ACT	2604	-35.3107979	149.1454983	APARTMENT	572389	Agent	Belle Property Kingston	Linda Lockwood	2.0	2	2	6.0	0.0	[]
178836778	SALES_RESIDENTIAL	Brand new and ready to move into!	Auction 14/11/20	2020-10-21 19:42:00		2/60 Arndell Street	Macquarie	ACT	2614	-35.24480050000001	149.0576804	HOUSE	682863	Agent	Hayman Partners	Rick And Tina Meir	4.0	2	2	7.5	0.0	[]
178836966	SALES_RESIDENTIAL	Outstanding potential in a premier location!	Auction 14/11/20	2020-10-21 19:42:16		1 Scottsdale Street	Lyons	ACT	2606	-35.3371366	149.07563530000004	HOUSE	682863	Agent	Hayman Partners	Rick And Tina Meir	4.0	2	2	0.0	815.0	[]
178836648	SALES_RESIDENTIAL	Telopea	$570,000+	2020-10-21 20:01:12		33/18 Currie Crescent	Kingston	ACT	2604	-35.314652	149.13907319999996	APARTMENT	682863	Agent	Hayman Partners	Shane Killalea	2.0	1	1	5.5	0.0	[]
178830177	SALES_RESIDENTIAL	Prized Top Floor Corner Apartment at The Avenue - Space and location	$710,000+	2020-10-21 20:24:44		131/77 Northbourne Avenue	Turner	ACT	2612	-35.27519723	149.12937314	APARTMENT	50	Agent	PURNELL	Ben Galdys	3.0	2	2	6.0		[]
178824790	SALES_RESIDENTIAL	Superb loft townhouse living	$449,000+	2020-10-21 20:28:40		13/90 Blacket Street	Downer	ACT	2602	-35.24798036	149.1413575	TOWNHOUSE	50	Agent	PURNELL	Ben Galdys	1.0	1	1	6.0		[]
178829668	SALES_RESIDENTIAL	Small in stature but large in charm and character	$299,000+	2020-10-21 20:31:55		4/65 Melba Street	Downer	ACT	2602	-35.24260306	149.14286823	APARTMENT	50	Agent	PURNELL	Ben Galdys	1.0	1	1	4.5		[]
178824322	SALES_RESIDENTIAL	Warm and inviting, single level townhouse.	$570,000+	2020-10-21 20:57:22		1/43 Bywaters Street	Amaroo	ACT	2914	-35.16917232	149.1239487	TOWNHOUSE	234605	Agent	Southern Property Canberra	Adrian Southern	3.0	2	2	4.0	1815.0	['AIR_CONDITIONING_SPLIT_SYSTEM', 'BODY_CORPORATE', 'BROADBAND', 'DISHWASHER', 'ELECTRIC_GARAGE_DOORS', 'ENCLOSED_BACKYARD', 'ENTRANCE_HALL', 'FENCING', 'FORMAL_LOUNGE_ROOM', 'HEATING_GAS_CENTRAL', 'OFF_STREET_PARKING', 'OUTDOOR_ENTERTAINING_AREA', 'SEPARATE_TOILET', 'SHOWER', 'SLAB_CONSTRUCTION']
178836675	SALES_RESIDENTIAL	Comfortable living so close to nature	Offers above $479,000	2020-10-21 21:42:01		7 Neidjie Close	Bonner	ACT	2914	-35.154646500000005	149.1503972	TOWNHOUSE	558799	Agent	Irwin Property	Greg Amos	3.0	1	1	5.5	148.0	[]
178836699	SALES_RESIDENTIAL	The home you won't want to leave.	Auction 21/11/20	2020-10-21 21:42:02		7 MacFarland Crescent	Chifley	ACT	2606	-35.35443220000001	149.0762406	HOUSE	700494	Agent	HIVE Property	Matt Shipard	4.0	3	3	4.0	904.0	[]
178836803	SALES_RESIDENTIAL	BRILLIANT FAMILY SPACE IN A LEAFY LOCALE	Auction 14/11/20	2020-10-21 22:22:07		27 Scott Street	Narrabundah	ACT	2604	-35.3382169	149.1403486	HOUSE	572389	Agent	Belle Property Kingston	Ryan Broadhurst	4.0	3	2	0.5	769.0	[]
178811815	SALES_RESIDENTIAL	Compelling lifestyle in a coveted locale	Auction 21/11/20	2020-10-21 22:22:50		36 Nicklin Crescent	Fadden	ACT	2904	-35.39667768	149.11695672	HOUSE	462427	Agent	One Agency Andrew Thorpe	Andrew Thorpe	4.0	2	2	3.0		['AIR_CONDITIONING_EVAPORATIVE', 'ALARM', 'ELECTRIC_GARAGE_DOORS', 'ENCLOSED_BACKYARD', 'ENTRANCE_HALL', 'HEATING_CENTRAL', 'HEATING_GAS', 'MOUNTAIN_VIEWS', 'OUTDOOR_ENTERTAINING_AREA', 'PERGOLA']
178812404	SALES_RESIDENTIAL	It could be yours!	$759,000+	2020-10-21 22:34:45		50 Louisa Briggs Circuit	Bonner	ACT	2914	-35.16281371	149.13569178	HOUSE	462427	Agent	One Agency Andrew Thorpe	Andrew Thorpe	4.0	2	2	5.5		['AIR_CONDITIONING_REVERSE_CYCLE', 'HEATING_GAS_CENTRAL', 'SUNROOM']
178836983	SALES_RESIDENTIAL	All the hard work has been done, just move in and enjoy.	$459,000+	2020-10-21 22:42:07		21/18 Burdett Crescent	Theodore	ACT	2905	-35.4487784	149.1228151	TOWNHOUSE	422	Agent	Luton Properties Tuggeranong	Andrew Campbell	3.0	1	1	0.0	0.0	[]
178836818	SALES_RESIDENTIAL	Brand New Town Residence With Nature At Your Doorstep	$765,000	2020-10-21 22:52:05		29/1 Rowland Rees Crescent	Greenway	ACT	2900	-35.42412539999999	149.06651230000003	TOWNHOUSE	422	Agent	Luton Properties Tuggeranong	Michael Martin	3.0	2	2	7.5	0.0	[]
178837086	SALES_RESIDENTIAL	Home Sweet Home - Fantastic value for money & lifestyle	By Negotiation	2020-10-21 22:52:05		137 Rob Riley Circuit	Bonner	ACT	2914	-35.15492879999999	149.1502397	HOUSE	514317	Agent	Impact Properties	Anish Sebastian	3.0	1	1	3.5	185.0	['AIR_CONDITIONING', 'AIR_CONDITIONING_OTHER', 'BROADBAND', 'DISHWASHER', 'OUTDOOR_ENTERTAINING_AREA']
178836722	SALES_RESIDENTIAL	CHARMING COTTAGE, DUAL OCCUPANCY POTENTIAL	Auction 19/11/20	2020-10-21 23:02:06		11 Enderby Street	Mawson	ACT	2607	-35.3576856	149.095095	HOUSE	33	Agent	Sadil Quinlan	Marc Sadil	3.0	1	0	4.0	886.0	[]
178837097	SALES_RESIDENTIAL	Easy-care family home in a sought-after central location	$529,000+	2020-10-21 23:12:03		8A Chubb Street	Latham	ACT	2615	-35.2239044	149.0357323	HOUSE	533949	Agent	Agent Team Canberra	Steve Lowe	3.0	1	1	3.5	0.0	[]
178837067	SALES_RESIDENTIAL	DECEPTIVELY QUIET WITH LOADS OF PRIVACY !	$420,000	2020-10-21 23:12:08		9/40 Philip Hodgins Street	Wright	ACT	2611	-35.3175469	149.03427030000003	APARTMENT	709184	Agent	Christine Shaw Properties	Christine Shaw	2.0	2	1	6.0	0.0	[]
178837098	SALES_RESIDENTIAL	Perfect for first home buyers, professional couple, or the savvy investor	Auction 14/11/20	2020-10-21 23:32:02		10/12 Albermarle Place	Phillip	ACT	2606	-35.34744879999999	149.0980892	APARTMENT	12	Agent	Blackshaw Manuka	Dario Beltrami	1.0	1	0	6.0	0.0	[]
178836831	SALES_RESIDENTIAL	Inner South living, without the price tag!	$130,000+	2020-10-21 23:32:09		249/250 Canberra Avenue	Symonston	ACT	2609	-35.332179	149.1639689	VILLA	252785	Agent	Luton Properties Gungahlin	Alysia Walsh	2.0	1	1		0.0	[]
178836820	SALES_RESIDENTIAL	An Iconic Home Wrapped In Tranquillity	Auction 14/11/20	2020-10-21 23:52:01		14 Bancks Crescent	McKellar	ACT	2617	-35.2159658	149.07872890000004	HOUSE	3285	Agent	Luton Properties Belconnen	Tim and Annabelle McInnes	4.0	2	3	2.5	729.0	[]
178837111	SALES_RESIDENTIAL	A quality build positioned within the sought after location of Gungahlin!	Auction 14/11/20	2020-10-21 23:52:03		3 John Winter Street	Gungahlin	ACT	2912	-35.1794277	149.1369618	HOUSE	252785	Agent	Luton Properties Gungahlin	Alysia Walsh	4.0	2	2	4.0	450.0	[]
178837226	SALES_RESIDENTIAL	Excellent Investment or First Home - Striking Views	$280,000	2020-10-21 23:52:07		12/41 Leahy Close	Narrabundah	ACT	2604	-35.3434916	149.14274540000005	APARTMENT	12	Agent	Blackshaw Manuka	David Stokes	1.0	1	1	6.0	0.0	[]
178837032	SALES_RESIDENTIAL	Your future family home in Higgins	Auction 14/11/20	2020-10-22 00:02:04		17 Davidson Street	Higgins	ACT	2615	-35.2350137	149.0238177	HOUSE	252785	Agent	Luton Properties Gungahlin	Matt Negline	4.0	2	2	1.5	825.0	[]
178837457	SALES_RESIDENTIAL	Exciting 4-bedroom ensuite home in a great locale	Offers over $595,000	2020-10-22 00:22:01		82 Paul Coe Crescent	Ngunnawal	ACT	2913	-35.1815865	149.1183252	HOUSE	5405	Agent	Independent Tuggeranong	Obi Shadmaan	4.0	2	2	2.5	425.0	[]
178837234	SALES_RESIDENTIAL	Vistas & an ideal location	Offers over $425,000	2020-10-22 00:52:00		Unit 62 Marie Little Crescent	Denman Prospect	ACT	2611	-35.30227160000001	149.03227230000005	APARTMENT	5402	Agent	Independent Inner North & City	Graham Bush	2.0	2	2	6.0	0.0	[]
178837806	SALES_RESIDENTIAL	What A View	$449,000+	2020-10-22 01:12:01		156/64 College Street	Belconnen	ACT	2617	-35.2427867	149.06959430000003	APARTMENT	489	Agent	En Vogue Property Management	Paul Kerin	2.0	2	2	6.0	0.0	['DISHWASHER', 'GYM']
178837658	SALES_RESIDENTIAL	Spacious family home in ideal location	Auction 14/11/20	2020-10-22 01:12:13		23 Webster Street	Hughes	ACT	2605	-35.3342675	149.08868280000004	HOUSE	80917	Agent	Ray White Canberra 	Nicky Symon	5.0	2	2	4.0	794.0	[]
178837671	SALES_RESIDENTIAL	Amazing lifestyle opportunity	Auction 14/11/20	2020-10-22 01:12:15		91 Ivo Whitton Circuit	Kambah	ACT	2902	-35.3916033	149.0364115	HOUSE	1517	Agent	Blackshaw Tuggeranong	Robert Peaker	4.0	2	2	2.0	922.0	['SWIMMING_POOL']
178837731	SALES_RESIDENTIAL	The Complete Family Lifestyle	$849,000+	2020-10-22 01:22:04		1 Fielder Place	Florey	ACT	2615	-35.221532	149.0527719	HOUSE	98	Agent	LJ Hooker Manuka	Samuel Thompson	4.0	2	3	1.0	943.0	[]
178813122	SALES_RESIDENTIAL	Unit 92, A Plan, Two bedroom, 83m2 living- $435,950	$435,950	2020-10-22 02:01:04		KOKO - Molonglo - Unit 92, A Plan, Two bedroom, 83m2 living- $435,950	Wright	ACT	2611	-35.3208	149.0373	OTHER	76	Agent	Metropolis Real Estate	Nick Brearley	2.0	2	2	6.5		[]
178743612	SALES_RESIDENTIAL	Unit 73, D2 plan, Level 7 (Penthouse Level)- $440,950	$440,950	2020-10-22 02:11:21		KOKO - Molonglo - Unit 73, D2 plan, Level 7 (Penthouse Level)- $440,950	Wright	ACT	2611	-35.3208	149.0373	OTHER	76	Agent	Metropolis Real Estate	Nick Brearley	2.0	2	2	6.5		[]
178837615	SALES_RESIDENTIAL	North facing views, single level & spacious living	Offers over $479,000	2020-10-22 02:12:17		10/21 Wiseman Street	Macquarie	ACT	2614	-35.2526173	149.0743575	APARTMENT	5405	Agent	Independent Tuggeranong	Jacob Stanton	3.0	2	2	5.0	0.0	[]
178817432	SALES_RESIDENTIAL	Two bedrooms townhouse 1A (Eligible for Homebuilder)	$599,950	2020-10-22 02:17:47		RISE - Two bedrooms townhouse 1A (Eligible for Homebuilder)	Bruce	ACT	2617	-35.24535542	149.09163136	TOWNHOUSE	565869	Agent	TP Dynamics Pty Ltd	Kenneth Kong	2.0	2	2	6.2		['ALLOCATED_CAR_SPACE']
178817179	SALES_RESIDENTIAL	Imagine the possibilities	Auction 14/11/20	2020-10-22 02:18:43		8 Morphy Place	Cook	ACT	2614	-35.25941093	149.07307987	HOUSE	5403	Agent	Independent Gungahlin	Andrew Potts	4.0	2	2	3.5	448.0	[]
178837170	SALES_RESIDENTIAL	Spacious and flooded with sunlight.	$1,895,000+	2020-10-22 02:19:07		27/22 Canberra Avenue	Forrest	ACT	2603	-35.31597621	149.13065096	APARTMENT	50	Agent	PURNELL	Nick Purnell	3.0	3	2	6.0	2275.0	['AIR_CONDITIONING_REVERSE_CYCLE', 'BODY_CORPORATE', 'DISHWASHER', 'DOUBLE_GLAZED_WINDOWS', 'ELECTRIC_GARAGE_DOORS', 'ENTRANCE_HALL', 'INTERCOM', 'NEW_CONSTRUCTION', 'OUTDOOR_ENTERTAINING_AREA', 'UNDERGROUND_PARKING']
178817440	SALES_RESIDENTIAL	Four bedrooms townhouse 4B (largest floor plan in RISE)	$979,000	2020-10-22 02:25:37		RISE - Four bedrooms townhouse 4B (largest floor plan in RISE)	Bruce	ACT	2617	-35.24535542	149.09163136	TOWNHOUSE	565869	Agent	TP Dynamics Pty Ltd	Will Ding	4.0	3	2	6.1		[]
178813135	SALES_RESIDENTIAL	Four bedrooms townhouse 4A (With private lift)	$1,069,000	2020-10-22 02:25:47		RISE - Four bedrooms townhouse 4A (With private lift)	Bruce	ACT	2617	-35.24535542	149.09163136	TOWNHOUSE	565869	Agent	TP Dynamics Pty Ltd	Kenneth Kong	4.0	3	2	6.1		[]
178813102	SALES_RESIDENTIAL	Two bedrooms townhouse 2B (Eligible for Homebuilder)	$649,900	2020-10-22 02:26:00		RISE - Two bedrooms townhouse 2B (Eligible for Homebuilder)	Bruce	ACT	2617	-35.24535542	149.09163136	TOWNHOUSE	565869	Agent	TP Dynamics Pty Ltd	Will Ding	2.0	2	2	6.8		[]
178794385	SALES_RESIDENTIAL	Three bedrooms townhouse 1B	$829,000	2020-10-22 02:26:08		RISE - Three bedrooms townhouse 1B	Bruce	ACT	2617	-35.24535542	149.09163136	TOWNHOUSE	565869	Agent	TP Dynamics Pty Ltd	Will Ding	3.0	3	2	6.6		['ALLOCATED_CAR_SPACE']
178813134	SALES_RESIDENTIAL	Three bedrooms townhouse 2D	$859,000	2020-10-22 02:26:19		RISE - Three bedrooms townhouse 2D	Bruce	ACT	2617	-35.24535542	149.09163136	TOWNHOUSE	565869	Agent	TP Dynamics Pty Ltd	Kenneth Kong	3.0	3	2	6.8		[]
178830156	SALES_RESIDENTIAL	Four bedrooms townhouse 5 (Adaptable Only 2 available)	$789,000	2020-10-22 02:26:27		RISE - Four bedrooms townhouse 5 (Adaptable Only 2 available)	Bruce	ACT	2617	-35.24535542	149.09163136	TOWNHOUSE	565869	Agent	TP Dynamics Pty Ltd	Will Ding	3.0	2	2	6.4		[]
178817439	SALES_RESIDENTIAL	Three bedrooms townhouse 3B (Eligible for Homebuilder)	$749,950	2020-10-22 02:26:34		RISE - Three bedrooms townhouse 3B (Eligible for Homebuilder)	Bruce	ACT	2617	-35.24535542	149.09163136	TOWNHOUSE	565869	Agent	TP Dynamics Pty Ltd	Kenneth Kong	3.0	2	2	6.8		[]
178837971	SALES_RESIDENTIAL	Family Oasis Offering a Great Lifestyle	$1,249,000 - $1,299,000	2020-10-22 02:42:14		107 La Perouse Street	Narrabundah	ACT	2604	-35.3339648	149.1357282	HOUSE	98	Agent	LJ Hooker Manuka	Stephen Thompson	3.0	2	2	2.0	648.0	['AIR_CONDITIONING_REVERSE_CYCLE', 'OUTDOOR_ENTERTAINING_AREA']
178838197	SALES_RESIDENTIAL	Architect designed family home in ideal location	Auction 14/11/20	2020-10-22 02:42:17		62 Couvreur Street	Garran	ACT	2605	-35.3346349	149.11141840000005	HOUSE	80917	Agent	Ray White Canberra 	Nicky Symon	4.0	3	2	1.5	1005.0	['AIR_CONDITIONING', 'AIR_CONDITIONING_OTHER', 'SWIMMING_POOL']
178838636	SALES_RESIDENTIAL	Perfect in Every Way with Stunning Views	$1,250,000	2020-10-22 03:12:14		87/43 Constitution Avenue	Reid	ACT	2612	-35.2876591	149.1390602	APARTMENT	188615	Agent	McIntyre Property	Terry Cooper	3.0	2	2	6.0	0.0	['AIR_CONDITIONING', 'AIR_CONDITIONING_OTHER']
178838590	SALES_RESIDENTIAL	playfair.fun	$335,000+	2020-10-22 03:32:07		2/2 Playfair Place	Belconnen	ACT	2617	-35.24429749999999	149.0714988	APARTMENT	577049	Agent	home.byholly	Jenny Michael And Mark McReynolds	2.0	1	1	4.0	0.0	[]
178838491	SALES_RESIDENTIAL	Backing directly onto the Gold Creek Golf Course, wake up to the songbirds singing…	Auction 11/11/20	2020-10-22 03:42:10		16/25 Temperley Street	Nicholls	ACT	2913	-35.1837805	149.0938482	TOWNHOUSE	5402	Agent	Independent Inner North & City	Mark Larmer	4.0	2	2	6.0	15040.1	[]
178838500	SALES_RESIDENTIAL	The house design won the 1962 Women's Weekly Design of the Year award!	Auction 14/11/20	2020-10-22 03:52:02		11 Swinden Street	Downer	ACT	2602	-35.24411220000001	149.1364011	HOUSE	421	Agent	Luton Properties Dickson	Aniko and Peter Carey	4.0	1	1	3.0	773.0	[]
178838627	SALES_RESIDENTIAL	Weatherboard cottage with loads of potential	Auction 14/11/20	2020-10-22 04:02:02		21 Scrivener Street	O'Connor	ACT	2602	-35.2568243	149.125725	HOUSE	84655	Agent	McGrath North Canberra	Maree Van Arkel	2.0	1	1	0.0	714.0	[]
178838853	SALES_RESIDENTIAL	bright.future	Auction 14/11/20	2020-10-22 04:12:03		4 Ross Street	O'Connor	ACT	2602	-35.2659661	149.1176076	HOUSE	577049	Agent	home.byholly	Holly Komorowski	2.0	1	0	2.0	0.0	[]
178836837	SALES_RESIDENTIAL	3 Bedroom residence in need of upgrading. Renovators special !!!	Auction 14/11/20	2020-10-22 04:54:17		77 Barada Crescent	Aranda	ACT	2614	-35.26004648	149.07786371	HOUSE	72	Agent	Wright Dunn Real Estate	Peter Andrighetto	3.0	1	0	0.5		[]
178839037	SALES_RESIDENTIAL	Feels Like Home!	Offers Over $670,000	2020-10-22 05:02:04		20 Goodman Street	Monash	ACT	2904	-35.414916	149.0997586	HOUSE	669351	Agent	Upside	Catherine Halloran	3.0	2	4	1.0	810.0	['DISHWASHER', 'GARDEN_SHED', 'HEATING_CENTRAL']
178839537	SALES_RESIDENTIAL	cowper.home	Auction 14/11/20	2020-10-22 05:12:11		40 Cowper Street	Ainslie	ACT	2602	-35.26105870000001	149.14236719999997	HOUSE	577049	Agent	home.byholly	Holly Komorowski	3.0	2	2	2.0	0.0	[]
178839045	SALES_RESIDENTIAL	Plenty of Potential	Auction 18/11/20	2020-10-22 05:22:01		19 Sprent Street	Narrabundah	ACT	2604	-35.33992960000001	149.13954109999997	HOUSE	421	Agent	Luton Properties Dickson	Melissa Martin-Smith	3.0	1	0	1.0	1123.0	[]
178839195	SALES_RESIDENTIAL	Inner city living at its best!	480,000+	2020-10-22 05:42:17		416/24 Lonsdale Street	Braddon	ACT	2612	-35.27269920000001	149.1332414	APARTMENT	686333	Agent	Francis Properties Canberra	Jeremy Francis	1.0	1	1	5.5	0.0	[]
178839330	SALES_RESIDENTIAL	COME HOME TO THE CASEY LIFESTYLE	Under Offer	2020-10-22 05:42:18		30 Mick Shann Terrace	Casey	ACT	2913	-35.176799	149.086364	HOUSE	476831	Agent	No Agent Property 		3.0	1	1	6.0	249.0	['AIR_CONDITIONING', 'AIR_CONDITIONING_OTHER', 'DISHWASHER']
178836633	SALES_RESIDENTIAL	29/2 Pipeclay St, Lawson ACT 2617	$495,000-$500,000	2020-10-22 05:52:59		29/2 Pipeclay St	Lawson	ACT	2617	-35.2280065	149.08757930000004	TOWNHOUSE	570129	Agent	Trusted Realtors	Paco Yip	2.0	2	0	5.5		[]
178841109	SALES_RESIDENTIAL	Charm of days gone by...	Auction 11/11/20	2020-10-22 08:22:00		7 Jukes Place	Hackett	ACT	2602	-35.2407034	149.1655614	HOUSE	857413	Agent	Badenoch Real Estate Sales	Symon Badenoch	4.0	1	1	1.5	0.0	[]
178836634	SALES_RESIDENTIAL	Could easily have 4th bedroom incorporated	$749,000+	2020-10-22 09:51:26		10 Eppalock Street	Duffy	ACT	2611	-35.33217422	149.03341685	HOUSE	10905	Agent	Edge Real Estate	Steve Thomas	3.0	1	2	0.5		['AIR_CONDITIONING_EVAPORATIVE', 'FAMILY_ROOM', 'FORMAL_LOUNGE_ROOM', 'HEATING_GAS']
178841673	SALES_RESIDENTIAL	North facing, spacious 1-bedroom apartment in inner south central Griffith	Offers over $349,000	2020-10-22 21:42:01		22/16 Eyre Street	Griffith	ACT	2603	-35.3184304	149.140581	APARTMENT	5392	Agent	Independent Woden	Elie Aoun	1.0	1	0	6.0	0.0	[]
178842066	SALES_RESIDENTIAL	Established Charm offering an Outstanding Opportunity.	Auction 14/11/20	2020-10-22 21:52:01		11 Barkly Crescent	Forrest	ACT	2603	-35.3159217	149.1210162	HOUSE	12	Agent	Blackshaw Manuka	Robert Westropp-Evans	3.0	2	4	1.5	0.0	['STUDY']
178841035	SALES_RESIDENTIAL	Location & Lifestyle	Price to sell - contact Agent	2020-10-22 21:52:02		87/20 Allara Street	Canberra	ACT	2601	-35.2824159	149.1333284	APARTMENT	435947	Agent	Leader Capital Real Estate	Tony Yip	2.0	1	1	6.0	0.0	['AIR_CONDITIONING_REVERSE_CYCLE']
178826891	SALES_RESIDENTIAL	Buy Me! Well Presented 2 Bedroom Apartment	$395,000+	2020-10-22 23:25:45		59/329 Flemington Road	Franklin	ACT	2913	-35.18803877	149.14590479	APARTMENT	910293	Agent	Hualei Properties Canberra	Li Yu	2.0	2	2	6.0		['ALLOCATED_CAR_SPACE']
178829290	SALES_RESIDENTIAL	LEAFY AND PRIVATE STREET OFFERS A QUIET HAVEN	$895,000	2020-10-22 23:28:48		20 Carroll Street	Hughes	ACT	2605	-35.33324054	149.09153886	HOUSE	350395	Agent	Maureen Dwyer Property Consultant	Maureen Dwyer	3.0	1	2	1.5	352.0	['AIR_CONDITIONING_REVERSE_CYCLE', 'ALLOCATED_CAR_SPACE', 'BROADBAND', 'DINING_ROOM', 'DISHWASHER', 'ELECTRIC_HEATING', 'ENCLOSED_BACKYARD', 'ENTRANCE_HALL', 'FENCING', 'FORMAL_LOUNGE_ROOM', 'GARDEN_SHED', 'HEATING_GAS', 'OFF_STREET_PARKING', 'OUTDOOR_ENTERTAINING_AREA', 'SEPARATE_TOILET', 'SHOWER', 'STUDY']
178824793	SALES_RESIDENTIAL	HIGH DESIRABLE LOCATION AND HOME IN SOUGHT AFTER SUBURB	$1,575,000	2020-10-22 23:48:29		47 MacGillivray Street	Yarralumla	ACT	2600	-35.30967393	149.10585062	HOUSE	350395	Agent	Maureen Dwyer Property Consultant	Maureen Dwyer	4.0	2	2	2.0	799.0	['DINING_ROOM', 'DISHWASHER', 'ENCLOSED_BACKYARD', 'ENTRANCE_HALL', 'FAMILY_ROOM', 'FENCING', 'FORMAL_LOUNGE_ROOM', 'HEATING_GAS', 'OFF_STREET_PARKING', 'OUTDOOR_ENTERTAINING_AREA', 'SHOWER', 'THREE_PHASE_POWER']
177952519	SALES_RESIDENTIAL	NEW LISTING - LAST OFFERING - INSPECT THIS WEEKEND	$695,000	2020-10-22 23:49:37		Limani - NEW LISTING - 4 BEDROOM WATERFRONT TERRACE	Greenway	ACT	2900	-35.4224065073879	149.074647472667	TOWNHOUSE	698063	Agent	Living Design Projects	Don McPherson	3.0	2	2	6.0		['AIR_CONDITIONING_REVERSE_CYCLE', 'BODY_CORPORATE', 'DISHWASHER', 'FAMILY_ROOM', 'HEATING_CENTRAL', 'NETWORK_CABLING', 'NEW_CONSTRUCTION', 'OUTDOOR_ENTERTAINING_AREA', 'POWDER_ROOM', 'SEPARATE_TOILET', 'WATERFRONT']
178842228	SALES_RESIDENTIAL	What a Block!! What a Location!!	Auction 24/11/20	2020-10-23 00:22:05		17 Strzelecki Place	Narrabundah	ACT	2604	-35.3288658	149.14600080000002	HOUSE	63	Agent	Maloney's Property	Moira Maloney	3.0	1	0	0.5	0.0	[]
178842442	SALES_RESIDENTIAL	Sensational Apartment with Views	$449,000+	2020-10-23 01:12:03		310/21 Provan Street	Campbell	ACT	2612	-35.2900216	149.14305819999996	APARTMENT	642841	Agent	Blackshaw City & Inner North	Ryan Stavaruk	1.0	1	1	6.0	0.0	[]
178842523	SALES_RESIDENTIAL	The blue house	Auction 21/11/20	2020-10-23 01:22:07		22 Angas Street	Ainslie	ACT	2602	-35.2631127	149.13931680000005	HOUSE	709273	Agent	Carter and Co Agents	Jake Winters	5.0	2	2	0.0	1053.0	[]
178836841	SALES_RESIDENTIAL	2 Bedroom 2 Bathroom Townhouse	$449,900	2020-10-23 02:14:50		10 Woodberry Avenue	Coombs	ACT	2611	-35.3240677	149.0457621	HOUSE	3250	Agent	LJ Hooker Project Marketing	Keenan Veraar	2.0	2	2	6.5		[]
178842680	SALES_RESIDENTIAL	Vacant possession, move in by Christmas!	Offers over $560,000	2020-10-23 02:22:08		215/43 Currong Street	Braddon	ACT	2612	-35.2785339	149.1367916	APARTMENT	5402	Agent	Independent Inner North & City	Adrian Stroh	2.0	2	2	6.0	0.0	[]
178843049	SALES_RESIDENTIAL	Ample Space, Check. Glorious Gardens, Check. The perfect family home.	Auction 14/11/20	2020-10-23 02:32:05		75 McCormack Street	Curtin	ACT	2605	-35.3301328	149.07707	HOUSE	5402	Agent	Independent Inner North & City	Mark Larmer	4.0	2	2	5.5	936.31	[]
178837171	SALES_RESIDENTIAL	FIVE BEDROOM HOME WITH POTENTIAL	Auction 18/11/20	2020-10-23 03:56:34		11 Mollee Crescent	Isabella Plains	ACT	2905	-35.42858278	149.09389333	HOUSE	116	Agent	Laurrie Scheele	Fleur Scheele	4.0	0	0	0.0		['STUDY']
