id	type	DescriptionTitle	PriceLabel	ListingDate	ReListingDate	Address	Suburb	State	PostCode	Property.lat	Property.lon	PropertyType	Agency.Id	Agency.Name	Agent.Name	Beds	Baths	Cars	EER	PlotSize
39931	residential	"Secure your dream family home NOW ""The Foothills"""	$875,000	2021-04-03T15:47:23.161808+11:00	2021-07-30T12:37:41.588144+10:00	Lambrigg Road	GOOGONG	NSW	2620	149.2217698322754	-35.42318545445167	House	1857	Ideal Building Solutions	Rad Trpkovski	4	2	2	0.0	484.0
40097	residential	A short stroll to the Woden Town Centre	$440,000+	2021-04-08T10:40:51.694988+10:00	2021-10-20T10:01:48.111576+11:00	4/5 Burnie Street	LYONS	ACT	2606	149.0810806	-35.3404121	Apartment	513	One Agency Sandy Morris	Sandy Morris	1	1	1	6.0	47.0
40804	residential	Sound investment in an ultra-convenient location 	By Negotiation	2021-04-21T10:02:47.437263+10:00	2021-10-18T17:16:26.314220+11:00	2/114 Macarthur Avenue	O'CONNOR	ACT	2602	149.1298073	-35.2605112	Townhouse	2853	Bastion Property Group	Theo Koutsikamanis	5	3	2	6.0	
40809	residential	House and land package - Land registration late 2021	$899,000	2021-04-21T10:02:48.221128+10:00	2021-10-12T14:46:25.505367+11:00		GOOGONG	NSW	2620	0.0	0.0	House	2853	Bastion Property Group	Theo Koutsikamanis	4	2	2	6.0	399.0
40891	residential	Executive Living	$480,000+	2021-04-22T10:20:31.552841+10:00	2021-10-19T12:01:26.087115+11:00	47/29 Dawes Street	KINGSTON	ACT	2604	149.143556	-35.3171339	Apartment	34	McIntyre Property	Anne Farrell	2	1	1	6.0	0.0
40959	residential	Pristine living	Enquire Today!	2021-04-23T12:43:47.674248+10:00	2021-08-12T23:31:49.045859+10:00	1203/25 Edinburgh Avenue	CITY	ACT	2601	149.1225765	-35.2849101	Apartment	1069	Crowthers	Tony Barker	1	1	1	6.0	
41099	residential	The excellent choice of investors, stable rental rewards	$520,000+	2021-04-28T14:48:56.806120+10:00	2021-09-29T11:46:23.901209+10:00	1513/3 Grazier Lane	BELCONNEN	ACT	2617	149.0713978	-35.2402235	Apartment	2355	La Casa Property Group	Jun Xu	2	2	1	6.0	
41204	residential	Light filled and contemporary home with unrivalled views.	$1,500,000	2021-04-30T11:09:51.408777+10:00	2021-10-24T14:53:13.003721+11:00	31 Trinca St	DENMAN PROSPECT	ACT	2611	149.02818437	-35.30090788	House	2880	Confidence Real Estate	Anish Sebastian	6	4	2	6.0	450.0
41209	residential	Amazing Location and views not to be missed.	Offers over $1,249,000	2021-04-30T11:41:32.589885+10:00	2021-08-18T16:13:15.141886+10:00	9 Nethercote Street	TAYLOR	ACT	2913	149.1010755	-35.1529115	House	2880	Confidence Real Estate	Anish Sebastian	4	3	2	5.0	472.0
41255	residential	Close to completion- Snap this up quick	$495,000	2021-05-03T12:10:13.647585+10:00	2021-06-08T10:40:06.522075+10:00	402/2 Cooyong Street	REID	ACT	2612	149.1303153	-35.2759029	Apartment	2746	Canberry Properties	Sarah Cooper	1	1	1	6.0	0.0
41356	residential	Heritage listed views.	$595,000+	2021-05-05T11:59:07.888397+10:00	2021-09-28T09:34:16.839988+10:00	74/21 Dawes Street	KINGSTON	ACT	2604	149.1425807	-35.3183346	Apartment	1155	PURNELL	Nick Purnell	1	1	1	6.0	0.0
41418	residential	Trendy Lifestyle	$369,000+	2021-05-06T09:20:05.328682+10:00	2021-09-03T11:01:45.868588+10:00	907/4 Grazier Lane	BELCONNEN	ACT	2617	149.0719813	-35.2401725	Unit	232	Ray White Canberra	Samuel Fitzsimmons	1	1	1	6.0	
41431	residential	Master bedroom on the ground floor - Sizeable living in an ultra-convenient location 	$725,000	2021-05-06T10:17:40.212014+10:00	2021-10-12T14:46:26.864462+11:00	8 Courtney Street	GOOGONG	NSW	2620	149.2247931	-35.4198083	Townhouse	2853	Bastion Property Group	Theo Koutsikamanis	3	2	2	6.0	200.0
41440	residential	Penthouse Apartment With Stunning Views	$725,000+	2021-05-06T11:03:49.170627+10:00	2021-09-17T17:01:32.757620+10:00	2705/1 Grazier Lane	BELCONNEN	ACT	2617	149.0713978	-35.2402235	Apartment	441	LJ Hooker Kippax	Peta Barrett	3	2	2	6.0	
41534	residential	"""STUNNING"" Display Home for Sale"	$1,350,000 to $1,395,000	2021-05-10T11:16:54.363057+10:00	2022-03-30T12:26:57.940997+11:00	31 Courtney	GOOGONG	NSW	2620	149.2247931	-35.4198083	House	1857	Ideal Building Solutions	Rad Trpkovski	4	2	2	0.0	569.0
41638	residential	Unique Taiyo Design, Expansive Canberra Views	$1,150,000	2021-05-12T11:59:08.123110+10:00	2021-09-23T15:06:38.196212+10:00	709/25 Edinburgh Avenue	CITY	ACT	2601	149.1225765	-35.2849101	Apartment	626	Berkely Residential	Simon Richards	2	2	2	5.5	0.0
41723	residential	Ideal investment or first home!!	Offers over $425,000	2021-05-13T11:25:49.418314+10:00	2021-06-10T14:33:40.692034+10:00	42/20 Allara St	CITY	ACT	2601	149.1333284	-35.2824159	Apartment	2880	Confidence Real Estate	Alvin Nappilly	1	1	1	7.5	0.0
41764	residential	FANTASTIC INVESTMENT & FIRST HOME OWNER OPPORTUNITIES	$329,000	2021-05-13T15:27:32.830354+10:00	2021-10-19T12:01:41.772360+11:00	28/36 Antill Street	QUEANBEYAN	NSW	2620	149.2340679	-35.3482092	Unit	624	Ian McNamee & Partners - Queanbeyan	Michael Edwards	1	1	1		64.0
41772	residential	Luxurious, spacious and utmost quality	Offers over $610,000	2021-05-13T16:18:25.188982+10:00	2021-08-12T23:31:43.238091+10:00	302/25 Edinburgh Avenue	CITY	ACT	2601	149.1225765	-35.2849101	Apartment	1069	Crowthers	Tony Barker	2	1	1	6.0	
41836	residential	House & Land package in Taylor.	Offers over $899,000	2021-05-17T13:44:09.269005+10:00	2021-05-17T13:44:09.406161+10:00	20 Edwin Oribin St	TAYLOR	ACT	2913	149.0960614	-35.1473683	House	2880	Confidence Real Estate	Pawandeep Singh Chadha	4	2	2	0.0	540.0
42037	residential	LOCATION, LIFESTYLE AND SPACE	$1,200,000	2021-05-21T14:18:18.344231+10:00	2021-09-15T10:31:28.381744+10:00	24/15 Fitzroy Street	FORREST	ACT	2603	149.1324129	-35.3152	Apartment	273	Luton Dickson	Melissa Martin-Smith	3	2	2	5.0	
42059	residential	Prestigious apartment in an outstanding location	$629,000+	2021-05-24T10:50:09.807510+10:00	2021-10-01T14:31:30.672221+10:00	121/43 Currong Street North	BRADDON	ACT	2612	149.1367916	-35.2785339	Unit	2746	Canberry Properties	Shan Gao	2	2	2	6.0	
42096	residential	Sunny 8th floor apartment in well maintained complex	$429,000+	2021-05-25T10:09:39.063789+10:00	2021-10-14T11:16:18.284070+11:00	100/77 Gozzard Street	GUNGAHLIN	ACT	2912	149.1329625	-35.1818378	House	410	McGrath Canberra	Matt Harmer	2	2	2	6.0	
42097	residential	1 Bedroom Apartments	$330,000	2021-05-25T10:14:17.546485+10:00	2021-09-17T21:46:32.444633+10:00	Woodberry Woodberry Avenue	COOMBS	ACT	2611	149.0429166	-35.3225047	Apartment	690	LJ Hooker Project Marketing	Keenan Veraar	1	1	1	6.0	0.0
42272	residential	Luxury + Location = Lavish Lifestyle	By Negotiation	2021-05-27T10:35:05.782498+10:00	2021-09-16T22:01:33.151755+10:00	1/28 Black Street	YARRALUMLA	ACT	2600	149.1031494	-35.3032112	Townhouse	232	Ray White Canberra	Peter Walker	3	2	2	3.0	530.0
42316	residential	Address available on request, Campbell	$460,000+	2021-05-27T15:39:03.486216+10:00	2021-10-19T11:01:23.110878+11:00		CAMPBELL	ACT	2612	0.0	0.0	Apartment	618	home.by holly	Holly Komorowski	1	1	1	6.0	
42320	residential	Old values, new living	$599,900+	2021-05-27T15:58:13.337888+10:00	2021-09-17T21:46:24.119912+10:00	Olea Camilleri Way	GUNGAHLIN	ACT	2912	149.1389684	-35.1895304	Townhouse	690	LJ Hooker Project Marketing	Keenan Veraar	2	2	2	6.0	0.0
42333	residential	Investors Dream	$1,900,000 to $2,000,000	2021-05-27T21:10:16.887467+10:00	2021-08-11T19:17:46.259816+10:00	1,2,3 & 5/1 Blackall Avenue	CRESTWOOD	NSW	2620	149.2239252	-35.3458469	Townhouse	1572	Heading Home Properties	Adam Heading	8	4	8	0.0	0.0
42340	residential	View by appointment Only !	$4,250,000	2021-05-28T09:51:42.877466+10:00	2021-08-12T13:48:36.188085+10:00	52 Culgoa Circuit	O'MALLEY	ACT	2606	149.1085657	-35.35085979999999	House	636	Impact Properties	Grace Corcoran	5	4	23	2.0	2958.0
42349	residential	Grand Central Towers - Unit 2006	$519,900	2021-05-28T11:38:20.980837+10:00	2021-09-16T08:01:29.132841+10:00	2006/15 Bowes Street	PHILLIP	ACT	2606	149.0868669	-35.3441316	Apartment	694	GEOCON	Adam Morgan	2	1	1	5.0	0.0
42563	residential	Modern Living in the Heart of the City.	Offers over $699,000	2021-06-03T12:27:12.693017+10:00	2021-10-13T12:03:04.965994+11:00	98/45 West Row	CITY	ACT	2601	149.1275789	-35.2786363	Apartment	2880	Confidence Real Estate	Anish Sebastian	2	2	1	6.0	0.0
42773	residential	Luxury CBD living & fantastic investment!	$429,990+	2021-06-09T11:48:17.858097+10:00	2021-10-08T16:16:41.169397+11:00	3/20 Allara Street	CITY	ACT	2601	149.1333284	-35.2824159	Apartment	2746	Canberry Properties	Bob Zhuang	1	1	1	6.0	
42779	residential	Light Filled and Luxurious Finish!	$519,000+	2021-06-09T12:29:43.354121+10:00	2021-10-12T10:16:25.759044+11:00	12/11 Kerridge Street	KINGSTON	ACT	2604	149.1498364	-35.3131584	Apartment	440	LJ Hooker Canberra City	Antony Damiano	1	1	1	6.0	
42853	residential	Sensational Land Holding with Views - land and plans only	$1,550,000	2021-06-10T12:22:41.426682+10:00	2021-10-06T11:37:54.996406+11:00	9 Walter Hood Lane	RED HILL	ACT	2603	149.1298336357798	-35.342985919725926	House	626	Berkely Residential	Bill Lyristakis	4	2	4	6.0	0.0
42961	residential	A harmonious blend of environmental sustainability and urban living	$415,000	2021-06-10T08:46:13.151069+10:00	2021-10-07T11:16:27.134810+11:00	617/25 Edinburgh Avenue	CITY	ACT	2601	149.1225765	-35.2849101	Apartment	414	Luton Weston Creek & Molonglo Valley	Tim and Justine Burke	1	1	1	6.0	
43095	residential	Gorgeous, architecturally designed ground floor apartment	$515,000+	2021-06-17T09:49:44.844557+10:00	2021-11-18T13:31:40.677737+11:00	2/17 State Circle	FORREST	ACT	2603	149.1230817	-35.3125227	Unit	513	One Agency Sandy Morris	Tahlia Davidson	1	1	2	6.0	
43130	residential	Enjoy modern life at Infinity	$560,000+	2021-06-17T12:06:55.850423+10:00	2021-09-13T17:22:14.164751+10:00	242/1 Anthony Rolfe Ave	GUNGAHLIN	ACT	2912	149.1299195	-35.181994	Apartment	2146	Clover Canberra	Clover Canberra	3	2	2	0.0	0.0
43150	residential	Great Opportunity in landmark High Society for investors or owner occupiers	$485,000+	2021-06-17T14:11:42.322209+10:00	2021-07-29T18:16:30.829323+10:00	1308/1 Grazier Lane	BELCONNEN	ACT	2617	149.0713978	-35.2402235	Unit	2746	Canberry Properties	Candy Fang	2	2	1	6.0	
43177	residential	Everything at your finger tips!	$625,000+	2021-06-18T08:50:23.918558+10:00	2021-10-19T10:16:29.331324+11:00	99/26 Antill Street	DICKSON	ACT	2602	149.1361452	-35.2488353	Apartment	440	LJ Hooker Canberra City	Antony Damiano	2	2	2	6.0	
43288	residential	Spacious, fully furnished & equipped apartment - investors only	$499,000	2021-06-21T10:58:08.963239+10:00	2021-09-23T10:01:26.930055+10:00	29/9 Dawes Street	GRIFFITH	ACT	2603	149.1410874	-35.3194737	Apartment	412	Luton Manuka	Sophie Luton	2	1	1	5.0	
43361	residential	Love coming home	$461,900	2021-06-22T14:28:09.622917+10:00	2021-09-08T15:04:46.370610+10:00	405/6 Grazier Lane	BELCONNEN	ACT	2617	149.0719813	-35.2401725	Apartment	694	GEOCON	GEOCON	2	2	1	6.0	0.0
43375	residential	Great First Home Or Investment Opportunity !	$259,000 - $279,000	2021-06-22T16:18:37.107942+10:00	2021-10-19T12:01:23.972547+11:00	17/86 Derrima Road	QUEANBEYAN	NSW	2620	149.2220671	-35.3428277	Unit	624	Ian McNamee & Partners - Queanbeyan	Michael Edwards	1	1	1		65.0
43391	residential	Stunning apartment in the heart of Belconnen	$485,000	2021-06-23T09:17:16.911077+10:00	2021-09-24T09:46:23.732201+10:00	1204/120 Eastern Valley Way	BELCONNEN	ACT	2617	149.0735953	-35.240714	Unit	2746	Canberry Properties	Sarah Cooper	2	2	1	6.0	
43521	residential	STUNNING LIGHT FILLED APARTMENT WITH VIEWS	$310,000+	2021-06-24T16:36:07.899433+10:00	2021-09-30T12:31:26.665454+10:00	211/142 Anketell Street	GREENWAY	ACT	2900	149.0661222	-35.4136625	Apartment	438	LJ Hooker Weston/Woden	Jane Kusetic	1	1	1	6.0	
43522	residential	Stunning investment close to everything	$335,000	2021-06-24T16:56:35.227499+10:00	2021-08-10T15:47:51.084048+10:00	408/82 Thynne Street	BRUCE	ACT	2617	149.096884	-35.2394757	Apartment	1960	Capital Partner Real Estate	Michael Wu	1	1	1	0.0	0.0
43528	residential	Renovated Family Home	$820,000+	2021-06-25T09:01:31.151785+10:00	2021-09-28T17:46:30.206258+10:00	1/53 Hambidge Crescent	GILMORE	ACT	2905	149.1294239	-35.4172143	House	34	McIntyre Property	Colin McIntyre	4	2	2	4.0	593.0
43583	residential	In line with the ACT Government lockdown, all open homes are cancelled until further notice.	$375,000+	2021-06-28T12:09:36.743874+10:00	2021-08-20T09:46:41.344791+10:00	385/1 Anthony Rolfe Avenue	GUNGAHLIN	ACT	2912	149.1299195	-35.181994	Apartment	233	LJ Hooker Gungahlin	Jeff Shortland	1	1	1	6.0	
43592	residential	IVES - Unit 2B-2, Bruce ACT 2617	$669,950	2021-06-28T15:05:19.543582+10:00	2021-09-02T09:26:22.582008+10:00	27 Thynne Street	BRUCE	ACT	2617	149.0929944514512	-35.24181687710217	Townhouse	3039	TP Dynamics	Kenneth Kong	2	2	2	6.2	0.0
43596	residential	IVES - Unit 4B-1, Bruce ACT 2617	$1,085,000	2021-06-28T15:29:23.326021+10:00	2022-09-15T11:57:05.275106+10:00	27 Thynne Street	BRUCE	ACT	2617	149.0929552881458	-35.241784015833915	Townhouse	3039	TP Dynamics	Kenneth Kong	4	3	2	6.4	0.0
43717	residential	Blue chip investment - part of the Quest Apartments in West Row, City	$320,000	2021-06-30T15:22:48.590921+10:00	2021-07-01T13:19:18.015373+10:00	14/28 West Row	CITY	ACT	2601	149.1275789	-35.2786363	Studio	1102	Wright Dunn Real Estate	Peter Andrighetto	1	1	0	6.0	0.0
47079	residential	Love coming home	$461,900	2021-06-22T14:28:09.622917+10:00	2021-10-14T14:16:32.247823+11:00	405/6 Grazier Lane	BELCONNEN	ACT	2617	149.0719813	-35.2401725	Apartment	409	Luton Gungahlin	Rachelle French	2	2	1	6.0	
47082	residential	Something special	$541,900	2021-06-22T14:28:09.982848+10:00	2021-10-14T14:16:27.609197+11:00	114/6 Grazier Lane	BELCONNEN	ACT	2617	149.0719813	-35.2401725	Apartment	409	Luton Gungahlin	Rachelle French	2	2	1	6.0	
55708	residential	Luxury CBD living of fantastic investment opportunity!	$499,990+	2021-06-09T11:48:17.858097+10:00	2022-03-22T11:03:02.410681+11:00	3/20 Allara Street	CITY	ACT	2601	149.1331195	-35.2817423	Apartment	2746	Canberry Properties	Bob Zhuang	1	1	1	6.0	
93618	residential	Gungahlin' s Best Located Townhouses	$899,900+	2021-05-27T15:57:58.577815+10:00	2024-01-18T10:54:52.066567+11:00	Olea Camilleri Way	GUNGAHLIN	ACT	2912	149.1389684	-35.18953040000001	Townhouse	690	LJ Hooker Project Marketing	Keenan Veraar	3	3	2	6.0	3035.0
93623	residential	Large 2-bedroom Townhouse with Internal Access to Garage	$749,900	2021-05-27T15:58:13.337888+10:00	2024-01-15T13:46:43.480702+11:00	Olea Camilleri Way	GUNGAHLIN	ACT	2912	149.1389684	-35.1895304	Townhouse	690	LJ Hooker Project Marketing	Keenan Veraar	2	2	2	6.0	3035.0
