id	type	DescriptionTitle	PriceLabel	ListingDate	ReListingDate	Address	Suburb	State	PostCode	Property.lat	Property.lon	PropertyType	Agency.Id	Agency.Name	Agent.Name	Beds	Baths	Cars	EER	PlotSize
67011	residential	ELEVATED AND IMMACULATE IN LEAFY SURROUNDS	AUCTION	2022-10-04T09:24:17.240840+11:00	2022-10-04T12:08:48.286466+11:00	83 Lucy Gullett Circuit	CHISHOLM	ACT	2905	149.1276095	-35.4201868	House	1083	Michael Potter Real Estate	Michael Potter	4	2	2	1.0	953.0
67532	residential	Peaceful perfection!	Auction	2022-10-04T11:33:46.938953+11:00	2022-10-05T10:32:54.248318+11:00	3 Timbs Street	CASEY	ACT	2913	149.0861719	-35.1759071	House	409	Luton Gungahlin	Luke McAuliffe	4	2	2	5.0	536.0
67533	residential	An entertainers home in a blue-chip location	Auction	2022-10-04T10:50:57.531404+11:00	2022-10-04T12:47:36.466887+11:00	37 Cobby Street	CAMPBELL	ACT	2612	149.1551975	-35.2807902	House	440	LJ Hooker Canberra City	Kaylene King	4	2	2	1.5	
67550	residential	good.bones	Auction 2:30pm Saturday 22 October	2022-10-04T15:16:27.271794+11:00	2022-10-04T15:17:08.754074+11:00	68 Doyle Terrace	CHAPMAN	ACT	2611	149.0417003	-35.3605008	House	618	home.by holly	Bianca Way	4	2	2	1.0	871.0
67553	residential	CHARMING, UNIQUE AND QUITE SPECIAL	Auction 26/10/2022	2022-10-04T15:18:34.901784+11:00	2022-10-05T14:16:32.077681+11:00	92 Dexter Street	COOK	ACT	2614	149.0697621	-35.2581723	House	2853	Bastion Property Group	Rob Cappuccio	2	1	1	1.5	256.0
67571	residential	Contemporary style in a diamond position.	Auction on Saturday 29th October 2022 at 11:00am	2022-10-05T07:19:24.848089+11:00	2022-10-05T07:46:39.410026+11:00	54 Harold White Avenue	COOMBS	ACT	2611	149.0475497	-35.321029	House	2542	Hugo. Canberra	Hugo Mendez	4	2	2	6.0	532.0
67572	residential	Entertain and enjoy	Auction Saturday 29th October at 9am	2022-10-05T08:16:20.886337+11:00	2022-10-05T08:46:37.681141+11:00	41 Cuthbert Circuit	WANNIASSA	ACT	2903	149.083078	-35.398416	House	684	McCann Properties	Mark McCann	3	1	3	5.0	663.0
67573	residential	Townhouse living at its finest	Auction 29/10/2022	2022-10-05T09:09:36.814547+11:00	2022-10-07T15:16:33.669570+11:00	50/11 Gustin Street	COOMBS	ACT	2611	149.040123	-35.320683	Townhouse	1072	Independent Gungahlin	Andrew Potts	4	2	2	6.0	
67577	residential	Your Forever Home	Auction	2022-10-05T09:51:12.862582+11:00	2022-10-11T16:17:35.355639+11:00	30 Alexandria Street	HAWKER	ACT	2614	149.0337447	-35.2427713	House	437	LJ Hooker Belconnen	Kathy Komar	4	2	2	1.0	802.0
67578	residential	80m2 1 Bedroom + Study Apartment in 'Quayside'	$665,000	2022-10-05T10:11:44.660573+11:00	2022-10-05T10:32:38.305600+11:00	319/50 Eastlake Parade 	KINGSTON	ACT	2604	149.146427	-35.3135952	Apartment	626	Berkely Residential	Simon Richards	1	1	1	6.0	
67580	residential	This Stunning Property Will Tick all the Boxes!	AUCTION	2022-10-05T10:28:45.850039+11:00	2022-10-05T12:16:40.116819+11:00	38 Tewksbury Circuit	THEODORE	ACT	2905	149.1245146	-35.4452825	House	34	McIntyre Property	Betty Wark	4	2	4	4.0	1010.0
67581	residential	First Home, Investment or Downsizer	$550,000	2022-10-05T10:28:46.089935+11:00	2022-10-05T16:46:34.525743+11:00	5/7 Nernst Place	BANKS	ACT	2906	149.0949311	-35.4660264	Townhouse	34	McIntyre Property	Colin McIntyre	3	1	2	2.5	266.67
67582	residential	Modern Living Close to Everything	$370,000 - $390,000	2022-10-05T10:26:12.463273+11:00	2022-10-07T09:16:52.754069+11:00	23/6 High Street	QUEANBEYAN	NSW	2620	149.2431488	-35.3484517	Apartment	623	Ray White Queanbeyan | Jerrabomberra	Ben Mills	1	1	1		
67585	residential	Superb 1 Bedroom Apartment in Desirable Element Apartment Complex	$510,000	2022-10-05T10:44:49.801288+11:00	2022-10-05T13:31:37.967384+11:00	7/39 Eastlake Parade	KINGSTON	ACT	2604	149.1466316	-35.3131039	Apartment	626	Berkely Residential	Simon Richards	1	1	1	6.0	4938.0
67589	residential	Elara in Bruce	$285,000+	2022-10-05T11:06:10.474177+11:00	2022-10-06T12:01:31.409477+11:00	110/10 Thynne Street	BRUCE	ACT	2617	149.0917544	-35.2414508	Apartment	2862	Stone Gungahlin	Kris Hellier	1	1	1	4.0	
67590	residential	RISE to purchase your dream home!	$995,000+	2022-10-05T11:13:50.949327+11:00	2022-10-10T09:46:44.199346+11:00	27 Thynne Street	BRUCE	ACT	2617	149.093689	-35.2424106	Townhouse	436	LJ Hooker Dickson	Ryan Hedley	4	3	2	7.5	
67591	residential	The Lookout	Auction	2022-10-05T11:13:06.307491+11:00	2022-10-10T11:32:43.537915+11:00	29 Crawford Crescent	FLYNN	ACT	2615	149.0450172	-35.2010864	House	2647	Timothy Road	Tim McInnes	4	2	2	3.5	732.0
67594	residential	Move-in Ready Family Home	AUCTION	2022-10-05T11:34:39.242241+11:00	2022-10-11T12:16:46.494895+11:00	13 Brittlebank Circuit	BANKS	ACT	2906	149.1037049	-35.4679574	House	34	McIntyre Property	Colin McIntyre	4	2	2	4.0	752.0
67599	residential	Low Maintenance Lifestyle Awaits	Auction 29/10/2022	2022-10-05T12:24:20.829344+11:00	2022-10-05T14:47:20.188832+11:00	87 Eccles Circuit	MACGREGOR	ACT	2615	149.0035998	-35.2116301	Townhouse	232	Ray White Canberra	Leonie Taylor	2	1	1	6.0	
67604	residential	Reserve side living in Springbank Rise	Auction 29/10/2022	2022-10-05T13:30:16.017967+11:00	2022-10-10T15:47:10.571383+11:00	35 Spratt Court	CASEY	ACT	2913	149.1026802	-35.1571883	House	232	Ray White Canberra	Vince Pinneri	2	2	1	6.0	115.0
67605	residential	Modern Family Home	Auction 29/10/2022	2022-10-05T13:27:09.815180+11:00	2022-10-10T10:02:38.793575+11:00	42 Lionel Rose Street	HOLT	ACT	2615	148.99931	-35.2287881	House	232	Ray White Canberra	Vince Pinneri	3	2	2	4.5	250.0
67606	residential	Classic Family Living	Auction 29/10/2022	2022-10-05T13:26:22.201283+11:00	2022-10-10T15:47:28.493136+11:00	16 Grampians Street	PALMERSTON	ACT	2913	149.1149839	-35.1977275	House	232	Ray White Canberra	Vince Pinneri	4	2	2	5.0	715.0
67608	residential	So Close To Town!	$395,000 - $425,000	2022-10-05T13:45:36.246782+11:00	2022-10-28T16:46:29.524602+11:00	8/16 Broughton Place	QUEANBEYAN	NSW	2620	149.2267757	-35.3580425	Townhouse	516	LJ Hooker Queanbeyan – Jerrabomberra – Googong	Jon Stumbles	2	1	1		
67611	residential	Peaceful Living with Tranquil Surrounds...and plenty of yard	Auction	2022-10-05T14:30:41.391142+11:00	2022-10-10T14:46:40.574351+11:00	10 Karrugang Circuit	NGUNNAWAL	ACT	2913	149.1006107	-35.1710374	House	409	Luton Gungahlin	Adrian Giampietro	3	1	1	2.5	
67612	residential	Townhouse living with a quiet, peaceful, and easy lifestyle.	Auction	2022-10-05T14:27:21.114962+11:00	2022-10-10T17:16:53.640647+11:00	18/141 Macfarlane Burnet Avenue	MACGREGOR	ACT	2615	149.0019057	-35.2056607	Townhouse	441	LJ Hooker Kippax	Sarah Turnbull	2	1	1	6.0	203.0
67613	residential	Very Neat Home in a Great Street!	Auction 29/10/2022	2022-10-05T14:22:18.031927+11:00	2022-10-11T16:03:14.127710+11:00	5 Narryer Close	PALMERSTON	ACT	2913	149.1280132	-35.1977245	House	232	Ray White Canberra	Mark Johnstone	3	2	2	2.0	987.9
67616	residential	Looking For Certainty?	Auction	2022-10-05T14:34:15.492827+11:00	2022-10-07T13:31:35.447901+11:00	6 Moy Place	MACQUARIE	ACT	2614	149.0633064	-35.2491661	House	437	LJ Hooker Belconnen	Michael Wellsmore	3	2	2	1.5	956.0
67617	residential	Home Sweet Hawker Home	Auction	2022-10-05T14:58:59.187245+11:00	2022-10-07T11:01:56.189817+11:00	30 Kulgera Street	HAWKER	ACT	2614	149.0364563	-35.249963	House	629	Badenoch Real Estate	Symon Badenoch	4	2	2	1.0	
67619	residential	Understated Elegance !	$1,750,000 - $1,850,000	2022-10-05T15:03:41.761926+11:00	2022-10-11T12:31:44.521730+11:00	4 Camphorwood Close	JERRABOMBERRA	NSW	2619	149.1942126	-35.4033084	House	624	Ian McNamee & Partners - Queanbeyan	Lucy MacGregor	4	3	4		1173.0
67624	residential	Your Dual Occupancy Dream Home Awaits	Auction 29/10/2022	2022-10-05T15:36:16.609360+11:00	2022-10-10T11:02:52.163029+11:00	6 Nullagine Street	FISHER	ACT	2611	149.0555511	-35.3640335	House	232	Ray White Canberra	Cameron Whitnall	5	3	1	3.5	813.0
67625	residential	Home Sweet Home - Freshly Updated !	Auction 22/10/2022	2022-10-05T15:47:56.978239+11:00	2022-10-09T09:16:51.013810+11:00	59 Armstrong Crescent	HOLT	ACT	2615	149.0100153	-35.2223344	House	636	Impact Properties	Raj Sahu	3	1	4	1.5	882.0
67629	residential	A slice of luxury in a secluded setting backing Cooleman Ridge!	Auction	2022-10-05T16:05:52.308564+11:00	2022-10-10T14:17:21.739945+11:00	9 Lincoln Close	CHAPMAN	ACT	2611	149.0439863	-35.3642884	House	703	Bertram Ellis	Tom Ellis	4	2	2	1.5	
67630	residential	Easy Living in Dickson.	Offers Over $590,000	2022-10-05T16:08:10.533648+11:00	2022-10-06T14:16:51.100500+11:00	210/6 Cape Street	DICKSON	ACT	2602	149.1370319	-35.2515734	Unit	623	Ray White Queanbeyan | Jerrabomberra	Brad O'Mara	2	2	1	6.0	
67636	residential	marsden.welcome	Auction Saturday 29 October 11:30am	2022-10-05T16:51:54.611360+11:00	2022-10-10T15:31:48.742059+11:00	52 Marsden Street	DICKSON	ACT	2602	149.1455971	-35.251791	House	618	home.by holly	Holly Komorowski	4	2	2	0.0	695.0
67644	residential	The very best in townhouse living	Auction	2022-10-06T07:11:36.113694+11:00	2022-10-10T11:31:32.588514+11:00	1/2 Bellette Street	WESTON	ACT	2611	149.0621162	-35.3334824	Townhouse	414	Luton Weston Creek & Molonglo Valley	Tim and Justine Burke	2	2	2	6.0	
67645	residential	A perfect first home	$599,000+	2022-10-06T07:11:36.268115+11:00	2022-10-06T13:31:33.718927+11:00	19/5 Skuta Place	DENMAN PROSPECT	ACT	2611	149.0244742	-35.29980219999999	Apartment	414	Luton Weston Creek & Molonglo Valley	Tim and Justine Burke	2	2	2	6.0	
67646	residential	two.knox	$330,000+	2022-10-06T08:04:23.927172+11:00	2022-10-06T10:31:34.274225+11:00	2/156 Knox Street	WATSON	ACT	2602	149.1595942	-35.2435707	Apartment	618	home.by holly	Holly Komorowski	2	1	1	5.0	
67647	residential	This must be the one you've been waiting for!	Auction	2022-10-06T08:17:26.989502+11:00	2022-10-10T11:16:51.411003+11:00	15/50 Peter Cullen Way	WRIGHT	ACT	2611	149.0354254	-35.3231642	Townhouse	414	Luton Weston Creek & Molonglo Valley	Luke Metcalfe	3	2	2	5.5	
67648	residential	Spacious home with stunning views	Auction Saturday 29th October at 11:15am	2022-10-06T08:17:15.248570+11:00	2022-10-09T18:16:40.570695+11:00	40 Halfrey Circuit	WANNIASSA	ACT	2903	149.0913956	-35.3993527	House	684	McCann Properties	Mark McCann	4	2	2	1.5	897.0
67649	residential	Brand New, Just For You!	By Negotiation	2022-10-06T08:39:11.991764+11:00	2022-10-11T13:32:04.584409+11:00	1008/2 Grazier Lane	BELCONNEN	ACT	2617	149.0719813	-35.2401725	Apartment	232	Ray White Canberra	Samuel Fitzsimmons	2	2	1	6.0	
67650	residential	North-East Facing Three Bedroom Apartment	$670,000+	2022-10-06T08:54:17.585352+11:00	2022-10-10T15:16:35.947706+11:00	809/2 Gribble Street	GUNGAHLIN	ACT	2912	149.1308614	-35.1815983	Apartment	2300	VERV Property	Jason Roses	3	2	2	6.0	
67652	residential	Elevated, flexible living in the central and desirable suburb of Hughes.	Auction Saturday 29th October 10:00am OnSite	2022-10-06T08:59:04.506500+11:00	2022-10-10T10:31:44.019581+11:00	49 Kitchener Street	HUGHES	ACT	2605	149.0999828	-35.3348209	House	599	Cream Residential	Chris Wilson	4	2	1	0.5	724.0
67653	residential	Your Large Family Entertainment Home !	Auction - 29/10/22	2022-10-06T08:50:38.973511+11:00	2022-10-06T10:01:43.141388+11:00	55 Halloran Drive	JERRABOMBERRA	NSW	2619	149.2033904	-35.3792953	House	624	Ian McNamee & Partners - Queanbeyan	Lucy MacGregor	4	2	3		875.0
67654	residential	My spacious single-level opportunity	$695,000+	2022-10-06T09:02:40.074836+11:00	2022-10-06T10:01:36.265702+11:00	6/15 Wyselaskie Circuit	KAMBAH	ACT	2902	149.0622528	-35.3780362	Townhouse	513	My Morris	Zac Morris	3	1	2	1.5	
67656	residential	secret.beauty	Auction 9:00am Saturday 22 October	2022-10-06T09:21:51.251398+11:00	2022-10-09T19:31:35.142958+11:00	16 Mcgowen Close	SPENCE	ACT	2615	149.0622642	-35.1960998	House	618	home.by holly	Cris O'Brien	3	2	2	1.5	558.0
67657	residential	opportunity.awaits	Auction 1:30pm Saturday 22 October	2022-10-06T09:21:51.395672+11:00	2022-10-08T17:16:38.250318+11:00	19 Embley Street	HOLDER	ACT	2611	149.0429778	-35.3336987	House	618	home.by holly	Bianca Way	4	3	3	2.5	717.0
67659	residential	Award Winning Architectural Masterpiece	Auction	2022-10-06T09:34:44.685527+11:00	2022-10-11T11:31:36.427899+11:00	40 Ivo Whitton Circuit	KAMBAH	ACT	2902	149.0374199	-35.3946212	House	413	Luton Tuggeranong	Kelsey White	5	2	5	2.0	920.0
67661	residential	sanctuary.home	$680,000+	2022-10-06T09:32:18.535443+11:00	2022-10-06T10:32:24.241101+11:00	75 Jim Pike Avenue	GORDON	ACT	2906	149.077821	-35.4588815	Townhouse	618	home.by holly	Sally Strang	3	1	2	3.0	187.0
67663	residential	High-End Contemporary Abode	Auction 29/10/2022	2022-10-06T09:50:42.177629+11:00	2022-10-11T13:16:38.009204+11:00	2 Jutland Street	CRACE	ACT	2911	149.1112521	-35.2042512	House	2853	Bastion Property Group	Theo Koutsikamanis	4	2	2	5.0	
67666	residential	Modern Bright & Brand New 3rd Floor Apartment	Auction	2022-10-06T10:04:17.600487+11:00	2022-10-07T15:47:28.429887+11:00	312/335 Anketell Street	GREENWAY	ACT	2900	149.0732758	-35.4224284	Apartment	437	LJ Hooker Belconnen	Happy Singh	2	2	1	6.5	
67669	residential	Blue Chip Location!	345,000+	2022-10-06T10:23:56.501774+11:00	2022-10-11T19:46:27.985257+11:00	214/38 Gozzard street 	GUNGAHLIN	ACT	2912	149.1324339	-35.1855613	Apartment	2086	Real Estate Australia	Peter Tolhurst	1	1	1	6.0	
67670	residential	Entertainers delight	Auction: Saturday 22nd October On Site at  9:00am	2022-10-06T10:28:25.899755+11:00	2022-10-10T11:47:29.031951+11:00	15 Campaspe Circuit	KALEEN	ACT	2617	149.1094452	-35.2282032	House	443	LJ Hooker Manuka	Samuel Thompson	4	2	3	4.0	808.0
67674	residential	Designer apartment with stunning water views.	By Negotiation	2022-10-06T10:45:45.489725+11:00	2022-10-06T11:01:53.184088+11:00	1302/19 Marcus Clarke Street 	CITY	ACT	2601	149.1248959	-35.2851644	Apartment	626	Berkely Residential	Michael Lyristakis	2	2	2	4.5	
67675	residential	Four-bedroom family home in Fraser	Auction 29/10/2022	2022-10-06T10:41:19.230581+11:00	2022-10-11T09:01:54.281338+11:00	50 Kerrigan Street	FRASER	ACT	2615	149.0356943	-35.1935578	House	232	Ray White Canberra	Jake Battenally	4	2	2	1.5	1169.0
67677	residential	Hidden emerald in Amaroo. 	$549,000+	2022-10-06T10:51:39.189118+11:00	2022-10-07T08:46:35.836054+11:00	40/815 Horse Park Drive	AMAROO	ACT	2914	149.1318657	-35.1642971	Unit	409	Luton Gungahlin	Peter White	2	1	2	6.0	
67679	residential	Remarkable Family Residence	Auction Saturday 29 October 2022, 12pm On Site	2022-10-06T10:55:53.395287+11:00	2022-10-11T16:02:13.794312+11:00	4 Howarth Place	CHAPMAN	ACT	2611	149.0388318	-35.3580602	House	620	Morrissey Property	Trenton Morrissey	5	3	2	0.0	904.0
67685	residential	Nest or Invest	$365,000+	2022-10-06T11:07:16.077886+11:00	2022-10-07T13:31:32.186469+11:00	22/153 Murranji Street	HAWKER	ACT	2614	149.041879	-35.2467654	Unit	232	Ray White Canberra	Vince Pinneri	2	1	1	0.0	
67686	residential	Future Proofing your Family 	Auction	2022-10-06T11:07:16.300861+11:00	2022-10-11T12:04:03.576468+11:00	8 Bavay Place	PAGE	ACT	2614	149.0563132	-35.2374445	House	437	LJ Hooker Belconnen	George Vlandis	5	2	3	1.5	779.0
67692	residential	Your Perfect Jerrabomberra Home	$599,000 - $629,000	2022-10-06T11:57:40.941203+11:00	2022-10-11T11:31:39.529955+11:00	9/23 Elm Way	JERRABOMBERRA	NSW	2619	149.2015727	-35.3875339	Townhouse	624	Ian McNamee & Partners - Queanbeyan	Lucy MacGregor	2	1	1		
67693	residential	Now This is Just a Bit Different!	Auction 29/10/22	2022-10-06T11:49:12.262908+11:00	2022-10-07T11:02:16.409453+11:00	12 Bonython Street	DOWNER	ACT	2602	149.144027	-35.2472699	House	436	LJ Hooker Dickson	Stephen Bunday	3	1	2	4.0	706.0
67699	residential	SPECTACULAR VIEWS	offers above $850,000	2022-10-06T12:55:52.475839+11:00	2022-10-11T16:46:39.425414+11:00	18/34 Leahy Close	NARRABUNDAH	ACT	2604	149.1412457	-35.3439415	Apartment	433	Maloney's Property	Philip Kouvelis	3	2	2	4.0	
67700	residential	easy.living 	$570,000+	2022-10-06T12:50:20.043992+11:00	2022-10-07T09:16:37.134193+11:00	32/16 Wakefield Avenue	BRADDON	ACT	2612	149.1339669	-35.2608997	Apartment	618	home.by holly	Jenny Michael And Mark McReynolds	2	2	1	6.0	
67702	residential	A Private Townhouse Haven	Auction	2022-10-06T13:02:10.007869+11:00	2022-10-10T17:02:25.849087+11:00	5/23 Chave Street	HOLT	ACT	2615	149.0254701	-35.223272	Townhouse	441	LJ Hooker Kippax	Sandra Masters	2	2	1	1.0	
67704	residential	Beautifully renovated home opposite parklands	Auction 29/10/22	2022-10-06T13:23:15.934993+11:00	2022-10-07T10:17:03.560223+11:00	139 Wattle Street	O'CONNOR	ACT	2602	149.1203434	-35.2490662	House	232	Ray White Canberra	Maree Van Arkel	3	1	2	1.5	749.0
67705	residential	An abundance of space and style	Auction 29/10/2022	2022-10-06T13:27:07.012857+11:00	2022-10-07T15:32:39.958121+11:00	9 Oakover Circuit	KALEEN	ACT	2617	149.1111942	-35.2325033	House	232	Ray White Canberra	Sebastian Gutierrez	3	1	3	1.0	709.0
67706	residential	Auction: Price Guide $605,000+	Auction: Price Guide $605,000+	2022-10-06T13:41:42.152781+11:00	2022-10-08T13:16:29.654698+11:00	7/18 Zamia Place	PALMERSTON	ACT	2913	149.1195055	-35.1980421	Townhouse	2853	Bastion Property Group	Richard King	3	1	2	2.5	
67707	residential	A lot Of Shine in Shean Place	Offers Over $739,000	2022-10-06T13:47:37.809800+11:00	2022-10-10T11:01:30.661649+11:00	10 Shean Place	GORDON	ACT	2906	149.0868893	-35.4705603	House	413	Luton Tuggeranong	Michael Martin	3	1	2	0.0	
67714	residential	Spacious and Stylish 	Auction 29/10/2022	2022-10-06T14:41:20.789098+11:00	2022-10-10T12:47:19.562891+11:00	4 Simons Close	MCKELLAR	ACT	2617	149.0752542	-35.2189279	House	232	Ray White Canberra	Treston Bamber	3	1	1	1.0	381.0
67721	residential	European Inspired Home in Tranquil Setting	Forthcoming Sale	2022-10-06T15:32:52.382377+11:00	2022-10-11T09:17:24.729390+11:00	18 Gatton Street	FARRER	ACT	2607	149.1027183	-35.3734523	House	443	LJ Hooker Manuka	Stephen Thompson	7	3	4	0.0	985.0
67722	residential	Immaculate home ready to enjoy, offering three living areas and close to shops, schools and light rail.	Auction	2022-10-06T15:59:41.756354+11:00	2022-10-12T09:46:38.329580+11:00	51 A'Beckett Street	WATSON	ACT	2602	149.1467634	-35.2370453	House	273	Luton Dickson	Aniko and Peter Carey	3	2	1	1.5	752.0
67723	residential	ELEGANT SOPHISTICATION IN ESTEEMED ELEVATED SETTING	Auction	2022-10-06T15:47:26.009395+11:00	2022-10-11T15:48:20.351260+11:00	16 Collingridge Street	WESTON	ACT	2611	149.0611098	-35.33857649999999	House	438	LJ Hooker Woden/Weston	Jane Kusetic	5	2	2	2.0	769.0
67725	residential	Modern-living at its Finest!	Auction	2022-10-06T16:12:53.268230+11:00	2022-10-10T15:01:59.685190+11:00	70 Tredwell Street	STRATHNAIRN	ACT	2615	148.9960149	-35.2298609	House	436	LJ Hooker Dickson	Andrew Grenfell	3	2	1	6.0	161.0
67728	residential	Large 3 Bedroom Townhouse	$990,000	2022-10-06T16:13:14.504884+11:00	2022-10-10T18:01:30.674843+11:00	Hakea Type 3	DENMAN PROSPECT	ACT	2611	149.0239442	-35.298635	Townhouse	232	Ray White Canberra	Samuel Fitzsimmons	3	2	2	6.5	0.0
67731	residential	Great location, yet tucked away from the hustle & bustle.	Auction	2022-10-06T16:24:58.686859+11:00	2022-10-13T12:01:45.865895+11:00	7 Rochford Street	FRASER	ACT	2615	149.04811	-35.1889853	House	436	LJ Hooker Dickson	Ryan Hedley	4	2	2	3.0	898.0
67734	residential	Brilliant Apartment across from the Parkland !	$500,000+	2022-10-06T16:41:25.517769+11:00	2022-10-12T18:01:48.315249+11:00	92/75 ELIZABETH JOLLEY CRESCENT	FRANKLIN	ACT	2913	149.1447449	-35.1879671	Apartment	636	Impact Properties	Shaun Iqbal	2	2	1	4.5	
67736	residential	Convenience at your fingertips. 	Auction	2022-10-06T16:43:41.405229+11:00	2022-10-07T11:16:43.916523+11:00	1 Annie Douglas Street	CASEY	ACT	2913	149.1011627	-35.1587923	House	409	Luton Gungahlin	Nick Paine	3	2	1	5.5	
67737	residential	North Facing Family Living	Auction	2022-10-06T16:45:16.645643+11:00	2022-10-11T12:03:51.585025+11:00	11 Lapsley Street	DUNLOP	ACT	2615	149.0235264	-35.1902543	House	437	LJ Hooker Belconnen	George Vlandis	4	2	2	4.0	502.0
67739	residential	Classic Family Home with Lake Views	Auction 29/10/2022	2022-10-06T17:03:19.557171+11:00	2022-10-12T13:47:55.727608+11:00	8 Mudge Place	MCKELLAR	ACT	2617	149.07814609999997	-35.2227156	House	232	Ray White Canberra	Treston Bamber	4	2	2	4.0	1090.0
67740	residential	GEM ON JENKS! SPACIOUS FAMILY HOME IN A GREAT LOCATION	$1,295,000	2022-10-06T17:31:24.393640+11:00	2022-10-06T17:32:00.489793+11:00	2 Jenks Place	EVATT	ACT	2617	149.0671843	-35.2095802	House	1099	The Real Estate Shop	Natalie Roberts	6	3	1	2.0	882.0
67741	residential	Close to everywhere yet perfectly peaceful	Auction 29/10/2022	2022-10-06T17:35:18.360191+11:00	2022-10-13T09:49:06.284314+11:00	45/120 Thynne Street	BRUCE	ACT	2617	149.0983895	-35.2438103	Apartment	232	Ray White Canberra	Harry McCormack	1	1	1	6.0	
67743	residential	Inner North in a tranquil tree-lined street 	Auction	2022-10-06T18:33:45.095496+11:00	2022-10-13T11:01:32.393153+11:00	110 Lewin Street	LYNEHAM	ACT	2602	149.1270937	-35.2465986	House	412	Luton Manuka	Sharon Peart	4	1	1	2.0	605.0
67744	residential	A Resort-Esc Family Home	Auction	2022-10-06T20:24:45.650335+11:00	2022-10-10T13:46:58.899194+11:00	23 Longworth Place	HOLT	ACT	2615	149.0085366	-35.2289429	House	441	LJ Hooker Kippax	Sandra Masters	4	3	3	3.5	1129.0
67747	residential	Perfect Positioned Carmina	$840,000 Plus	2022-10-07T00:03:25.515101+11:00	2022-10-12T11:31:59.205831+11:00	19/34 Gosse Street	KINGSTON	ACT	2604	149.1426363	-35.3136334	Apartment	433	Maloney's Property	Moira Maloney	3	2	2	6.0	
67750	residential	home.in.the.city	$650,000+	2022-10-07T08:28:06.068133+11:00	2022-10-10T10:01:38.588378+11:00	1a/52 Forbes Street	TURNER	ACT	2612	149.1304547	-35.2632417	Apartment	618	home.by holly	Ash Costello	2	1	1	3.5	
67751	residential	A great place to start	$420,000+	2022-10-07T08:40:35.016716+11:00	2022-10-10T11:31:38.821911+11:00	50/60 John Gorton Drive	COOMBS	ACT	2611	149.0403109	-35.3212112	Apartment	414	Luton Weston Creek & Molonglo Valley	Tim and Justine Burke	2	1	2	6.0	
67752	residential	newton.harmony	Auction Saturday 29 October 12.45pm	2022-10-07T08:38:21.314962+11:00	2022-10-11T11:16:44.314187+11:00	3 Newton Street	HACKETT	ACT	2602	149.1568126	-35.2475668	House	618	home.by holly	Holly Komorowski	3	3	1	1.0	730.0
67753	residential	torrens.tantalising 	Auction 2.30pm Saturday 29th October	2022-10-07T08:49:21.643121+11:00	2022-10-11T09:16:36.136351+11:00	4/1 Batchelor Street	TORRENS	ACT	2607	149.0902409	-35.3649906	Townhouse	618	home.by holly	Jenny Michael And Mark McReynolds	2	1	1	3.0	
67754	residential	Single Level Townhouse!	$399,000 - $429,000	2022-10-07T09:24:47.976496+11:00	2022-10-12T10:31:59.605503+11:00	6/63 Macquoid Street	QUEANBEYAN EAST	NSW	2620	149.2433983	-35.3509126	Townhouse	624	Ian McNamee & Partners - Queanbeyan	Michael Edwards	2	1	1		
67755	residential	HIgh tech, high end living with a classic timeless design.	Auction	2022-10-07T09:26:58.220177+11:00	2022-10-12T11:31:51.842599+11:00	31 Tyrrell Circuit	KALEEN	ACT	2617	149.1070237	-35.2235708	House	439	LJ Hooker Kaleen	Tim Russell	3	2	2	0.5	865.0
67756	residential	The perfect start	Auction 29/10/2022	2022-10-07T09:36:06.453916+11:00	2022-10-11T09:02:08.254548+11:00	16/2 Newchurch Street	COOMBS	ACT	2611	149.0416667	-35.3222446	House	232	Ray White Canberra	Jake Battenally	3	2	2	6.0	
67757	residential	charismatic. tocumwal	Auction Saturday 29 October 10:15am	2022-10-07T10:06:57.580882+11:00	2022-10-10T11:09:56.915647+11:00	1 Lang Street	AINSLIE	ACT	2602	149.1503523	-35.2582965	House	618	home.by holly	Holly Komorowski	4	2	1	6.0	807.0
67758	residential	natural.gallery	Auction Saturday 22 October 12:15pm	2022-10-07T10:06:57.721088+11:00	2022-10-11T09:32:01.961628+11:00	35/40 Mort Street	BRADDON	ACT	2612	149.1320068	-35.2727337	Apartment	618	home.by holly	Holly Komorowski	2	2	2	6.0	
67768	residential	A space for everybody in this expansive suburban oasis	Auction 29/10/2022	2022-10-07T11:01:09.692726+11:00	2022-10-12T18:01:59.142376+11:00	26 Stapylton Street	HOLDER	ACT	2611	149.0461826	-35.3379604	House	232	Ray White Canberra	Alexandra Rogers	4	3	2	2.0	764.8
67772	residential	Fantastic home in sought after central location	Auction 29/10/2022	2022-10-07T11:17:16.662005+11:00	2022-10-13T11:48:03.772004+11:00	12 Fernyhough Crescent	LYNEHAM	ACT	2602	149.1194464	-35.2384031	House	232	Ray White Canberra	Megan Van Arkel	3	2	2	2.0	572.0
67773	residential	Expansive ground floor apartment	$459,000+	2022-10-07T11:36:08.548318+11:00	2022-10-13T11:01:37.167733+11:00	10/16 David Miller Crescent	CASEY	ACT	2913	149.0972698	-35.1709317	Apartment	410	MARQ Property	Sam Taylor	2	2	2	6.0	
67775	residential	The Craftsman	Auction	2022-10-07T11:43:58.476983+11:00	2022-10-10T11:32:52.501957+11:00	1 Binney Close	DUNLOP	ACT	2615	149.021873	-35.1879461	House	2647	Timothy Road	Tim McInnes	4	2	4	6.0	629.0
67776	residential	large one-bedroom unit near everything you need!	Auction	2022-10-07T11:31:34.610882+11:00	2022-10-12T12:02:12.292951+11:00	7/21 Wiseman Street	MACQUARIE	ACT	2614	149.0743575	-35.2526173	Apartment	436	LJ Hooker Dickson	Ryan Hedley	1	1	1	6.0	
67777	residential	Ground Floor . High Ceilings . Open Plan	Offers Over $399,000	2022-10-07T11:58:45.046679+11:00	2022-10-10T12:16:32.183150+11:00	6/116 Easty Street	PHILLIP	ACT	2606	149.0906558	-35.34654039999999	Unit	413	Luton Tuggeranong	Michael Martin	1	1	1	6.0	
67778	residential	Inviting home with generous, light filled living areas and fresh updating, in quiet street, steps to caf!	Auction	2022-10-07T11:47:39.138114+11:00	2022-10-07T14:16:34.730331+11:00	24 Gardiner Street	DOWNER	ACT	2602	149.1477055	-35.2462465	House	273	Luton Dickson	Aniko and Peter Carey	3	1	1	0.0	769.0
67779	residential	forever.home	Auction Saturday 29th October 2:15pm	2022-10-07T11:46:20.699896+11:00	2022-10-13T08:31:36.510254+11:00	43 Holmes Crescent	CAMPBELL	ACT	2612	149.161344	-35.2893947	House	618	home.by holly	Holly Komorowski	3	2	2	2.0	944.0
67790	residential	Love at first sight	Auction 29/10/2022	2022-10-07T13:23:18.892366+11:00	2022-10-13T09:48:51.962643+11:00	6/51 Ainsworth Street	MAWSON	ACT	2607	149.09666449999995	-35.3582453	Townhouse	232	Ray White Canberra	Lisa Silberberg	2	1	2	5.0	
67795	residential	Two bedroom in Resort Style Trilogy! 	$549,000+	2022-10-07T14:37:47.152767+11:00	2022-10-12T10:31:32.657314+11:00	35/7 Irving Street	PHILLIP	ACT	2606	149.0845284	-35.3388475	Apartment	2853	Bastion Property Group	Rob Cappuccio	2	2	1	6.0	
67800	residential	One Bedroom Plus Study Top Floor Apartment - Offers over $370,000	Auction 26/10/2022	2022-10-07T15:26:11.498506+11:00	2022-10-14T15:01:43.411564+11:00	58/20 Bindubi Street	MACQUARIE	ACT	2614	149.0735953	-35.2531398	House	232	Ray White Canberra	Peter Walker	1	1	1	6.0	
67804	residential	elevated.calm	Auction 3:45pm Saturday 29 October	2022-10-07T16:42:54.577297+11:00	2022-10-12T15:01:40.228371+11:00	9 Yarrow Place	O'CONNOR	ACT	2602	149.1172936	-35.2485561	House	618	home.by holly	Holly Komorowski	6	2	2	0.5	1535.0
67811	residential	awesome.feel 	$498,000+	2022-10-07T18:43:21.118339+11:00	2022-10-12T15:01:33.774846+11:00	72/20 Federal Highway	WATSON	ACT	2602	149.1566107	-35.2283344	Apartment	618	home.by holly	Jenny Michael And Mark McReynolds	2	2	2	6.0	
67824	residential	Why wait to build? You can own this now!	Auction 29/10/2022	2022-10-10T10:12:51.754298+11:00	2022-10-11T00:42:31.123985+11:00	23 Patkins Street	WHITLAM	ACT	2611	149.041277	-35.2751651	House	1744	Reliance Residential	Shelly Gupta	4	3	2	5.5	420.0
67830	residential	Style, Location & Convenience!	Offers Over $1429,000	2022-10-10T12:08:15.491243+11:00	2022-10-10T13:01:33.710483+11:00	73 Mcmichael Terrace	DENMAN PROSPECT	ACT	2611	149.0249381	-35.3004901	House	2880	Confidence Real Estate	Anish Sebastian	4	2	2	6.0	
67833	residential	Renovated Bottom Floor Unit	$240,000 - $260,000	2022-10-10T13:09:18.665669+11:00	2022-10-11T14:32:49.866816+11:00	18/10 Arthur Street	QUEANBEYAN	NSW	2620	149.2166535	-35.3462102	Apartment	623	Ray White Queanbeyan | Jerrabomberra	Ben Mills	1	1	1		
67859	residential	Extensive Family Home 	AUCTION	2022-10-10T16:14:39.740338+11:00	2022-10-12T16:32:11.243465+11:00	3 Dartnell Street	GOWRIE	ACT	2904	149.1096021	-35.4061261	House	34	McIntyre Property	Colin McIntyre	6	2	3	2.5	753.0
67863	residential	Your New Home Awaits!	Auction	2022-10-10T16:23:10.870751+11:00	2022-10-17T12:02:34.428852+11:00	21 Macfarlan Place	LATHAM	ACT	2615	149.0304505	-35.2166603	House	441	LJ Hooker Kippax	Sandra Masters	2	1	1	1.0	365.0
67866	residential	Spacious and light-filled	Offers over $399,000	2022-10-10T17:01:43.614606+11:00	2022-10-10T17:02:38.718326+11:00	24/1 Cowlishaw Street	GREENWAY	ACT	2900	149.0625219	-35.4147507	Apartment	412	Luton Manuka	Kate Yates	1	1	1	6.0	
67870	residential	Live here or invest, you will win in any case.	$349,999+	2022-10-10T17:13:51.784715+11:00	2022-10-15T12:31:32.672985+11:00	215/38 Gozzard Street	GUNGAHLIN	ACT	2912	149.1324339	-35.1855613	Apartment	1832	One Agency Gungahlin	Yubi Baral	1	1	1	6.0	
67873	residential	Modern Sophistication - Home Sweet Home	By Negotiation	2022-10-10T18:49:49.615013+11:00	2022-10-11T19:01:43.574667+11:00	6/2  ROUSEABOUT STREET 	LAWSON	ACT	2617	149.0902225	-35.2277576	Townhouse	636	Impact Properties	Lameh Mourad	3	2	2	6.0	
67879	residential	An Exciting Development Opportunity Presenting Enormous Appeal R3 zoning	BY NEGOTIATION	2022-10-11T10:00:39.729438+11:00	2022-10-12T09:16:30.453056+11:00	18 Waterloo St	QUEANBEYAN	NSW	2620	149.2421737	-35.3422951	House	3720	Ward Estate Agents	Greg Ward	3	1	1		765.1
67882	residential	Peaceful, Private and Leafy Home Sanctuary	Auction 29/10/2022	2022-10-11T10:20:18.753228+11:00	2022-10-14T15:47:33.153490+11:00	18 Mcmahon Court	KAMBAH	ACT	2902	149.0764423	-35.3875067	House	232	Ray White Canberra	Alec Brown	3	1	2	2.5	875.0
67884	residential	Immense Family Appeal in a Fantastic Location	Auction 05/11/2022	2022-10-11T10:37:11.093439+11:00	2022-10-17T15:33:10.588202+11:00	8 Towers Place	GORDON	ACT	2906	149.0903419	-35.4526331	House	232	Ray White Canberra	Cameron Whitnall	4	2	2	4.0	1040.0
67886	residential	Single level residence of grand proportions!	Auction 29/10/2022	2022-10-11T10:50:19.957755+11:00	2022-10-13T16:47:16.685078+11:00	24 Ballantyne Crescent	FRANKLIN	ACT	2913	149.1441616	-35.2018039	House	232	Ray White Canberra	Gerard Northey	5	2	2	6.0	590.99
67889	residential	Penthouse living in the heart of Tuggeranong	$675,000+	2022-10-11T11:20:38.497820+11:00	2022-10-11T12:48:04.950139+11:00	37/1 Cowlishaw Street	GREENWAY	ACT	2900	149.0625219	-35.4147507	Apartment	435	LJ Hooker Tuggeranong	Andrew Curren	3	2	2	5.5	
67894	residential	Contemporary Entertainer!	$1,000,000+	2022-10-11T12:57:38.105347+11:00	2022-10-24T11:02:03.473765+11:00	11 Muntz Street	CHISHOLM	ACT	2905	149.12384189999997	-35.42582920000002	House	34	McIntyre Property	Colin McIntyre	4	2	2	3.0	802.84
67897	residential	Functional Practical Family Home !	$839,000 - $859,000	2022-10-11T13:08:54.860702+11:00	2022-10-15T09:46:29.447977+11:00	49 Crest Park Parade	QUEANBEYAN WEST	NSW	2620	149.211963	-35.3597399	House	624	Ian McNamee & Partners - Queanbeyan	Michael Edwards	4	1	1		
67918	residential	Modern, Timeless & Neat as a Pin	$720,000+	2022-10-11T15:31:38.614229+11:00	2022-10-17T13:02:03.856926+11:00	32 Tregear Close	THEODORE	ACT	2905	149.1202986	-35.444789	House	34	McIntyre Property	Daryl Gough	3	1	2	2.0	420.0
67919	residential	Two-bedroom Townhouse with Great Views and Location! Bidding Guide from $600,000	Auction 29/10/22	2022-10-11T15:31:39.576993+11:00	2022-10-14T16:31:36.633548+11:00	83/47 Mowatt Stret 	QUEANBEYAN	NSW	2620	149.2458974	-35.3513956	Townhouse	624	Ian McNamee & Partners - Queanbeyan	Catherine McGeachy	2	2	2		
67989	residential	Outstanding Residence, Quiet Cul-de-Sac with Views!	Onsite AUCTION	2022-10-11T17:03:40.450434+11:00	2022-10-11T17:09:25.834694+11:00	10 Myrtle Close	JERRABOMBERRA	NSW	2619	149.1972867	-35.4054347	House	623	Ray White Queanbeyan | Jerrabomberra	Brad O'Mara	6	3	2		888.0
68025	residential	Exceptional family residence set amongst nature 	Auction Onsite	2022-10-12T07:17:13.145182+11:00	2022-10-13T15:01:42.525049+11:00	170 Kingsford Smith Drive	SPENCE	ACT	2615	149.0606615	-35.2038735	House	410	MARQ Property	Jason Anasson	4	2	2	1.0	807.0
68026	residential	Stunning, updated home	Auction Saturday 5th November at 1:30pm	2022-10-12T08:23:17.949755+11:00	2022-10-18T13:16:39.571425+11:00	12 Truganini Place	CHISHOLM	ACT	2905	149.1194016	-35.4201172	House	684	McCann Properties	Mark McCann	3	2	2	4.5	814.0
68029	residential	STYLISH TOP FLOOR LIVING IN THE HEART OF BRADDON	$575,000	2022-10-12T08:32:08.661432+11:00	2022-10-17T11:32:16.365879+11:00	434/24 Lonsdale Street	BRADDON	ACT	2612	149.1332414	-35.2726992	Apartment	1099	The Real Estate Shop	Natalie Roberts	1	1	1	6.0	
68032	residential	Beautifully Presented And Opportunity To Update	Auction 30/10/2022	2022-10-12T09:36:15.941609+11:00	2022-10-13T10:47:14.792710+11:00	4 Goodparla Street	HAWKER	ACT	2614	149.0379802	-35.2525678	House	232	Ray White Canberra	Mark Johnstone	4	2	2	1.5	1163.0
68034	residential	An abundance of satisfaction!	Auction 29/10/2022	2022-10-12T10:30:20.549353+11:00	2022-10-18T14:32:54.898013+11:00	12 Huelin Circuit	FLYNN	ACT	2615	149.046093	-35.202206	House	232	Ray White Canberra	Jake Battenally	4	2	2	2.5	725.0
68035	residential	Life on Livingston	$790,000+	2022-10-12T10:46:26.007978+11:00	2022-10-14T15:46:47.719669+11:00	73  Livingston Avenue	KAMBAH	ACT	2902	149.080074	-35.3889214	House	413	Luton Tuggeranong	Kelsey White	3	1	2	1.0	686.0
68036	residential	peaceful.lifestyle 	$740,000+	2022-10-12T11:06:19.085597+11:00	2022-10-12T15:16:35.991441+11:00	2 Stenhouse Close	EVATT	ACT	2617	149.0662653	-35.210894	House	618	home.by holly	Jenny Michael And Mark McReynolds	3	2	2	4.0	488.0
68038	residential	position.perfect 	$360,000+	2022-10-12T11:18:06.655380+11:00	2022-10-12T15:01:32.203189+11:00	9B/109 Knox Street	WATSON	ACT	2602	149.1558705	-35.2393755	Apartment	618	home.by holly	Jenny Michael And Mark McReynolds	2	1	1	3.5	
68039	residential	Large 97m2 Updated 2 Bedroom unit	EOI: Closes 5.00pm Wednesday 9th November 2022	2022-10-12T11:24:45.583727+11:00	2022-10-12T16:01:32.962254+11:00	48/53 Dawes Street	KINGSTON	ACT	2604	149.1461354	-35.3162498	Apartment	626	Berkely Residential	Simon Richards	2	2	2	6.0	
68040	residential	Large Family Living Has Never Looked So Appealing	Auction 05/11/2022	2022-10-12T11:23:20.739686+11:00	2022-10-17T15:32:53.169696+11:00	34 Burdekin Street	DUFFY	ACT	2611	149.0353358	-35.3412114	House	232	Ray White Canberra	Cameron Whitnall	5	2	2	3.0	903.5
68057	residential	My potential is endless	By Negotiation	2022-10-12T12:04:05.393770+11:00	2022-10-17T09:16:40.347088+11:00	14 Dale Circuit	KAMBAH	ACT	2902	149.0612891	-35.398725	House	513	My Morris	Zac Morris	3	2	2	0.5	1710.0
68058	residential	My beautiful new start	$860,000+	2022-10-12T12:15:09.935675+11:00	2022-10-13T11:01:40.012601+11:00	9 Chirnside Place	KAMBAH	ACT	2902	149.0573442	-35.3852047	House	513	My Morris	Zac Morris	3	1	2	3.0	971.0
68060	residential	How wonderful to be a City dweller	Auction	2022-10-12T12:12:41.425461+11:00	2022-10-18T11:47:01.472466+11:00	706/2 Batman Street	BRADDON	ACT	2612	149.1356385	-35.2781547	Apartment	440	LJ Hooker Canberra City	Kaylene King	2	2	2	6.0	
68100	residential	A Stylish and Easy-Care Lifestyle to Enjoy	Auction 29/10/2022	2022-10-12T13:46:17.300023+11:00	2022-10-17T08:02:04.675940+11:00	73 Outtrim Avenue	CALWELL	ACT	2905	149.1044673	-35.4357809	House	232	Ray White Canberra	Kaine Walters	4	3	2	2.0	1048.0
68102	residential	Picture Perfect Home in Queanbeyan !	Auction 5/11/22	2022-10-12T14:01:27.192591+11:00	2022-10-12T14:01:44.050455+11:00	5 Tennyson Drive	QUEANBEYAN EAST	NSW	2620	149.2491776	-35.353115	House	624	Ian McNamee & Partners - Queanbeyan	Michael Edwards	3	2	2		529.0
68107	residential	Single Level Courtyard Home	Auction	2022-10-12T14:13:11.499658+11:00	2022-10-16T15:16:31.353246+11:00	14 Phillipa Weeks Street	WATSON	ACT	2602	149.1682535	-35.2253721	House	436	LJ Hooker Dickson	Andrew Browne	2	1	1	6.0	200.0
68110	residential	Bring Your Tools and Tradie Mates	Auction 29/10/2022	2022-10-12T14:10:11.972198+11:00	2022-10-13T09:32:54.853775+11:00	13/28 Springvale Drive	HAWKER	ACT	2614	149.0431571	-35.2458985	House	232	Ray White Canberra	Treston Bamber	2	1	1	2.0	
68111	residential	caldwell.cosy 	Auction 10.00am Saturday 5 November	2022-10-12T14:36:08.018816+11:00	2022-10-18T12:31:41.075110+11:00	21 Caldwell Street	HACKETT	ACT	2602	149.1592802	-35.2483778	House	618	home.by holly	Jenny Michael And Mark McReynolds	2	2	0	0.5	808.0
68153	residential	Landmark first-class residence with a list of features to match.	Auction - 2/11/22	2022-10-12T15:53:00.023651+11:00	2022-10-18T10:46:36.384783+11:00	45 Castlereagh Crescent	MACQUARIE	ACT	2614	149.0570528	-35.2520777	House	1072	Independent Gungahlin	Michael Wang	6	4	4	5.5	
68202	residential	Stunning home, quiet street	Auction	2022-10-12T16:28:07.932546+11:00	2022-10-17T13:46:34.905256+11:00	4 Clendinnen Street	DUNLOP	ACT	2615	149.015796	-35.1928264	House	411	Luton Kippax	Ben Oostermeyer	3	2	2	5.5	496.0
68204	residential	Ground Floor Luxury	$530,000+	2022-10-12T16:27:40.772713+11:00	2022-10-13T14:16:36.357064+11:00	3/58 Eileen Good Street	GREENWAY	ACT	2900	149.0621633	-35.4124015	Apartment	34	McIntyre Property	Colin McIntyre	2	2	1	5.0	
68225	residential	Modern and charming	Auction	2022-10-12T16:39:06.114720+11:00	2022-10-18T16:16:33.370597+11:00	58 Macfarlane Burnet Avenue	MACGREGOR	ACT	2615	149.0045262	-35.2125304	House	411	Luton Kippax	Ben Oostermeyer	3	2	2	4.5	600.0
68228	residential	An Entry Level Opportunity	Auction	2022-10-12T16:43:17.900303+11:00	2022-10-17T12:02:15.868789+11:00	4 Tuart Place	RIVETT	ACT	2611	149.0370389	-35.3499918	House	440	LJ Hooker Canberra City	Andy Greenberger	3	1	0	1.5	540.8
68243	residential	Waterfront paradise	By Negotiation	2022-10-12T19:57:08.410219+11:00	2022-10-17T09:01:43.895409+11:00	125 Mortimer Lewis Drive	GREENWAY	ACT	2900	149.0722625	-35.4071948	House	513	My Morris	Sandy Morris	3	2	2	6.0	
68244	residential	Freestanding, light-filled, single-level townhouse in a quiet, convenient location	Auction	2022-10-13T07:29:27.867061+11:00	2022-10-17T13:02:17.569455+11:00	1/61 Ashby Circuit	KAMBAH	ACT	2902	149.0647689	-35.3953853	Townhouse	414	Luton Weston Creek & Molonglo Valley	Tim and Justine Burke	3	2	2	2.5	458.0
68246	residential	North facing, one bedroom + study apartment 	$649,000	2022-10-13T08:35:27.444736+11:00	2022-10-17T12:31:51.261129+11:00	11/3 Tench Street	KINGSTON	ACT	2604	149.1400121	-35.3143106	Apartment	412	Luton Manuka	Sophie Luton	1	1	1	6.0	
68247	residential	Perfect entry level home	$800,000+	2022-10-13T08:36:07.147152+11:00	2022-10-18T09:31:37.001234+11:00	1 Cheyne Place	KAMBAH	ACT	2902	149.0472584	-35.3875438	House	513	My Morris	Sandy Morris	3	1	2	1.0	1042.0
68248	residential	Beautifully renovated terrace with dual zoning for commercial and residential use.	Auction	2022-10-13T08:35:27.244713+11:00	2022-10-17T13:01:36.988113+11:00	17 Murray Crescent	GRIFFITH	ACT	2603	149.132239	-35.3217968	DuplexSemi-detached	412	Luton Manuka	Sophie Luton	7	2	9	0.5	619.0
68249	land	Nearly ready to build on.	$480,000 - $490,000	2022-10-13T09:01:25.531205+11:00	2022-10-13T09:01:38.008604+11:00	Lot 641 South Jerrabomberra, 2 Hyssop Street	TRALEE	NSW	2620	149.2107365	-35.3829753	Land	409	Luton Gungahlin	Stuart James	0	0	0		433.0
68250	residential	Modern Refreshed - Ready To Move In	Auction	2022-10-13T08:57:49.535382+11:00	2022-10-13T09:32:05.242979+11:00	13A Blackman Crescent	MACQUARIE	ACT	2614	149.0648823	-35.2489909	House	408	Luton Belconnen	Charles Blackney	4	2	2	4.0	
68252	residential	Something Special in Springbank Rise 	Auction	2022-10-13T09:30:36.293527+11:00	2022-10-17T10:01:33.762133+11:00	27 Patrick Shaw Street	CASEY	ACT	2913	149.1005192	-35.1576765	House	409	Luton Gungahlin	Adrian Giampietro	3	2	2	5.0	
68254	residential	Solid Family Home In Kambah!	Auction 12/11/22	2022-10-13T09:30:42.033546+11:00	2022-10-14T10:16:41.535699+11:00	7 Tiernan Place	KAMBAH	ACT	2902	149.0761733	-35.3930131	House	624	Ian McNamee & Partners - Queanbeyan	Lucy MacGregor	4	1	2	1.5	702.0
68255	residential	Sleek, Stylish and Offering a Pristine Easy-care Lifestyle	By Negotiation	2022-10-13T09:23:17.203793+11:00	2022-10-17T10:03:07.826433+11:00	2/1 Greenough Circuit	KALEEN	ACT	2617	149.1114725	-35.2267213	Townhouse	232	Ray White Canberra	Alec Brown	4	2	2	6.0	308.0
68258	residential	Sensational starter	$355,000+	2022-10-13T09:42:09.580498+11:00	2022-10-18T14:31:41.415799+11:00	19/68 Hardwick Crescent	HOLT	ACT	2615	149.019269	-35.2203905	Apartment	411	Luton Kippax	Ben Oostermeyer	1	1	1	5.0	
68260	residential	generous.dryandra	By Negotiation	2022-10-13T10:01:16.593911+11:00	2022-10-17T09:16:51.949748+11:00	82 Dryandra Street	O'CONNOR	ACT	2602	149.1119342	-35.2612791	House	618	home.by holly	Ash Costello	4	3	1	2.5	
68261	residential	Design your Dream in Convenient Curtin	Auction: Saturday 5th November, on site at 10:00am	2022-10-13T10:02:48.779202+11:00	2022-10-18T16:17:04.196292+11:00	53 Carruthers Street	CURTIN	ACT	2605	149.0758146	-35.3287693	House	443	LJ Hooker Manuka	Stephen Thompson	3	1	1	0.5	1267.0
68264	residential	The Hamptons Meets French Provincial 	Auction	2022-10-13T10:25:34.845011+11:00	2022-10-17T12:31:41.202630+11:00	75 Weatherstone Circuit	GOOGONG	NSW	2620	149.237163	-35.4301761	House	412	Luton Manuka	Sophie Luton	5	3	2		430.0
68265	residential	Modern Lifestyle & Perfect Location	$649,000+	2022-10-13T10:17:23.543025+11:00	2022-10-13T13:01:50.263015+11:00	107/253 Northbourne Avenue	LYNEHAM	ACT	2602	149.1320501	-35.2578029	Apartment	443	LJ Hooker Manuka	Samuel Thompson	2	2	2	6.0	
68266	residential	Ready and waiting for you to move in	Auction	2022-10-13T10:17:11.547252+11:00	2022-10-17T13:31:49.185046+11:00	45 Tallara Parkway	NARRABUNDAH	ACT	2604	149.1542034	-35.3357471	House	232	Ray White Canberra	Chris Dixon	2	1	0	5.0	461.75
68269	land	An Unmissable Opportunity in a Prime Investment Pocket R3 zoning	BY NEGOTIATION	2022-10-13T11:15:38.909014+11:00	2022-10-13T12:46:27.742056+11:00	19 Gilmore Place	QUEANBEYAN	NSW	2620	149.2192344	-35.3579415	Land	3720	Ward Estate Agents	Greg Ward	0	0	0		929.1
68270	residential	Where Luxury Lives	Auction: Saturday 5th November, On Site at 3:00pm	2022-10-13T11:04:52.728844+11:00	2022-10-13T12:46:37.319985+11:00	28 Luffman Crescent	GILMORE	ACT	2905	149.133463	-35.418137	House	443	LJ Hooker Manuka	Samuel Thompson	4	3	2	0.0	1250.0
68271	residential	elimatta.harmony	Auction Saturday 5 November 10:45am	2022-10-13T11:18:20.926891+11:00	2022-10-17T10:31:38.162673+11:00	69 Elimatta Street	BRADDON	ACT	2612	149.1384197	-35.2752491	House	618	home.by holly	Holly Komorowski	4	3	2	1.0	846.0
68274	residential	You will know, as soon as you step inside	$1,000,000+	2022-10-13T11:30:35.807446+11:00	2022-10-18T10:32:10.197794+11:00	10 Clarendon Street	AMAROO	ACT	2914	149.1344274	-35.1710748	House	233	LJ Hooker Gungahlin	Jeff Shortland	4	2	2	5.5	522.0
68275	residential	Large block on a quiet street, minutes to Tuggeranong	Auction 03/11/2022	2022-10-13T11:25:21.126508+11:00	2022-10-14T15:32:21.825024+11:00	10 Farrelly Close	OXLEY	ACT	2903	149.0827642	-35.4080567	House	232	Ray White Canberra	Kate Coultas	4	2	2	2.0	847.0
68277	residential	Tranquility & Peace with Inner South Convenience	Auction 5 November @ 11.00am	2022-10-13T11:37:03.232784+11:00	2022-10-17T11:46:54.067222+11:00	28/10 Ovens Street	GRIFFITH	ACT	2603	149.1393517	-35.31868	Apartment	433	Maloney's Property	Moira Maloney	2	2	1	6.0	
68279	residential	Expansive family home on huge block	Auction 05/11/2022	2022-10-13T11:38:16.766897+11:00	2022-10-18T17:31:42.515727+11:00	2 Hurry Place	CHISHOLM	ACT	2905	149.1198277	-35.4219626	House	232	Ray White Canberra	Dan Cooper	4	2	6	3.0	1025.0
68281	residential	MODERN LIVING - SUPERB LOCATION	$849,000+	2022-10-13T11:58:17.249708+11:00	2022-10-13T13:16:34.429245+11:00	79 Plimsoll Drive	CASEY	ACT	2913	149.0969672	-35.1656667	Townhouse	1083	Michael Potter Real Estate	Alisa Lawrence	4	2	2	5.0	210.0
68282	residential	Stunning Designer Family Home	By Negotiation	2022-10-13T11:58:57.226928+11:00	2022-10-17T15:16:37.578422+11:00	19 Glenelg Street	KALEEN	ACT	2617	149.1139299	-35.2170737	House	2853	Bastion Property Group	Theo Koutsikamanis	4	3	3	6.0	839.0
68283	residential	Where Nature Is Your Neighbour	Auction 29/10/2022	2022-10-13T11:58:17.220627+11:00	2022-10-17T16:32:22.286411+11:00	4 Crofts Place	SPENCE	ACT	2615	149.0616926	-35.1965504	House	232	Ray White Canberra	Peter Walker	4	2	4	3.0	1166.0
68288	residential	The Dream Opportunity for a Perfect Family Lifestyle!	Auction	2022-10-13T11:01:13.534855+11:00	2022-10-13T16:47:50.852931+11:00	67 Turbayne Crescent	FORDE	ACT	2914	149.1503972	-35.1605967	House	1534	New Door Properties	Varun Dhand	4	2	2	6.0	388.0
68289	residential	Complete Family Setting with Self-Contained Studio Accommodation!	Auction	2022-10-12T14:37:11.672878+11:00	2022-10-17T14:17:45.378131+11:00	10 Verreaux Crescent	THROSBY	ACT	2914	149.1652461	-35.1978383	House	1534	New Door Properties	Yash Sethi	6	4	2	4.5	653.0
68290	residential	No Need To Wait. Start Living The Dream.	Contact Agent	2022-10-13T12:32:55.732820+11:00	2022-10-18T15:32:06.265275+11:00	9/5 Blakey Close	MONASH	ACT	2904	149.0801118	-35.4148938	Terrace	1069	Crowthers	Cameron Cleary	3	2	2	4.0	255.0
68291	residential	THE CITY AT YOUR DOORSTEP	$460,000	2022-10-13T12:37:36.857425+11:00	2022-11-01T08:55:06.140760+11:00	903/222 City Walk	CITY	ACT	2601	149.1321402	-35.280365799999984	Apartment	412	Luton Manuka	Shane Hughes	1	1	1	6.00	
68293	residential	You'll want to live here!	Auction	2022-10-13T12:44:45.568876+11:00	2022-10-17T12:47:01.643323+11:00	24 Wyselaskie Circuit	KAMBAH	ACT	2902	149.0620512	-35.3792875	House	438	LJ Hooker Woden/Weston	Brian McPherson	3	2	2	4.0	554.0
68296	residential	Plenty of Options on Paterson!	Auction 04/11/2022	2022-10-13T13:06:58.585645+11:00	2022-10-14T14:46:45.691424+11:00	70 Paterson Street	AINSLIE	ACT	2602	149.1419186	-35.2658652	House	436	LJ Hooker Dickson	Stephen Bunday	4	2	1	2.5	838.8
68297	residential	Excitingly Different	Auction 29/10/2022	2022-10-13T13:09:14.295297+11:00	2022-10-17T16:02:50.711041+11:00	9 O'Sullivan Street	HIGGINS	ACT	2615	149.0307194	-35.23770349999999	House	232	Ray White Canberra	Peter Walker	4	2	2	1.5	921.0
68298	residential	OWN YOUR PIECE AT THE GALLERY	$649,000	2022-10-13T13:34:55.558818+11:00	2022-10-15T22:31:36.931906+11:00	21/50 Moore Street	TURNER	ACT	2612	149.1292259	-35.2712942	Apartment	1099	The Real Estate Shop	Natalie Roberts	2	2	1	6.0	
68299	residential	happy.home	Auction 9:00am Saturday 29 October	2022-10-13T14:15:01.134397+11:00	2022-10-16T23:01:38.327203+11:00	73 Ashkanasy Crescent	EVATT	ACT	2617	149.0723624	-35.2088859	House	618	home.by holly	Cris O'Brien	4	1	1	5.0	426.0
68301	residential	Stylishly renovated with space for the whole family	Auction 02/11/2022	2022-10-13T14:31:15.558882+11:00	2022-10-15T10:46:37.640766+11:00	148 Heagney Crescent	CHISHOLM	ACT	2905	149.1318707	-35.4263132	House	232	Ray White Canberra	Kate Coultas	3	2	2	2.0	776.0
68311	residential	Light and bright own-title townhouse in walkable location	Auction 03/11/2022	2022-10-13T14:59:17.265637+11:00	2022-10-18T14:02:22.894855+11:00	218 Anthony Rolfe Avenue	GUNGAHLIN	ACT	2912	149.1459748	-35.1855417	House	232	Ray White Canberra	Phyllis Tidmarsh	3	2	2	6.0	231.0
68316	residential	 Expansive home offering flexible family living	Auction 05/11/2022	2022-10-13T15:27:13.002306+11:00	2022-10-18T14:32:50.116038+11:00	32 Moroak Street	HAWKER	ACT	2614	149.0420589	-35.2525565	House	232	Ray White Canberra	Phyllis Tidmarsh	5	3	2	0.0	
68318	residential	Builders, Renovators, Entry Level Buy in Fadden!	AUCTION	2022-10-13T15:44:46.345616+11:00	2022-10-18T09:46:54.319192+11:00	3 Annear Place	FADDEN	ACT	2904	149.1209041	-35.4020293	House	34	McIntyre Property	Colin McIntyre	4	2	2	4.0	862.0
68321	residential	Charming home on Desirable RZ2 block 	Auction 11am Saturday 12th November	2022-10-13T15:49:47.328570+11:00	2022-10-19T10:17:24.786382+11:00	23 Mcnicoll Place	HUGHES	ACT	2605	149.0967093	-35.3347888	House	626	Berkely Residential	Bill Lyristakis	3	2	2	1.0	
68326	residential	Beautiful Sunlit Home In Prized Central Location	Auction	2022-10-13T16:44:21.404401+11:00	2022-10-18T10:32:00.072237+11:00	29/14 Marr Street	PEARCE	ACT	2607	149.0868522	-35.3592841	Townhouse	438	LJ Hooker Woden/Weston	Jane Kusetic	2	1	1	1.5	
68350	residential	Extended Tocumwal with Endless Options!	Auction 05/11/2022	2022-10-14T09:26:31.373138+11:00	2022-10-17T10:02:31.272145+11:00	14 Angas Street	AINSLIE	ACT	2602	149.1390252	-35.2639433	House	436	LJ Hooker Dickson	Stephen Bunday	4	2	1	1.5	1168.0
68353	residential	sanford.home	Auction Saturday 5 November 1:30pm	2022-10-14T09:51:20.206643+11:00	2022-10-17T20:01:36.641955+11:00	12 Sanford Place	KALEEN	ACT	2617	149.1160603	-35.2261633	House	618	home.by holly	Holly Komorowski	5	3	2	3.5	883.0
68355	residential	Fresh, modern and inviting.	Auction Sat, 5th Nov at 10:00am	2022-10-14T09:47:52.445249+11:00	2022-10-18T10:31:41.188594+11:00	78/100 Henry Kendall Street	FRANKLIN	ACT	2913	149.1495451	-35.189468	Unit	233	LJ Hooker Gungahlin	Jake Bunday	2	2	2	6.0	
68361	residential	Well kept home in central location 	Auction 05/11/2022	2022-10-14T10:38:10.319664+11:00	2022-10-19T14:02:23.642824+11:00	36 Wattle Street	LYNEHAM	ACT	2602	149.1294934	-35.2573544	House	232	Ray White Canberra	Maree Van Arkel	3	1	2	1.5	664.0
68363	residential	eady.elegance	Auction Saturday 5 November 12:00pm	2022-10-14T10:57:19.103012+11:00	2022-10-17T11:02:15.554496+11:00	12 Eady Street	DICKSON	ACT	2602	149.1508458	-35.2518314	House	618	home.by holly	Holly Komorowski	4	2	1	4.0	739.0
68364	residential	so.convenient 	$358,000	2022-10-14T11:09:05.204404+11:00	2022-10-18T19:31:32.545309+11:00	41/6 Gungahlin Place	GUNGAHLIN	ACT	2912	149.135661	-35.1806555	Apartment	618	home.by holly	Jenny Michael And Mark McReynolds	1	1	1	6.0	
68365	residential	Your Home on Hawdon!	Auction 05/11/2022	2022-10-14T11:29:55.038740+11:00	2022-10-20T10:02:04.086860+11:00	26A Hawdon Street	AINSLIE	ACT	2602	149.1513064	-35.257275	DuplexSemi-detached	436	LJ Hooker Dickson	Stephen Bunday	3	1	1	2.0	
68370	residential	Family Home with Convenience 	Auction	2022-10-13T11:35:18.147422+11:00	2022-10-18T14:33:45.075482+11:00	23 Hayward Street	MACGREGOR	ACT	2615	149.0206358	-35.2128363	House	437	LJ Hooker Belconnen	George Vlandis	4	2	2	1.0	699.0
68371	residential	More Space Than You think! 	Auction	2022-10-12T11:23:24.799614+11:00	2022-10-18T14:33:46.475480+11:00	114/15 John Cleland Crescent	FLOREY	ACT	2615	149.0587839	-35.2270172	Unit	437	LJ Hooker Belconnen	George Vlandis	3	1	1	6.0	
68373	residential	First time offered for sale in over 50 years!	Auction 03/11/2022	2022-10-14T12:14:38.064476+11:00	2022-10-19T22:01:41.162439+11:00	6 Charteris Crescent	CHIFLEY	ACT	2606	149.0802085	-35.3540219	House	1500	One Agency Scott Crossman	Scott Crossman	3	1	2	0.0	885.0
68376	residential	Modern Family Home with Great Location 	Auction	2022-10-13T11:38:15.743361+11:00	2022-10-18T14:17:44.650163+11:00	2/358 Southern Cross Drive	MACGREGOR	ACT	2615	149.0082005	-35.2175306	House	437	LJ Hooker Belconnen	Happy Singh	4	2	2	6.0	446.0
68377	residential	Separate Title, Ideal Location	Auction	2022-10-14T12:27:32.450912+11:00	2022-10-14T12:27:46.233289+11:00	3 Gorrie Close	HAWKER	ACT	2614	149.0420141	-35.2486618	Townhouse	437	LJ Hooker Belconnen	Kathy Komar	2	1	1	1.5	372.0
68378	residential	Easy-care Living!	Auction	2022-10-12T11:19:18.137352+11:00	2022-10-18T14:33:12.118332+11:00	41/2 Ranken Place	BELCONNEN	ACT	2617	149.0604502	-35.2356955	Apartment	437	LJ Hooker Belconnen	Sharon Schnyder	1	1	1	6.0	
68380	residential	WARM, INVITING ABODE IN A PRIME LOCATION	AUCTION	2022-10-14T12:38:06.248175+11:00	2022-10-20T10:00:09.844413+11:00	24 Batchelor Street	TORRENS	ACT	2607	149.0911042	-35.3667194	House	1083	Michael Potter Real Estate	Michael Potter	3	1	1	1.0	
68381	residential	bespoke.beauty	Auction 9:00am Saturday 5 November	2022-10-14T12:36:20.747114+11:00	2022-10-17T08:01:37.081743+11:00	26 Wybalena Grove	COOK	ACT	2614	149.0716003	-35.26350559999999	House	618	home.by holly	Sally Strang	1	1	1	0.5	
68385	residential	Exceptionally Renovated Family Home	Auction	2022-10-14T13:11:45.351167+11:00	2022-10-17T12:16:37.886606+11:00	7 Bednall Place	MCKELLAR	ACT	2617	149.0733488	-35.2160789	House	413	Luton Tuggeranong	Gabbi Kalthofen	3	2	4	3.5	889.0
68402	residential	If you love large blocks and have big dreams	Auction 30/10/2022	2022-10-14T15:41:19.288915+11:00	2022-10-17T16:32:37.457123+11:00	12 O'Rourke Street	WEETANGERA	ACT	2614	149.0447931	-35.250418	House	232	Ray White Canberra	Peter Walker	3	3	1	1.0	1037.0
68407	land	399 m2 Block of Land for Sale 	$699,000+	2022-10-14T16:46:40.285346+11:00	2022-10-14T16:47:12.777684+11:00	47 Sculthorpe Avenue	WHITLAM	ACT	2611	149.0438146	-35.2709372	Land	1534	New Door Properties	Gurjant Singh	0	0	0		399.0
68430	residential	Offering the Ambience of a Private Estate	Auction 30/10/2022	2022-10-15T08:42:12.949683+11:00	2022-10-18T15:47:05.697115+11:00	117 Springvale Drive	WEETANGERA	ACT	2614	149.0469222	-35.2564353	House	232	Ray White Canberra	Peter Walker	6	3	2	2.0	2469.0
68437	residential	Immaculately renovated from front to back!	AUCTION	2022-10-17T00:13:38.870692+11:00	2022-10-19T21:31:41.049354+11:00	89 Deamer Crescent	RICHARDSON	ACT	2905	149.1281702	-35.4298231	House	34	McIntyre Property	Colin McIntyre	3	2	5	4.5	888.23
68438	residential	MODERN LIVING AT ITS BEST	$890,000+	2022-10-17T05:28:11.002219+11:00	2022-10-20T12:02:52.640041+11:00	46/8/Ken Tribe	COOMBS	ACT	2611	149.041553	-35.3171057	House	1909	Edge Dewi Radyanto	Dewi Radyanto	4	2	4	4.0	0.0
68456	residential	Perfectly Positioned Family Abode 	$1,090,000+	2022-10-17T11:07:37.959539+11:00	2022-10-18T13:01:29.464115+11:00	4 Drooka Crescent	CRACE	ACT	2911	149.1143336	-35.2007504	House	2853	Bastion Property Group	Theo Koutsikamanis	4	2	2	5.5	418.0
68482	residential	Best Value Townhouse in Amazing Location !	By Negotiation	2022-10-17T14:50:53.085734+11:00	2022-10-22T17:16:38.388572+11:00	32 /141 Mapleton Avenue	HARRISON	ACT	2914	149.1520347	-35.1943206	Townhouse	636	Impact Properties	Shaun Iqbal	3	2	2	6.0	190.0
68486	residential	Resort Style Living in the Town Centre!	$499,000+	2022-10-17T15:18:30.590900+11:00	2022-10-18T17:46:33.173329+11:00	49/77 Gozzard Street	GUNGAHLIN	ACT	2912	149.1328845	-35.1819422	Apartment	2862	Stone Gungahlin	Sam Dyne	2	2	2	6.0	
68493	residential	Perfect Family Home!	Auction 12/11/2022	2022-10-17T16:08:12.938948+11:00	2022-10-18T11:02:59.552371+11:00	20 John James Loop	MACGREGOR	ACT	2615	149.005848	-35.2107107	House	1534	New Door Properties	Shray Khanna	4	2	2	6.0	464.0
68498	residential	Sweet Sixteen	$824,900+	2022-10-17T17:06:03.566854+11:00	2022-10-20T14:01:33.629227+11:00	16 Jule Knight Street	CASEY	ACT	2913	149.1020457	-35.1563194	House	233	LJ Hooker Gungahlin	Jeff Shortland	3	2	2	6.0	380.0
68506	residential	Start the next generation of happy memories.	Auction	2022-10-18T09:46:05.562530+11:00	2022-10-22T12:16:33.169084+11:00	26 James Smith Circuit	CONDER	ACT	2906	149.0946018	-35.4496924	House	410	MARQ Property	Suzi Wells	4	2	2	4.0	690.0
68511	residential	Dream Terrace-Style Home	Auction 5/11/2022	2022-10-18T10:02:41.862675+11:00	2022-10-18T10:04:14.649101+11:00	45 Mapleton Avenue	HARRISON	ACT	2914	149.1571925	-35.1950794	House	232	Ray White Canberra	Gerard Northey	4	2	2	6.0	255.2
68513	residential	Enjoy luxury amenity on the Lakes Foreshore	$800,000 - $825,000	2022-10-18T10:52:07.478904+11:00	2022-10-27T12:32:22.850198+11:00	301/2 Marcus Clarke Street	CITY	ACT	2601	149.125988	-35.284707	Apartment	410	MARQ Property	Suzi Wells	3	2	2	4.0	
68526	residential	Private, Modern & Near New Apartment!	$525,000+	2022-10-18T11:58:45.034260+11:00	2022-10-21T13:46:37.633675+11:00	603/4 Anzac Park	CAMPBELL	ACT	2612	149.1425915	-35.2893945	Apartment	440	LJ Hooker Canberra City	Antony Damiano	1	1	1	6.0	
68533	residential	Contemporary Lifestyle, Convenient Location!	Auction	2022-10-18T12:48:43.830054+11:00	2022-10-22T17:31:33.128767+11:00	73/299 Flemington Road	FRANKLIN	ACT	2913	149.1505369	-35.1900149	Townhouse	4060	Capital Hills Real Estate	Wais Mir Afzal	3	2	2	5.0	
68547	residential	Sophisticated Light Filled Living Surrounded By Leafy Reserves.	Auction	2022-10-18T15:06:01.780385+11:00	2022-10-19T14:46:37.746080+11:00	42 Aida Ball Circuit	FORDE	ACT	2914	149.1506888	-35.1716253	House	409	Luton Gungahlin	Stuart James	3	2	2	4.5	649.0
68555	residential	Stunning inside and out with breathtaking views	Auction 11/11/2022	2022-10-18T16:01:57.288395+11:00	2022-10-18T16:03:24.816159+11:00	386 Bugden Avenue	FADDEN	ACT	2904	0.0	0.0	House	232	Ray White Canberra	Kate Coultas	4	2	2	1.0	771.0
68558	residential	Inner City Convenience	$390,000 Plus	2022-10-18T16:39:01.461313+11:00	2022-10-19T11:16:41.459069+11:00	213/17 Dooring Street	BRADDON	ACT	2612	149.1339014	-35.2611514	Apartment	433	Maloney's Property	Moira Maloney	1	1	1	6.0	
68560	residential	Premium Townhouse with Exquisite Views 	Auction	2022-10-18T16:39:13.098448+11:00	2022-10-25T16:03:21.917148+11:00	10/15 Calaby Street	COOMBS	ACT	2611	149.032669	-35.3109995	Townhouse	437	LJ Hooker Belconnen	Happy Singh	3	3	2	6.0	3792.0
68561	residential	Separate title living	$730,000+	2022-10-18T17:06:08.499108+11:00	2022-10-25T17:01:35.531671+11:00	5 Lafferty Place	MACGREGOR	ACT	2615	149.0048615	-35.2153099	House	410	MARQ Property	Matt Harmer	3	1	1	5.0	
68563	residential	Home in Hackett	Auction	2022-10-19T07:57:25.038466+11:00	2022-10-25T12:16:34.407836+11:00	11 Mackenzie Street	HACKETT	ACT	2602	149.1669972	-35.2488008	House	412	Luton Manuka	Sophie Luton	3	1	2	3.0	
68569	residential	SINGLE LEVEL TOWNHOUSE (NO STEPS)	$749,950	2022-10-19T09:17:48.460647+11:00	2022-10-19T11:16:45.654182+11:00	27/23 Jondol Place	ISABELLA PLAINS	ACT	2905	149.0827131	-35.4235663	Townhouse	433	Maloney's Property	Philip Kouvelis	3	1	2	3.0	
68573	residential	Spacious and Modern	Auction	2022-10-19T10:32:11.085822+11:00	2022-10-19T10:33:19.133405+11:00	8/29 Jimmy Little Street	MONCRIEFF	ACT	2914	149.1139411	-35.153692	Townhouse	437	LJ Hooker Belconnen	Kathy Komar	3	2	2	6.0	
68576	residential	The size will surprise	Auction 12/11/2022	2022-10-19T10:46:15.524776+11:00	2022-10-25T16:02:53.259430+11:00	34 Levien Street	SCULLIN	ACT	2614	149.0371286	-35.2298481	House	232	Ray White Canberra	Andrew Lonsdale	5	2	1	1.5	847.1
68580	residential	A Serene Family Home	Auction	2022-10-19T11:35:01.452382+11:00	2022-10-20T16:47:07.375052+11:00	8 Fullerton Crescent	RICHARDSON	ACT	2905	149.119581	-35.4327656	House	441	LJ Hooker Kippax	Hannah Green	3	1	6	3.0	756.0
68581	residential	Exquisite Contemporary Flow	Auction 12/11/2022	2022-10-19T11:42:42.111154+11:00	2022-10-20T14:31:54.672884+11:00	12 Jamrozik Street	DENMAN PROSPECT	ACT	2611	149.0231839	-35.307082	House	2853	Bastion Property Group	Theo Koutsikamanis	4	2	2	6.0	483.0
68582	residential	Large and impressive family home - Buyer's guide: $1,050,000 +	Auction: Saturday 5 November 12:45PM	2022-10-19T11:37:16.579568+11:00	2022-10-19T13:01:39.294506+11:00	8 Anchorage Street	HARRISON	ACT	2914	149.1581361	-35.1901275	House	410	MARQ Property	Justin Taylor	4	2	2	5.0	523.0
68583	residential	Great first home or Investment opportunity - Value Buying	$865,000+	2022-10-19T11:37:16.320399+11:00	2022-10-24T11:46:38.451934+11:00	57 Hesba Brinsmead Street	FRANKLIN	ACT	2913	149.1484457	-35.1962653	House	410	MARQ Property	Justin Taylor	3	2	2	4.0	350.0
68584	residential	Premium location - 'Yerrabi' Estate - 680sqm block	Auction: Saturday 5 November 9:45am	2022-10-19T11:37:16.457053+11:00	2022-10-24T11:02:28.314342+11:00	25 Strayleaf Crescent	GUNGAHLIN	ACT	2912	149.13833	-35.1755166	House	410	MARQ Property	Justin Taylor	4	2	2	3.5	680.0
68588	residential	Views of Ngunnawal	Auction	2022-10-19T12:11:31.788769+11:00	2022-10-25T11:46:54.234492+11:00	2 Ahmatt Street	NGUNNAWAL	ACT	2913	149.1092109	-35.16505739999999	House	409	Luton Gungahlin	Corbin Eslick	4	2	2	5.0	701.0
68589	residential	Your picturesque new lifestyle awaits! 	Auction	2022-10-19T12:11:31.584805+11:00	2022-10-24T10:32:54.619534+11:00	74 Lyttleton Crescent	COOK	ACT	2614	149.0672964	-35.2619405	House	409	Luton Gungahlin	Luke McAuliffe	4	2	3	3.5	1008.0
68593	residential	atop.haig	Auction 10:00am Saturday 12 November	2022-10-19T13:14:24.289376+11:00	2022-10-20T15:31:34.392399+11:00	34/19-25 Fawkner Street	BRADDON	ACT	2612	149.135146	-35.271175	Apartment	618	home.by holly	Holly Komorowski	3	2	2	5.0	0.0
68595	residential	Value Packed Family Googong Home !	$939,000 - $969,000	2022-10-19T14:01:26.678533+11:00	2022-10-19T14:01:54.390841+11:00	16 Underhill Street	GOOGONG	NSW	2620	149.2350021	-35.423046	House	624	Ian McNamee & Partners - Queanbeyan	Michael Edwards	4	2	2		405.0
68602	residential	The Entertainer's Exquisite Family Home	Auction	2022-10-19T14:34:20.260488+11:00	2022-10-20T15:01:33.595774+11:00	14 Guginya Crescent	NGUNNAWAL	ACT	2913	149.1128087	-35.1705089	House	441	LJ Hooker Kippax	Sandra Masters	3	2	4	2.0	686.0
68611	residential	The Jab you actually want to get	Auction Sat, 12th Nov at 11:30am	2022-10-19T15:21:46.409303+11:00	2022-10-25T15:16:45.393601+11:00	175 Jabanungga Avenue	NGUNNAWAL	ACT	2913	149.1040637	-35.1636526	House	233	LJ Hooker Gungahlin	Bri Williams	3	2	2	6.0	420.0
68612	residential	Be Certain with Curtin!	Auction	2022-10-19T15:28:23.684140+11:00	2022-10-25T11:32:33.709631+11:00	8/2 Walsh Place	CURTIN	ACT	2605	149.0846025	-35.3250838	Apartment	436	LJ Hooker Dickson	Nic Salter-Harding	2	1	1	3.5	
68616	residential	THE DOOR IS OPEN, WELCOME HOME!	$639,000+	2022-10-19T15:46:59.824037+11:00	2022-10-19T15:48:05.890284+11:00	23 Yuranigh Court	NGUNNAWAL	ACT	2913	149.1128741	-35.1686587	House	2862	Stone Gungahlin	Kris Hellier	3	1	1	5.0	
68622	residential	Sophisticated Luxury Living in Campbell. 	$520,000+	2022-10-19T15:51:21.757727+11:00	2022-10-25T13:16:35.056595+11:00	50/81 Constitution Avenue	CAMPBELL	ACT	2612	149.146012	-35.2920181	Apartment	409	Luton Gungahlin	Nick Paine	1	1	1	6.0	
68624	residential	Climb the property ladder!	$255,000	2022-10-19T15:54:53.032017+11:00	2022-10-26T12:47:13.309208+11:00	2/62 Knox Street	WATSON	ACT	2602	149.1522141	-35.2373557	Apartment	703	Bertram Ellis	Tom Ellis	1	1	1	4.5	
68626	residential	Shhh! Secret's out	Auction	2022-10-19T16:13:00.232272+11:00	2022-10-25T14:01:36.938850+11:00	12  Sheehy Street	EVATT	ACT	2617	149.0774735	-35.2043456	House	409	Luton Gungahlin	Nick Paine	3	1	3	4.0	750.0
68627	residential	king.david	Auction 11:30am Saturday 12 November	2022-10-19T16:11:11.400001+11:00	2022-10-25T15:01:34.796955+11:00	109/12 David Street	TURNER	ACT	2612	149.1310408	-35.2613831	Apartment	618	home.by holly	Holly Komorowski	2	2	1	5.5	124.0
68634	residential	A RARE FIND - Will Not Last Long!	Offers over $679,000.-	2022-10-19T16:55:32.382770+11:00	2022-10-25T11:31:30.569204+11:00	102 Greg Urwin Circuit	CASEY	ACT	2913	149.101589	-35.1557377	DuplexSemi-detached	1922	IQ Real Estate	Vinko Milicevic	2	3	1	6.0	279.0
68636	residential	A Great Start	$695,000-$725,000	2022-10-19T16:55:36.574551+11:00	2022-10-25T11:46:34.929084+11:00	25 Christopher Crescent	KARABAR	NSW	2620	149.222601	-35.3627309	House	516	LJ Hooker Queanbeyan – Jerrabomberra – Googong	Jon Stumbles	3	1	1		600.0
68641	residential	Neat as a pin, outside and in!	Auction	2022-10-19T17:42:14.293639+11:00	2022-10-24T11:48:16.228028+11:00	3 Bennett Place	FLYNN	ACT	2615	149.0395937	-35.2078659	House	437	LJ Hooker Belconnen	Duncan Walker	3	1	2	2.5	799.0
68642	residential	versatile.torrens	Auction Saturday 5 November 9:30am	2022-10-19T18:00:26.967514+11:00	2022-10-24T09:47:09.571176+11:00	3/74 Torrens Street	BRADDON	ACT	2612	149.135528	-35.2668558	Townhouse	618	home.by holly	Holly Komorowski	3	2	2	5.5	
68649	residential	The quintessential family home with abundant space inside and out	Auction	2022-10-20T07:03:34.865524+11:00	2022-10-24T12:16:40.737653+11:00	107 Ivo Whitton Circuit	KAMBAH	ACT	2902	149.0383163	-35.3911546	House	414	Luton Weston Creek & Molonglo Valley	Tim and Justine Burke	4	2	3	3.5	1255.0
68650	residential	A private family sanctuary backing onto the golf course	Auction	2022-10-20T07:03:34.692395+11:00	2022-10-25T10:16:39.703720+11:00	37 Mt Vernon Drive	KAMBAH	ACT	2902	149.0366131	-35.3877266	House	414	Luton Weston Creek & Molonglo Valley	Tim and Justine Burke	4	2	2	2.5	1079.0
68651	residential	Renovated family home perched high in one of Weston Creek's most tightly held positions 	Auction	2022-10-20T07:14:34.101726+11:00	2022-10-24T11:46:36.662681+11:00	10 Salvado Place	STIRLING	ACT	2611	149.0489169	-35.3456761	House	414	Luton Weston Creek & Molonglo Valley	Tim and Justine Burke	3	2	2	4.0	1032.0
68652	residential	Single-level, freestanding townhouse in a super convenient location 	Auction	2022-10-20T07:14:34.240042+11:00	2022-10-22T14:16:33.364231+11:00	5/147 Keverstone Circuit	ISABELLA PLAINS	ACT	2905	149.0893145	-35.4341993	Townhouse	414	Luton Weston Creek & Molonglo Valley	Tim and Justine Burke	3	1	1	1.5	305.0
68654	residential	OPPORTUNITY AWAITS IN A PRIME LOCATION	By Negotiation	2022-10-20T08:31:25.511885+11:00	2022-10-20T08:31:42.158604+11:00	5 Kootingal Street	GIRALANG	ACT	2617	149.0975613	-35.2097398	House	1099	The Real Estate Shop	Natalie Roberts	3	1	0	3.0	824.0
68655	residential	timeless.quality	Auction 2:30pm Saturday 12 November	2022-10-20T08:41:05.792738+11:00	2022-10-21T14:31:34.674215+11:00	1 Crick Place	BELCONNEN	ACT	2617	149.0715778	-35.245309	Townhouse	618	home.by holly	Cris O'Brien	2	1	1	2.5	280.0
68657	residential	Exquisite East Facing Apartment	Offers over $660,000	2022-10-20T09:24:58.278364+11:00	2022-10-26T14:46:37.740740+11:00	105/55 Dooring Street	DICKSON	ACT	2602	149.1335527	-35.2582068	Unit	1072	Independent Gungahlin	Rahul Mehta	2	2	1	6.0	
68658	residential	Buckingham palace at a bargain price!	$924,950+	2022-10-20T09:28:38.852620+11:00	2022-10-26T09:01:36.822221+11:00	4/84 Buckingham Street	AMAROO	ACT	2914	149.1339188	-35.1651688	Townhouse	233	LJ Hooker Gungahlin	Jeff Shortland	4	2	2	5.5	450.0
68662	residential	cosy.opulence	Auction 10:30am Saturday 5 November	2022-10-20T09:47:15.176288+11:00	2022-10-23T19:46:41.876417+11:00	16 Laird Crescent	FORDE	ACT	2914	149.1515924	-35.1574366	House	618	home.by holly	Cris O'Brien	5	3	2	5.5	468.0
68663	residential	Charm & Finesse in Casey	Auction	2022-10-20T10:00:05.140700+11:00	2022-10-25T16:01:48.593395+11:00	4 Enfield Street	CASEY	ACT	2913	149.0900729	-35.1751025	House	409	Luton Gungahlin	Nick Paine	4	2	2	4.5	451.0
68664	residential	Premium Position Mid Century Home	Auction: Saturday 12 November, On Site at 12:30PM	2022-10-20T09:53:01.760963+11:00	2022-10-21T16:01:41.850510+11:00	46 Fergusson Crescent	DEAKIN	ACT	2600	149.1111942	-35.3162943	House	443	LJ Hooker Manuka	Stephen Thompson	3	1	1	0.0	562.0
68665	residential	An Exclusive Location is Just the Beginning	Auction 11/11/2022	2022-10-20T09:49:20.028930+11:00	2022-10-26T10:47:32.351899+11:00	37 Birdwood Street	HUGHES	ACT	2605	149.0995344	-35.3300384	House	232	Ray White Canberra	Alec Brown	4	2	2	2.0	823.0
68666	residential	Value Packed Home for First Time Buyers	Auction 12/11/2022	2022-10-20T09:49:20.370308+11:00	2022-10-24T10:19:11.407532+11:00	17 Warby Place	CHARNWOOD	ACT	2615	149.0382267	-35.2025663	House	232	Ray White Canberra	Joshua Gutierrez	3	1	2	2.0	
68667	residential	Spring carnival is here, pick the Win-chester 	Auction	2022-10-20T10:10:34.260217+11:00	2022-10-25T16:16:37.008504+11:00	27  Winchester Street	CASEY	ACT	2913	149.0906109	-35.170318	House	409	Luton Gungahlin	Nick Paine	4	2	2	4.0	522.0
68668	residential	Light and Bright Moncrieff Entertainer	Auction 12/11/2022	2022-10-20T10:04:37.283417+11:00	2022-10-25T12:16:56.506222+11:00	21 Slim Dusty Circuit	MONCRIEFF	ACT	2914	149.1121136	-35.1577362	House	2853	Bastion Property Group	Theo Koutsikamanis	4	2	2	5.5	461.0
68669	residential	Auction Price Guide: $965,000+	Auction 12/11/2022	2022-10-20T10:26:37.961693+11:00	2022-10-20T11:01:32.475992+11:00	19/7 Shewcroft Street	WATSON	ACT	2602	149.1632703	-35.2304546	Townhouse	2853	Bastion Property Group	Richard King	3	2	2	6.0	
68670	residential	Adventurous Family Home	Auction Saturday 5th November, On Site at 12:00pm	2022-10-20T10:21:11.480632+11:00	2022-10-26T13:47:19.553215+11:00	4 Woodger Place	FRASER	ACT	2615	149.0518753	-35.1933509	House	443	LJ Hooker Manuka	Samuel Thompson	5	2	2	0.0	
68671	residential	Modern Family Living, with space and quality!!	Auction Sat 12/11/2022	2022-10-20T10:33:13.170995+11:00	2022-10-21T11:03:33.141381+11:00	115 Limb Circuit	MONCRIEFF	ACT	2914	149.1209265	-35.1591485	House	1534	New Door Properties	Gurjant Singh	4	2	2	6.0	404.0
68672	residential	THE DOOR IS OPEN, WELCOME HOME!	$1,648,000-$1,748,000	2022-10-20T10:47:15.474311+11:00	2022-10-25T16:01:38.321598+11:00	56 Marungul Avenue	NGUNNAWAL	ACT	2913	149.1129208	-35.1764687	House	2862	Stone Gungahlin	Kris Hellier	6	4	3	3.0	
68673	residential	Elevated and private, surrounded by established gardens.	Auction 12/11/2022	2022-10-20T10:58:18.676025+11:00	2022-10-25T16:02:01.235504+11:00	64 Namatjira Drive	STIRLING	ACT	2611	149.054296	-35.3510761	House	2300	VERV Property	Jason Roses	4	2	2	2.0	805.0
68682	residential	Elegant four bedroom residence in convenient locale	$1,525,000+	2022-10-20T11:16:12.124255+11:00	2022-10-31T12:46:57.099105+11:00	104 Samaria Street	CRACE	ACT	2911	149.1117772	-35.2046157	House	410	MARQ Property	Sam Taylor	4	2	2	6.00	449.00
68683	residential	Charming Chisholm Home 	$820,000+	2022-10-20T11:08:53.996385+11:00	2022-10-25T10:46:41.315305+11:00	61 Barangaroo Street	CHISHOLM	ACT	2905	149.1232364	-35.4286623	House	629	Badenoch Real Estate	Symon Badenoch	3	1	4	1.5	
68684	residential	Inner North Location Surrounded by Nature	$670,000+	2022-10-20T11:16:12.317389+11:00	2022-10-26T11:01:35.794581+11:00	7/7 Shewcroft Street	WATSON	ACT	2602	149.1632703	-35.2304546	Townhouse	410	MARQ Property	Jason Anasson	2	2	2	6.0	
68687	residential	Downsize in Style -Executive Suite in Central Belconnen	Auction	2022-10-20T11:20:14.313891+11:00	2022-10-25T10:03:46.656012+11:00	27C/21 Beissel Street	BELCONNEN	ACT	2617	149.0651221	-35.2350205	Apartment	437	LJ Hooker Belconnen	Sharon Schnyder	2	2	1	6.0	
68688	residential	Top of the town	Auction	2022-10-20T11:39:15.973973+11:00	2022-10-24T10:31:53.107272+11:00	106 Hugh McKay Crescent	DUNLOP	ACT	2615	149.0136898	-35.2007749	House	411	Luton Kippax	Ben Oostermeyer	3	1	2	4.5	355.0
68690	residential	Immaculate Entertainer in Thriving Throsby	Auction 5/11/2022	2022-10-20T11:43:40.323169+11:00	2022-10-25T12:16:54.770958+11:00	29 Pilliga Street	THROSBY	ACT	2914	149.1593172	-35.1857334	House	2853	Bastion Property Group	Theo Koutsikamanis	4	2	2	6.0	377.0
68694	residential	Beautifully presented two bedroom property located in the Axial development.	$599,000+	2022-10-20T12:19:49.650543+11:00	2022-10-26T11:31:33.487600+11:00	40/109 Canberra Avenue	GRIFFITH	ACT	2603	149.1460232	-35.3216721	Apartment	1155	PURNELL	Nick Purnell	2	1	1	6.0	
68695	residential	Large family home in elevated location	Auction 12/11/2022	2022-10-20T12:25:12.826305+11:00	2022-10-25T16:17:57.802068+11:00	27 Sullivan Crescent	WANNIASSA	ACT	2903	149.1013506	-35.3945675	House	232	Ray White Canberra	Maree Van Arkel	4	3	2	2.0	985.0
68700	residential	The simple things in life	$590,000+	2022-10-20T13:07:09.852563+11:00	2022-10-25T09:46:36.519474+11:00	7/59 Pinkerton Circuit	KAMBAH	ACT	2902	149.0642287	-35.3988089	Townhouse	513	My Morris	Sandy Morris	2	1	2	2.0	
68701	residential	A Home in the Hills	Auction	2022-10-20T13:06:59.387714+11:00	2022-10-25T16:01:48.742526+11:00	241 Bugden Avenue	FADDEN	ACT	2904	149.1217787	-35.4040793	House	409	Luton Gungahlin	Peter White	3	2	2	2.0	
68702	residential	private.masterpiece	Auction 5:30pm Thursday 10 November	2022-10-20T13:26:17.973690+11:00	2022-10-24T13:46:40.906448+11:00	9 McCay Place	PEARCE	ACT	2607	149.0833919	-35.3687667	House	618	home.by holly	Bianca Way	4	2	2	1.0	758.0
68703	residential	Add your touches to this lovely family home, positioned on 725 m2 (approx.) of valuable Inner North land, close to shops, schools and a tram stop! 	Auction	2022-10-20T13:29:44.976534+11:00	2022-10-24T15:31:38.066715+11:00	11 Burn Street	DOWNER	ACT	2602	149.1500383	-35.2425131	House	273	Luton Dickson	Aniko and Peter Carey	3	2	2	0.0	725.0
68705	residential	A dream home	Auction 10/11/2022	2022-10-20T13:21:18.727133+11:00	2022-10-26T15:03:11.877677+11:00	7 Gouldsmith Street	DUNLOP	ACT	2615	149.0310556	-35.1939364	House	232	Ray White Canberra	Jake Battenally	4	2	2	4.5	489.0
68713	residential	High quality - low maintenance living	Auction 12/11/2022	2022-10-20T14:27:23.779894+11:00	2022-10-24T10:32:26.144559+11:00	5A Brough Place	CHAPMAN	ACT	2611	149.0443	-35.3614694	House	2300	VERV Property	Alysia Walsh	3	2	2	7.5	
68714	residential	Family home with all the features / Perfect first home or downsizers dream	$620,000+	2022-10-20T14:30:32.798443+11:00	2022-10-25T14:31:45.989452+11:00	6/12 Jondol Place	ISABELLA PLAINS	ACT	2905	149.0849762	-35.4251366	Townhouse	435	LJ Hooker Tuggeranong	Andrew Curren	3	1	1	1.5	289.0
68716	residential	Inner City Living meets Opulence and Convenience	$519,000-$549,000	2022-10-20T14:45:20.004799+11:00	2022-10-25T17:16:33.579781+11:00	1104/25 Edinburgh Avenue	CITY	ACT	2601	149.1225765	-35.2849101	Apartment	410	MARQ Property	Craig Chapman	1	1	1	6.0	
68718	residential	Call Holt Home	Auction 09/11/2022	2022-10-20T14:33:16.893083+11:00	2022-10-27T13:47:02.900695+11:00	339 Southern Cross Drive	HOLT	ACT	2615	149.0120766	-35.2191128	House	232	Ray White Canberra	Nathan Wood	3	1	1	0.5	706.0
68724	residential	Peacefully Positioned in Pearce	$640,000+	2022-10-20T15:08:09.637819+11:00	2022-10-26T10:46:35.485955+11:00	23/6 Kemsley Place	PEARCE	ACT	2607	149.0843201	-35.3625908	Townhouse	412	Luton Manuka	Miriana Cavic	2	1	1	2.0	250.0
68726	residential	Unbeatable potential in expansive home	$930,000+	2022-10-20T15:25:06.527282+11:00	2022-10-26T12:31:47.402287+11:00	22 Helen Mayo Crescent	BONYTHON	ACT	2905	149.0807241	-35.4268771	House	435	LJ Hooker Tuggeranong	Patrick Kinnane	5	2	4	3.0	829.0
68727	residential	Picture Perfect In Pockett Ave.	Offers Over $699,000	2022-10-20T15:40:47.797907+11:00	2022-10-24T10:31:45.343881+11:00	97 Pockett Avenue	BANKS	ACT	2906	149.0959918	-35.4727485	House	413	Luton Tuggeranong	Michael Martin	3	1	1	3.0	480.0
68728	residential	Inner North Cafes, restaurants, shopping and tram stop, just a short walk from this fantastic location!	$480,000+	2022-10-20T15:40:45.790308+11:00	2022-10-24T15:46:51.843192+11:00	122/26 Oliver Street	LYNEHAM	ACT	2602	149.1328392	-35.2493017	Apartment	412	Luton Manuka	Aniko and Peter Carey	2	1	1	3.0	
68730	residential	A Hidden Treasure In Chisholm	Auction	2022-10-20T15:52:00.799498+11:00	2022-10-23T09:46:29.915041+11:00	3 Lahey Place	CHISHOLM	ACT	2905	149.1164415	-35.4210643	House	413	Luton Tuggeranong	Mina Etminan	3	1	2	2.0	473.0
68731	residential	Serene and Private Family Home !	Auction 19/11/22	2022-10-20T16:13:40.649663+11:00	2022-10-26T17:01:34.259282+11:00	20 Southwell Place	KARABAR	NSW	2620	149.2340929	-35.3742286	House	624	Ian McNamee & Partners - Queanbeyan	Michael Edwards	3	1	2		651.0
68733	residential	Location, space and style - Ticks all the boxes	$980,000+	2022-10-20T16:13:54.569664+11:00	2022-10-25T14:46:53.045055+11:00	2 Michell Street	MONASH	ACT	2904	149.0916423	-35.4106447	House	435	LJ Hooker Tuggeranong	Andrew Curren	4	2	2	2.5	1117.0
68734	residential	FAMILY SIZED APARTMENT IN UNBEATABLE LOCATION	Auction	2022-10-20T16:11:03.200336+11:00	2022-10-25T14:47:10.912753+11:00	23/31 Disney Court	BELCONNEN	ACT	2617	149.0703449	-35.2442036	Apartment	438	LJ Hooker Woden/Weston	Jane Kusetic	3	1	1	4.5	3405.0
68736	residential	Welcome to Paradise	Auction: Saturday 12 November, On Site at 10:00AM	2022-10-20T16:27:20.353563+11:00	2022-10-26T09:31:38.931167+11:00	54 Investigator Street	RED HILL	ACT	2603	149.1338219	-35.3428376	House	443	LJ Hooker Manuka	Stephen Thompson	5	4	2	5.0	877.0
68739	residential	Spacious. Stunning. Surprising. Simply unique.	Auction	2022-10-20T16:41:11.317450+11:00	2022-10-25T10:47:37.004053+11:00	12 Birdwood Street	HUGHES	ACT	2605	149.0962161	-35.3301489	House	438	LJ Hooker Woden/Weston	Jane Kusetic	5	4	5	3.0	812.0
68746	residential	A PLACE YOU CAN CALL HOME!	Auction on 05/11/2022	2022-10-20T17:46:06.661788+11:00	2022-10-25T11:32:58.647719+11:00	16 Mary Gillespie Avenue	GUNGAHLIN	ACT	2912	149.1462924	-35.1867183	House	1534	New Door Properties	Varun Dhand	4	2	2	5.5	563.0
68747	residential	Beautiful As New Apartment in the Oaks, Phillip, By Tender	By Tender (Bid in Private)	2022-10-20T17:54:13.896882+11:00	2022-10-25T18:44:11.782572+11:00	61/9 Irving Street	PHILLIP	ACT	2606	149.0849365	-35.3385175	Apartment	3962	ACT Real Estate	John Nash	3	2	2	6.0	0.0
68753	residential	WHEN LOCATION MATTERS	Auction	2022-10-21T07:26:53.866332+11:00	2022-10-25T14:47:03.540932+11:00	15 Jennings Street	CURTIN	ACT	2605	149.0727659	-35.3226315	House	438	LJ Hooker Woden/Weston	Jane Kusetic	3	2	2	1.0	931.0
68754	residential	Family Size Residence !	Auction 26/11/22	2022-10-21T08:32:50.828434+11:00	2022-10-26T10:16:44.368087+11:00	211 Bicentennial Drive	JERRABOMBERRA	NSW	2619	149.2044675	-35.3970202	House	624	Ian McNamee & Partners - Queanbeyan	Lucy MacGregor	5	3	2		783.0
68756	residential	bright.future	Auction 3:30pm Saturday 12 November	2022-10-21T09:14:22.988966+11:00	2022-10-27T13:16:39.777341+11:00	32 Newton Street	HACKETT	ACT	2602	149.1555564	-35.2483788	House	618	home.by holly	Sally Strang	3	1	2	2.0	
68758	residential	Fabulous Townhouse in Ideal Location!	Auction 10/11/2022	2022-10-21T09:29:19.185504+11:00	2022-10-26T15:02:10.629612+11:00	15/16 Gabriel Place	FLOREY	ACT	2615	149.0553436	-35.2289276	House	232	Ray White Canberra	Jake Battenally	2	1	1	2.0	0.0
68762	residential	RZ2 Block Great Opportunity in Gilmore!	Auction	2022-10-21T09:50:00.779256+11:00	2022-10-25T16:01:36.700625+11:00	1 Yelland Place	GILMORE	ACT	2905	149.1338443	-35.4125647	House	413	Luton Tuggeranong	Mina Etminan	3	1	2	2.5	838.0
68768	residential	stories.of.duffy	Auction Saturday 12 November 1:45pm	2022-10-21T10:32:19.095933+11:00	2022-10-25T18:16:40.161005+11:00	17 Duffy Street	AINSLIE	ACT	2602	149.1477504	-35.2690613	House	618	home.by holly	Holly Komorowski	3	2	1	1.5	844.0
68772	residential	Stunning, oversized apartment at LUMI	Auction	2022-10-21T10:48:02.013291+11:00	2022-10-24T12:47:15.761876+11:00	302/102 Swain Street	GUNGAHLIN	ACT	2912	149.13161879999998	-35.1812308	Apartment	440	LJ Hooker Canberra City	Kaylene King	2	2	2	6.0	
68783	land	Rare opportunity in one of Gungahlin's finest addresses	Auction 19th November at 9:45am	2022-10-21T12:23:05.950082+11:00	2022-10-25T11:46:53.885033+11:00	19 Perunga Rise	THROSBY	ACT	2914	149.1659922	-35.1968076	Land	410	MARQ Property	Sam Taylor	0	0	0	0.0	803.0
68793	residential	Beautifully renovated home in quiet street	Auction 17/11/2022	2022-10-21T13:19:14.376547+11:00	2022-10-25T16:02:54.797098+11:00	14 Warramoo Crescent	NARRABUNDAH	ACT	2604	149.154528	-35.335371	House	232	Ray White Canberra	Maree Van Arkel	2	1	0	3.0	
68795	residential	Location Location Location!	$1,495,000	2022-10-21T13:51:46.498314+11:00	2022-10-25T12:31:46.560920+11:00	127 Theodore Street	CURTIN	ACT	2605	149.0827194	-35.3369664	House	412	Luton Manuka	Richard Luton	4	2	1	1.0	781.0
68806	residential	HIGH QUALITY AND AMAZING VIEWS	Auction	2022-10-21T15:10:13.890467+11:00	2022-10-24T12:47:21.969728+11:00	28/566 Cotter Road	WRIGHT	ACT	2611	149.0430114	-35.3250493	Apartment	438	LJ Hooker Woden/Weston	Austin Tetteh	1	1	1	6.0	
68828	residential	Updated Home near Gungahlin Town Centre !	Auction 09/11/2022	2022-10-22T17:54:28.695904+11:00	2022-10-26T17:46:57.405101+11:00	379 Gundaroo Drive	GUNGAHLIN	ACT	2912	149.1391664	-35.180473	DuplexSemi-detached	636	Impact Properties	Shaun Iqbal	3	2	6	3.5	570.0
68837	residential	Elegant Villa, Boutique Complex of 4, Quality Build	Auction Sat, 19th Nov at 11:30am	2022-10-24T09:38:18.960733+11:00	2022-10-28T12:31:34.436272+11:00	1/3 Sophia Street	AMAROO	ACT	2914	149.1296397	-35.1660253	Villa	233	LJ Hooker Gungahlin	Naish Stormon	3	2	2	5.0	428.0
68842	residential	2022/2023 Investment Opportunity!	$680,000+	2022-10-24T10:47:53.619621+11:00	2022-10-27T16:01:37.171238+11:00	5/29 Muriel Stewart Circuit	BONNER	ACT	2914	149.1431642	-35.1617456	Townhouse	34	McIntyre Property	Scott Isaacs	3	2	1	5.0	
68856	residential	Supremely Spacious Living in a Lush Garden Setting	Auction 19/11/2022	2022-10-24T13:46:07.642516+11:00	2022-10-24T14:17:38.904029+11:00	5 Aird Place	FARRER	ACT	2607	149.0952744	-35.3744517	House	232	Ray White Canberra	Cameron Whitnall	3	2	2	1.5	1157.0
68857	residential	Mid-Century cottage - 4 bedrooms 2 bathrooms and a yurt!!! Solar electricity and hot water.	Auction Saturday 19/11/2022 @ 11:00am On Site	2022-10-24T14:02:40.938846+11:00	2022-10-28T09:57:39.692608+11:00	21 Shortland Crescent	AINSLIE	ACT	2602	149.148575	-35.2556918	House	1102	Wright Dunn Real Estate	Peter Andrighetto	4	2	2	0.5	0.0
68860	residential	Light Filled Living	$1,199,000	2022-10-24T14:02:20.100444+11:00	2022-10-31T16:18:21.922820+11:00	Hakea Type 2	DENMAN PROSPECT	ACT	2611	149.0239442	-35.298635	Townhouse	232	Ray White Canberra	Samuel Fitzsimmons	3	2	2	6.5	0.0
68899	residential	This home ticks all the boxes!	$840,000 - $880,000	2022-10-25T10:52:48.903144+11:00	2022-10-27T13:47:02.975928+11:00	53 Bunduluk Crescent	NGUNNAWAL	ACT	2913	149.1059472	-35.1684205	House	233	LJ Hooker Gungahlin	Marcus Cataldo	3	2	2	2.0	422.0
68901	residential	Serene and peaceful urban retreat	Auction 19/11/2022	2022-10-25T10:48:16.560132+11:00	2022-10-31T10:04:09.617704+11:00	50 Jaeger Circuit	BRUCE	ACT	2617	149.0818899	-35.2493853	House	232	Ray White Canberra	Andrew Lonsdale	4	3	2	2.0	843.0
68904	residential	Investors Take Note! Fabulous DHA Leased Property	$1,100,000+	2022-10-25T11:21:41.959948+11:00	2022-10-27T13:01:40.602558+11:00		WESTON	ACT	2611	0.0	0.0	House	34	McIntyre Property	Betty Wark	3	2	2	3.5	501.0
68910	residential	Stylish, Modern and East Facing!	$525,000+	2022-10-25T12:32:08.952686+11:00	2022-10-27T16:17:05.259165+11:00	305/15 Provan Street	CAMPBELL	ACT	2612	149.1434214	-35.2898807	Apartment	440	LJ Hooker Canberra City	Antony Damiano	1	1	1	6.0	
68913	residential	THE DOOR IS OPEN, WELCOME HOME!	$549,000+	2022-10-25T13:02:29.370509+11:00	2022-10-31T11:31:52.926189+11:00	31 Mcgovern Street	CASEY	ACT	2913	149.0994848	-35.160994	House	2862	Stone Gungahlin	Kris Hellier	2	1	2	6.0	
68917	residential	Convenient living at your doorstep!	$700,000+	2022-10-25T13:47:12.768499+11:00	2022-10-25T14:17:03.789640+11:00	109/45 West Row	CITY	ACT	2601	149.1274077	-35.2785727	Apartment	232	Ray White Canberra	Harry McCormack	2	2	1	5.5	18.5
68923	land	GREAT LOCATION TO BUILD YOUR DREAM HOME!!	$520,000 - $560,000	2022-10-25T14:29:12.597220+11:00	2022-10-28T21:46:35.956790+11:00	Lot 1229 Glenrock Drive	GOOGONG	NSW	2620	149.2264825	-35.4265203	Land	1534	New Door Properties	Yash Sethi	0	0	0		546.0
68939	residential	A WONDERFUL FAMILY ESCAPE	AUCTION	2022-10-25T17:46:26.324017+11:00	2022-10-25T17:47:01.144182+11:00	59 Mountain Circuit	CALWELL	ACT	2905	149.1067095	-35.4361047	House	1083	Michael Potter Real Estate	Michael Potter	4	2	1	1.0	652.0
68940	residential	A premium Home across from the Town Centre !	Auction 19/11/2022	2022-10-25T17:43:51.578235+11:00	2022-11-01T10:17:23.742838+11:00	10 Thompson Place	MONASH	ACT	2904	149.0774959	-35.421081	House	636	Impact Properties	Shaun Iqbal	5	4	7	0.5	1099.0
68941	residential	A great place to Start	Auction	2022-10-26T07:31:32.744101+11:00	2022-10-26T09:47:02.996601+11:00	9B Yeomans Street	STRATHNAIRN	ACT	2615	148.999613	-35.2314313	Townhouse	408	Luton Belconnen	Phil Rooke	2	1	2	6.0	
68942	residential	Modern living in premier location	Auction Saturday 19th November at 9am	2022-10-26T08:15:20.931877+11:00	2022-11-01T15:16:44.646540+11:00	62A Ebden Street	AINSLIE	ACT	2602	149.1472941	-35.2638957	DuplexSemi-detached	684	McCann Properties	Mark McCann	3	2	2	2.50	474.00
68943	residential	Great Family Home on Generous Block	$980,000+	2022-10-26T08:59:09.221539+11:00	2022-10-31T10:33:23.026455+11:00	1 Arnot Place	MONASH	ACT	2904	149.0799843	-35.4206805	House	232	Ray White Canberra	Kate Coultas	3	2	2	0.00	1122.00
68945	residential	Stunningly Renovated Family Home	Auction 16/11/2022	2022-10-26T09:26:34.944267+11:00	2022-10-31T13:32:25.559694+11:00	14 Hirst Place	GIRALANG	ACT	2617	149.0986375	-35.2145113	House	2853	Bastion Property Group	Rob Cappuccio	4	2	3	3.5	1095.0
68947	residential	A home for all seasons and celebrations!	Auction	2022-10-26T09:32:53.845594+11:00	2022-10-27T09:46:41.389862+11:00	5 Oldershaw Circuit	NICHOLLS	ACT	2913	149.1010591	-35.182941	House	409	Luton Gungahlin	Luke McAuliffe	4	2	2	4.0	679.0
68948	residential	The Heart of the Woden Valley	By Negotiation	2022-10-26T09:32:54.006120+11:00	2022-10-31T12:17:22.932178+11:00	11/37 Ainsworth Street	MAWSON	ACT	2607	149.0967317	-35.3591758	Townhouse	409	Luton Gungahlin	Corbin Eslick	2	1	2	6.0	
68957	residential	Looking for a Great Buy?	Auction	2022-10-26T10:32:58.754319+11:00	2022-10-26T10:34:27.810357+11:00	7 Bolliger Place	FLOREY	ACT	2615	149.0452413	-35.2288407	House	437	LJ Hooker Belconnen	George Vlandis	3	1	1	2.0	823.0
68958	residential	Totally Renovated, Move in Ready	AUCTION	2022-10-26T11:00:55.394429+11:00	2022-11-01T11:16:36.776662+11:00	13 Zincke Close	CALWELL	ACT	2905	149.1115081	-35.4383135	House	34	McIntyre Property	Anne Farrell	3	2	0	0.0	459.0
68960	residential	Lifestyle meets Location	Auction	2022-10-26T11:02:16.679030+11:00	2022-10-26T11:03:03.147298+11:00	23 Elkedra Close	HAWKER	ACT	2614	149.04179	-35.2477831	Townhouse	437	LJ Hooker Belconnen	Kathy Komar	3	1	2	1.5	297.0
68962	residential	Don't Look Any Further!	Auction	2022-10-26T11:14:08.343018+11:00	2022-11-01T16:47:19.873996+11:00	220 Kerrigan Street	DUNLOP	ACT	2615	149.0186192	-35.1926926	Townhouse	437	LJ Hooker Belconnen	Robert Murphy	3	1	1	5.50	217.00
68964	residential	The Perfect House Ready for you to Call Home!	$749,000+	2022-10-26T12:06:56.787132+11:00	2022-11-01T11:18:14.352318+11:00	22 House Circuit	BANKS	ACT	2906	149.0924494	-35.4673692	House	34	McIntyre Property	Ben Holder	3	1	2	1.50	467.00
68971	residential	Townhouse with Utmost Convenience and Great Location!	By Negotiation	2022-10-26T12:36:09.688591+11:00	2022-10-31T10:48:48.681896+11:00	12/57 Bellhouse Crescent	MONCRIEFF	ACT	2914	149.114958	-35.157369	Townhouse	1534	New Door Properties	Gurjant Singh	3	2	2	6.0	
68972	residential	Beautiful Family Home 	$799,000 - $850,000	2022-10-26T12:40:12.839353+11:00	2022-10-31T16:18:37.873248+11:00	8 Doyle Place	KARABAR	NSW	2620	149.2382679	-35.3747031	House	1534	New Door Properties	Yash Sethi	4	1	1		667.0
68975	residential	Stop paying rent or start collecting it! - Ideal for first home buyers and investors	$278,000 +	2022-10-26T13:20:16.301183+11:00	2022-11-01T11:19:36.967457+11:00	27/58 Bennelong Crescent	MACQUARIE	ACT	2614	149.059227	-35.2493337	Unit	232	Ray White Canberra	Leonie Taylor	1	1	1	0.5	
68977	residential	Spacious, Bright North Facing Living With Parkland Views.	Offers over $899,000	2022-10-26T13:34:54.695152+11:00	2022-10-31T07:46:36.552147+11:00	2/16 Neil Harris Crescent	FORDE	ACT	2914	149.1408328	-35.1740181	Townhouse	409	Luton Gungahlin	Stuart James	3	2	2	5.5	
68981	residential	Buy brand new in the inner north	Auction 17/11/2022	2022-10-26T14:14:13.389912+11:00	2022-10-31T10:18:51.585585+11:00	37/28 Beechworth Street	WATSON	ACT	2602	149.1619458	-35.232296	Apartment	232	Ray White Canberra	Vince Pinneri	2	2	2	6.0	
68984	residential	Beautiful Property in the Molonglo Valley!	Auction	2022-10-26T14:30:00.522749+11:00	2022-10-26T14:46:42.725826+11:00	39/60 Tishler Street	WRIGHT	ACT	2611	149.0356953	-35.3189725	Apartment	440	LJ Hooker Canberra City	Jemma Colovatti	1	1	1	6.0	
68989	residential	Built to last. Created to enjoy. 	$1,399,000+	2022-10-26T14:51:09.163886+11:00	2022-10-27T11:46:51.722317+11:00	106 Zanci Street	CRACE	ACT	2911	149.1057751	-35.20449840000001	House	410	MARQ Property	Sam Taylor	4	3	2	6.0	500.0
68992	residential	Lifestyle living In Bonython	Auction	2022-10-26T15:02:31.794169+11:00	2022-10-31T14:32:42.480334+11:00	18/38 Ebenezer Street	BONYTHON	ACT	2905	149.0796481	-35.4325258	Townhouse	413	Luton Tuggeranong	Mina Etminan	3	2	2	4.0	
68993	residential	layered.tranquility	Auction Saturday 19 November at 9:00am	2022-10-26T15:11:20.378290+11:00	2022-10-31T10:32:05.916056+11:00	18 Bootle Place	PHILLIP	ACT	2606	149.0949551	-35.3454448	Townhouse	618	home.by holly	Cris O'Brien	4	3	2	4.0	
68998	residential	The simple life	$510,000+	2022-10-26T15:36:10.833062+11:00	2022-10-31T16:17:01.324794+11:00	18/36 John Holt Street	MACGREGOR	ACT	2615	149.0046972	-35.2065047	Unit	411	Luton Kippax	Ben Oostermeyer	2	1	1	6.00	198.00
69003	land	Block on great location! 540sqm Ready to build 	$525,000 - $555,000	2022-10-26T16:13:47.607000+11:00	2022-10-31T13:16:31.026028+11:00	38 Lambrigg Road	GOOGONG	NSW	2620	149.2359484	-35.4221969	Land	2853	Bastion Property Group	Theo Koutsikamanis	0	0	0	0.0	540.0
69004	residential	The ultimate entry level property!	$500,000+	2022-10-26T16:16:19.384144+11:00	2022-10-31T09:33:09.730083+11:00	5/1 Pinkerton Circuit	KAMBAH	ACT	2902	149.064663	-35.3973546	Townhouse	232	Ray White Canberra	Dan Cooper	2	1	2	3.00	283.07
69016	residential	Opportunity & Location	AUCTION	2022-10-26T16:19:39.470798+11:00	2022-11-01T12:32:01.352400+11:00	7/58 De Little Circuit	GREENWAY	ACT	2900	149.0734395	-35.4008732	Townhouse	34	McIntyre Property	Colin McIntyre	3	2	2	3.00	346.00
69020	residential	Light-filled family home that ticks all the boxes	Auction 26/11/2022 at 3:45pm	2022-10-26T16:54:49.606088+11:00	2022-10-27T07:46:38.735213+11:00	13 Lanaba Street	CRACE	ACT	2911	149.1082567	-35.2056248	House	2862	Stone Gungahlin	Jess Smith	4	3	2	6.0	564.0
69025	residential	Fully renovated 4 bedroom haven - Elevated 839sqm block	Auction: Saturday 12 November 11:15am	2022-10-27T08:27:13.951196+11:00	2022-11-01T09:31:51.111345+11:00	30 Hensman Street	LATHAM	ACT	2615	149.0302264	-35.2209849	House	410	MARQ Property	Justin Taylor	4	2	2	1.50	839.00
69026	residential	Contemporary Family Entertainer, Designed to Impress	Auction 19/11/2022	2022-10-27T09:00:11.298476+11:00	2022-10-31T12:48:02.858960+11:00	4 Beedham Place	LYONS	ACT	2606	149.078841	-35.345083	House	232	Ray White Canberra	Alec Brown	5	3	3	6.00	736.00
69027	residential	Serene Rosewood!	Auction 16/11/22	2022-10-27T09:12:02.129217+11:00	2022-11-01T08:46:32.263816+11:00	55 Rosewood Glen 	JERRABOMBERRA	NSW	2619	149.2014156	-35.3827753	House	624	Ian McNamee & Partners - Queanbeyan	Lucy MacGregor	3	2	2		595.0
69028	residential	Immaculate Town Residence	Auction	2022-10-27T09:22:41.186376+11:00	2022-11-01T09:46:59.858148+11:00	43b Mueller Street	YARRALUMLA	ACT	2600	149.0991633	-35.3061419	House	412	Luton Manuka	Sophie Luton	3	2	2	3.50	
69029	residential	ENVIABLE ORIENTATION IN A SUPERB LOCATION	$339,000+	2022-10-27T09:29:05.389875+11:00	2022-10-30T15:31:32.704051+11:00	87/179 Melrose Drive, 'Woden Gardens'	LYONS	ACT	2606	149.0824666	-35.3464403	Unit	1083	Michael Potter Real Estate	Michael Potter	2	1	1	6.00	
69031	residential	Four bedroom opportunity in Casey	Auction	2022-10-27T09:33:56.133229+11:00	2022-11-01T13:31:40.091873+11:00	5 Wilenski Street	CASEY	ACT	2913	149.0917319	-35.1761144	House	409	Luton Gungahlin	Nick Paine	4	2	1	4.50	424.00
69033	residential	Street Side Townhouse in Prime Location	$589,000+	2022-10-27T09:33:58.828037+11:00	2022-10-31T12:31:49.839625+11:00	21/18 Burdett Crescent	THEODORE	ACT	2905	149.1228151	-35.4487784	Townhouse	413	Luton Tuggeranong	Melissa Von Der Burg	3	1	1	0.0	498.0
69034	residential	Great first home or investment opportunity - Starlight Apartments	$498,000+	2022-10-27T09:44:11.514798+11:00	2022-11-01T11:17:43.540307+11:00	61/20 Federal Highway	WATSON	ACT	2602	149.1566107	-35.2283344	Apartment	410	MARQ Property	Justin Taylor	2	2	2	6.00	
69035	residential	This inviting home offers separate living areas and private rear garden, a short walk to shops and close to schools.	Auction	2022-10-27T09:44:40.840175+11:00	2022-10-27T10:31:39.158591+11:00	3 Darby Street	KALEEN	ACT	2617	149.106575	-35.2167879	House	273	Luton Dickson	Aniko and Peter Carey	3	2	2	1.5	820.0
69036	residential	Prime and peaceful position in Bruce 	Auction	2022-10-27T09:33:55.990193+11:00	2022-11-01T12:17:32.732746+11:00	16 Fidler Court	BRUCE	ACT	2617	149.0961712	-35.2383275	House	409	Luton Gungahlin	Peter White	3	2	2	4.50	
69037	residential	On the doorstep of convenience	$599,000+	2022-10-27T09:34:46.550951+11:00	2022-10-31T16:17:40.202803+11:00	72/15 Bowman Street	MACQUARIE	ACT	2614	149.0692914	-35.2534774	Apartment	629	Badenoch Real Estate	Symon Badenoch	2	2	2	6.0	
69041	residential	Palmerston's premier townhouse complex 	AUCTION	2022-10-27T09:55:42.745128+11:00	2022-11-01T11:17:51.138463+11:00	10/7 Lofty Close	PALMERSTON	ACT	2913	149.1241181	-35.1927685	Townhouse	34	McIntyre Property	Terry Cooper	2	1	2	2.00	
69043	land	North facing elevated land holding - Ready to build on!	$480,000	2022-10-27T10:01:28.223098+11:00	2022-10-27T10:01:42.966030+11:00	94 Oxalis Crescent 	TRALEE	NSW	2620	149.1682117	-35.4036258	Land	626	Berkely Residential	Simon Richards	0	0	0		
69046	residential	Unique Inner City Living	$449,000+	2022-10-27T10:02:48.530580+11:00	2022-11-01T10:48:29.641874+11:00	8/28 Watson Street	TURNER	ACT	2612	149.12669	-35.2716913	Apartment	443	LJ Hooker Manuka	Samuel Thompson	1	1	1	6.00	
69049	residential	Inner North Oasis	Auction	2022-10-27T10:31:50.521598+11:00	2022-10-27T10:32:58.115861+11:00	103 Blamey Crescent	CAMPBELL	ACT	2612	149.1531563	-35.2886595	House	412	Luton Manuka	Richard Luton	4	2	2	5.0	
69051	residential	Separate titled - 2 storey modern 3 bedroom ensuite townhouse.	Auction Saturday 19/11/2022 @ 12:30pm	2022-10-27T10:42:50.969557+11:00	2022-10-31T16:20:07.691416+11:00	7 Bettie McNee Street	WATSON	ACT	2602	149.15716	-35.2315233	Townhouse	1102	Wright Dunn Real Estate	Peter Andrighetto	3	2	2	5.00	0.00
69052	residential	Beautiful on Birdwood 	$1,775,000	2022-10-27T10:39:52.432219+11:00	2022-10-28T11:16:39.100219+11:00	73A Birdwood Street	HUGHES	ACT	2605	149.1020681	-35.3333339	DuplexSemi-detached	412	Luton Manuka	Miriana Cavic	4	3	2	6.0	445.0
69053	residential	Elevation, Views and Size - This Home Has It All!	Auction 19/11/2022	2022-10-27T10:32:38.770144+11:00	2022-10-27T11:31:57.701867+11:00	33 Eppalock Street	DUFFY	ACT	2611	149.0331845	-35.3331954	House	2300	VERV Property	Jason Roses	4	2	2	2.5	804.0
69054	residential	One Of A Kind, You Wont Find A Home Quite Like This!	Auction 19/11/2022	2022-10-27T10:32:38.629969+11:00	2022-10-31T14:32:25.673193+11:00	27 Kondelea Way	DENMAN PROSPECT	ACT	2611	149.0216903	-35.3071044	House	2300	VERV Property	Jason Roses	4	3	2	6.0	480.0
69057	residential	Versatile floorplan with optional fourth bedroom	$780,000+	2022-10-27T10:40:17.672718+11:00	2022-11-01T11:19:32.176347+11:00	3 Magarey Place	KAMBAH	ACT	2902	149.0483342	-35.3895538	House	435	LJ Hooker Tuggeranong	Andrew Curren	3	1	2	2.50	737.00
69059	residential	Location, Space and Liveability	$525,000+	2022-10-27T10:47:34.191976+11:00	2022-11-01T11:31:56.160043+11:00	92/311 Anketell Street	GREENWAY	ACT	2900	149.0717123	-35.41979329999999	Apartment	443	LJ Hooker Manuka	Samuel Thompson	2	2	1	6.00	
69060	residential	Tri level townhouse in desirable location	Auction 17/11/2022	2022-10-27T10:54:19.708964+11:00	2022-10-31T16:48:43.327037+11:00	25 McGovern Street	CASEY	ACT	2913	149.0993417	-35.1609785	Townhouse	232	Ray White Canberra	Joshua Gutierrez	2	1	2	5.0	67.0
69061	residential	Skip to the OConnor Shops, Scooter to the ANU!	Auction 23/11/2022	2022-10-27T11:04:56.411844+11:00	2022-10-31T12:34:09.086188+11:00	16/10 Macpherson Street	O'CONNOR	ACT	2602	149.1218908	-35.2637755	Apartment	436	LJ Hooker Dickson	Stephen Bunday	1	1	1	6.00	
69064	residential	Elevated position in Cassidy Street Amazing opportunity presents	Auction: 2.00pm Saturday 19th November 2022	2022-10-27T11:28:52.096733+11:00	2022-10-28T13:01:57.514571+11:00	1 Cassidy Street	QUEANBEYAN	NSW	2620	149.2182582	-35.360491	House	626	Berkely Residential	Simon Richards	3	1	1		
69066	residential	Renovate or Rebuild On Dutton Street!	Auction	2022-10-27T11:21:16.704945+11:00	2022-10-31T10:48:05.809337+11:00	2 Dutton Street	DICKSON	ACT	2602	149.1497691	-35.2525772	House	436	LJ Hooker Dickson	Andrew Browne	3	1	1	1.5	828.0
69072	residential	Downsizing Delight	Saturday 12th November, On  Site at 9:00am	2022-10-27T11:40:14.373775+11:00	2022-10-28T11:32:51.261767+11:00	19/3 Hansen Circuit	ISAACS	ACT	2607	149.110959	-35.3719571	Townhouse	443	LJ Hooker Manuka	Samuel Thompson	3	2	2	2.0	
69074	residential	Sophisticated Multi-level Home	By Negotiation	2022-10-27T12:00:21.135844+11:00	2022-10-28T10:04:41.854697+11:00	60/45/Athllon Drive	GREENWAY	ACT	2900	149.0678568	-35.4237397	Townhouse	1909	Edge Dewi Radyanto	Dewi Radyanto	4	2	3	6.00	0.00
69075	residential	Modern Home Sweet Home perfect for a growing family !	Auction 17/11/2022	2022-10-27T11:50:52.805265+11:00	2022-10-29T20:17:13.944161+11:00	16 Patrick Shaw Street	CASEY	ACT	2913	149.0998664	-35.1578124	House	636	Impact Properties	Shaun Iqbal	4	2	4	5.0	468.0
69076	residential	Quiet Picture Perfect Family Home !	Auction 19/11 22	2022-10-27T11:56:50.383873+11:00	2022-10-28T11:01:41.061110+11:00	40 Stonehaven Crescent	QUEANBEYAN	NSW	2620	149.1084295	-35.3179615	House	624	Ian McNamee & Partners - Queanbeyan	Lucy MacGregor	4	2	2		563.0
69077	residential	An RZ2 Core Zoned Picturesque Entertainer In Monash	Auction	2022-10-27T11:56:37.362352+11:00	2022-10-28T16:16:55.808396+11:00	23 Axon Street	MONASH	ACT	2904	149.1020008	-35.408766	House	413	Luton Tuggeranong	Michael Martin	4	2	2	1.5	1124.0
69078	residential	Delightful on Dominion!	Auction 23/11/2022	2022-10-27T11:52:06.097465+11:00	2022-10-31T12:18:04.391811+11:00	71/8 Dominion Circuit	FORREST	ACT	2603	149.1318482	-35.3153474	Apartment	436	LJ Hooker Dickson	Stephen Bunday	2	2	1	6.0	
69079	residential	Work, rest and play: options abound in this potential-packed family home.	Auction 19/11/2022	2022-10-27T11:56:17.679610+11:00	2022-10-31T15:33:31.901434+11:00	105 Maitland Street	HACKETT	ACT	2602	149.161344	-35.2499687	House	232	Ray White Canberra	Phyllis Tidmarsh	4	2	1	0.5	673.0
69082	residential	Come for the space, stay for the stunning views.	$1,070,000+	2022-10-27T12:39:05.014777+11:00	2022-10-28T23:01:37.845304+11:00	4 Churchill Way	GORDON	ACT	2906	149.0872031	-35.4438414	House	2801	Solely Properties	Andrew Thorpe	4	3	0	3.00	1047.00
69085	residential	Ground floor apartment in boutique complex	$485,000	2022-10-27T13:00:53.541281+11:00	2022-10-27T13:16:40.315055+11:00	3/81 Lachlan Street	MACQUARIE	ACT	2614	0.0	0.0	Apartment	629	Badenoch Real Estate	Symon Badenoch	2	1	1	5.0	
69087	residential	Your Forever Home Awaits 	Auction	2022-10-27T13:13:47.227490+11:00	2022-10-31T12:31:38.201613+11:00	41 Gouldsmith Street	DUNLOP	ACT	2615	149.0282545	-35.1962326	House	413	Luton Tuggeranong	Michael Martin	4	2	2	4.0	490.0
69088	residential	Palmerston shops without crossing a road!	Auction	2022-10-27T13:12:48.161940+11:00	2022-10-31T11:48:06.993281+11:00	22/25 Namadgi Circuit	PALMERSTON	ACT	2913	149.1183092	-35.198205	Townhouse	436	LJ Hooker Dickson	Nic Salter-Harding	3	2	2	1.0	
69089	residential	Dual investment opportunity on a 1,229sqm block	Auction 17/11/2022	2022-10-27T13:16:18.929912+11:00	2022-10-31T15:33:24.333964+11:00	41 O'Sullivan Street	HIGGINS	ACT	2615	149.0285007	-35.2402293	House	232	Ray White Canberra	Jake Battenally	3	2	1	0.50	1229.00
