id	type	DescriptionTitle	PriceLabel	ListingDate	ReListingDate	Address	Suburb	State	PostCode	Property.lat	Property.lon	PropertyType	Agency.Id	Agency.Name	Agent.Name	Beds	Baths	Cars	EER	PlotSize
52067	residential	Modern Springbank Gem	Auction	2022-01-04T14:01:20.251690+11:00	2022-01-04T14:01:50.928659+11:00	48 Hanley Street	CASEY	ACT	2913	149.0949213	-35.1663595	House	409	Luton Gungahlin	Peter White	4	2	2	4.5	465.0
52074	residential	Town house living at its finest	Auction - $699,000+	2022-01-04T14:53:23.852783+11:00	2022-01-08T12:46:30.705328+11:00	33/363 Mirrabei Drive	MONCRIEFF	ACT	2914	149.1145616	-35.15361470000001	Townhouse	409	Luton Gungahlin	Peter White	3	2	2	6.0	
52077	residential	An Ideal Starter	Auction 25th Jan 2022	2022-01-04T15:16:21.647435+11:00	2022-01-04T15:16:35.000708+11:00	266 Wheeler Crescent	WANNIASSA	ACT	2903	149.0909697	-35.4016164	House	1784	Sadil Quinlan	Marc Sadil	3	1	0	0.5	804.0
52078	residential	Your Low-Maintenance, High-Yield Opportunity 	$320,000 +	2022-01-04T15:31:19.444185+11:00	2022-01-04T15:31:35.920062+11:00	116/41 Chandler Street	BELCONNEN	ACT	2617	149.0709502	-35.2394623	House	232	Ray White Canberra	Phyllis Tidmarsh	1	1	1	6.0	
52080	residential	A great opportunity not to be missed.	Forthcoming Auction - $399,000+	2022-01-04T15:37:07.583532+11:00	2022-01-06T17:31:25.226278+11:00	39 De Bortoli Street	GUNGAHLIN	ACT	2912	149.1521917	-35.18692	Townhouse	409	Luton Gungahlin	Nick Paine	1	1	1	3.5	323.6
52091	residential	Solid Brick Cottage!	$759 000 - $799 000	2022-01-05T09:02:40.277599+11:00	2022-01-06T13:16:22.291502+11:00	132 Uriarra Road	QUEANBEYAN	NSW	2620	149.2171248	-35.3448868	House	624	Ian McNamee & Partners - Queanbeyan	Darren Bennett	3	1	1		613.0
52096	residential	Prime Family Opportunity!	Auction	2022-01-05T09:35:11.410899+11:00	2022-01-05T10:46:29.500743+11:00	50 Pokana Circuit	KALEEN	ACT	2617	149.0942879	-35.2313485	House	409	Luton Gungahlin	Chris Fredericks	4	2	2	1.5	810.0
52099	residential	Nestled in nature with spectacular views	Auction 29/01/2022	2022-01-05T09:46:11.424721+11:00	2022-01-06T13:31:54.306432+11:00	4 Crespin Place	BANKS	ACT	2906	149.1011936	-35.479449	House	232	Ray White Canberra	Kate Coultas	4	2	2	4.0	651.0
52102	residential	Modern townhouse in a perfect lifestyle location	Auction 05/02/2022	2022-01-05T09:49:16.810320+11:00	2022-01-10T09:47:06.937345+11:00	14/20 Helpmann Street	BONYTHON	ACT	2905	149.0710399	-35.4255319	Townhouse	232	Ray White Canberra	Kate Coultas	3	2	2	6.0	
52103	residential	Spacious townhouse, moments to Queanbeyan River	Auction 28/01/2022	2022-01-05T09:49:15.906252+11:00	2022-01-10T11:32:09.543708+11:00	12/6 Doeberl Place	KARABAR	NSW	2620	149.2483884	-35.3752653	Townhouse	232	Ray White Canberra	Kate Coultas	3	2	2		
52105	residential	Fantastic Opportunity!	$459,000 - $479,000	2022-01-05T10:31:19.644768+11:00	2022-01-05T10:31:29.634091+11:00	63/39-43 Crawford Street	QUEANBEYAN	NSW	2620	149.2277217	-35.3449828	Unit	624	Ian McNamee & Partners - Queanbeyan	Michael Edwards	2	2	2		
52107	residential	Immaculate entertainer in prime location	On-Site Auction, 29th January at 12:30PM	2022-01-05T10:26:16.741716+11:00	2022-01-06T10:01:28.306800+11:00	10/93 Chewings Street	SCULLIN	ACT	2614	149.0473557	-35.2312766	Townhouse	232	Ray White Canberra	Jayden Potten	3	2	1	6.0	
52108	residential	Affordable, Long-term investment opportunity. Just set and forget!	In-Room Auction 27/01/2022	2022-01-05T10:34:18.650592+11:00	2022-01-06T10:01:25.755122+11:00	2/9 Keith Street	SCULLIN	ACT	2614	149.0410846	-35.234409	Apartment	232	Ray White Canberra	Jayden Potten	1	1	1	3.0	1868.4
52116	residential	Fabulous City Centre Investment or First Home Opportunity 	Auction 09/02/2022	2022-01-05T11:36:05.076913+11:00	2022-01-08T16:16:25.311024+11:00	602/2 Akuna Street	CITY	ACT	2601	149.1325721	-35.2819185	Apartment	273	Luton Dickson	Jane Ahern	2	1	1	6.0	
52117	residential	Modern apartment with huge courtyard	Auction	2022-01-05T11:31:22.832063+11:00	2022-01-10T12:31:30.150281+11:00	94/104 Henry Kendall Street	FRANKLIN	ACT	2913	149.1489684	-35.1890213	Apartment	435	LJ Hooker Tuggeranong	Dan Cooper	2	2	2	6.0	
52120	residential	A spectacular home and setting	Auction	2022-01-05T11:59:17.468745+11:00	2022-01-10T15:16:33.406707+11:00	2 Mag Place	DUNLOP	ACT	2615	149.0316721	-35.1919346	House	411	Luton Kippax	Ben Oostermeyer	5	2	2	4.5	729.0
52122	residential	Opportunity Knocks! 	Auction	2022-01-05T12:11:17.742787+11:00	2022-01-06T15:16:31.094056+11:00	8 Carron Street	PAGE	ACT	2614	149.0476618	-35.2411735	House	437	LJ Hooker Belconnen	Sharon Schnyder	3	1	1	0.5	778.0
52129	residential	Family Living in Springbank Rise	Auction	2022-01-05T13:16:22.352973+11:00	2022-01-05T13:16:44.076797+11:00	7 Alan Watt Crescent	CASEY	ACT	2913	149.0979201	-35.16036649999999	House	409	Luton Gungahlin	Nick Paine	4	2	2	6.0	487.0
52132	residential	You deserve the best	$799,000+	2022-01-05T14:25:26.225472+11:00	2022-01-12T10:46:28.601636+11:00	43 Jumbuck Crescent	LAWSON	ACT	2617	149.0886815	-35.2267254	Townhouse	233	LJ Hooker Gungahlin	Jeff Shortland	3	2	2	6.0	0.0
52135	residential	Beautifully renovated house in an excellent location!	Forthcoming AUCTION	2022-01-05T15:16:21.593479+11:00	2022-01-05T15:16:59.383644+11:00	8 Icely Place	KAMBAH	ACT	2902	149.0466757	-35.3889292	House	2880	Confidence Real Estate	Anish Sebastian	3	1	0	2.0	
52136	residential	Stunning energy efficient family residence	Auction	2022-01-05T15:07:02.710200+11:00	2022-01-10T11:16:46.963140+11:00	22 Kalgoorlie Crescent	FISHER	ACT	2611	149.0603925	-35.3609054	House	513	One Agency Sandy Morris	Sandy Morris	4	3	2	5.5	741.0
52148	residential	Cosmopolitan Living at its Best ! 	By Negotiation	2022-01-05T17:53:50.887962+11:00	2022-01-10T22:16:44.213670+11:00	39/2 EDINBURGH AVENUE	CITY	ACT	2601	149.1247781	-35.2831932	Apartment	636	Impact Properties	Raj Sahu	1	1	1	6.0	
52154	residential	88m2 Extra Large Apartment in Super-Convenient Location	$399,000+	2022-01-06T09:11:03.530588+11:00	2022-01-10T18:01:30.448076+11:00	37/21 christina stead Street	FRANKLIN	ACT	2913	149.1479876	-35.2021339	Apartment	2746	Canberry Properties	Bob Zhuang	1	1	1	6.0	
52159	residential	Not an everyday opportunity	Auction 03/02/22	2022-01-06T10:50:19.500160+11:00	2022-01-10T18:46:43.622340+11:00	48 Mortlock Circuit	KALEEN	ACT	2617	149.0940188	-35.2328652	House	232	Ray White Canberra	Jake Battenally	3	2	1	1.5	703.0
52160	residential	Move in and enjoy or rent out and reap the rewards	$360,000+	2022-01-06T10:56:16.939196+11:00	2022-01-10T15:47:16.495066+11:00	13/21 Christina Stead Street	FRANKLIN	ACT	2913	149.1479876	-35.2021339	Apartment	232	Ray White Canberra	Jake Battenally	1	1	1	5.0	
52164	residential	Renovated townhouse with alfresco entertaining space	Auction 28/01/2022	2022-01-06T11:22:07.206594+11:00	2022-01-12T12:31:43.651996+11:00	31/70 Bourne Street	COOK	ACT	2614	149.069707	-35.2595327	Townhouse	232	Ray White Canberra	Phyllis Tidmarsh	3	1	1	5.0	0.0
52167	residential	Single level Marvel in Florey	AUCTION On-site 23/01/2022	2022-01-06T12:01:20.859693+11:00	2022-01-06T12:02:22.812765+11:00	17 Cuscaden Crescent	FLOREY	ACT	2615	149.048379	-35.2281353	House	2880	Confidence Real Estate	Anish Sebastian	3	1	2	1.0	
52169	residential	Fantastic Family Home	Auction 29/01/2022	2022-01-06T11:50:21.290050+11:00	2022-01-11T11:16:54.764836+11:00	6 Crane Place	FARRER	ACT	2607	149.1073374	-35.3754938	House	232	Ray White Canberra	Nathan Wood	4	2	1	0.5	974.0
52170	residential	Inner-City Lifestyle or Fantastic Investment - Seize the Opportunity	Offers over $549,000	2022-01-06T11:59:14.093910+11:00	2022-01-10T09:16:35.429327+11:00	406/16 Moore Street	CITY	ACT	2601	149.1286187	-35.275924	House	232	Ray White Canberra	Treston Bamber	2	2	1	5.5	
52171	residential	Luxurious Lifestyle, Unbeatable Convenience, Priceless Views!	Offers Over $539,000	2022-01-06T12:25:20.690421+11:00	2022-01-10T13:16:29.467215+11:00	1323/240 Bunda Street	CITY	ACT	2601	149.134405	-35.2816321	House	232	Ray White Canberra	Treston Bamber	1	1	1	6.0	
52173	residential	Stunning family home in Taylor	$ 799,999 +	2022-01-06T12:46:19.437288+11:00	2022-01-10T13:54:47.571561+11:00	20 Mccredie Street	TAYLOR	ACT	2913	149.1015591	-35.1512032	House	2880	Confidence Real Estate	Pawandeep Singh Chadha	3	2	2	6.0	0.0
52176	residential	Amenities right at your doorstep	$460,000+	2022-01-06T12:59:08.505240+11:00	2022-01-09T16:01:33.953413+11:00	1/50 Hillcrest Street	CRACE	ACT	2911	149.1071804	-35.2033008	Townhouse	233	LJ Hooker Gungahlin	Troy Thompson	2	2	2	6.0	
52177	residential	Fab location and fresh design make for edgy appeal 	Auction 28/01/2022	2022-01-06T12:55:05.101201+11:00	2022-01-09T20:31:36.013138+11:00	6 Biraban Place	MACQUARIE	ACT	2614	0.0	0.0	House	232	Ray White Canberra	Phyllis Tidmarsh	3	1	1	3.5	868.0
52178	residential	Inviting family home on large block in sought-after location	Auction 28/01/2022	2022-01-06T12:55:06.104780+11:00	2022-01-09T20:31:33.719786+11:00	20 Nepean Place	MACQUARIE	ACT	2614	149.0548115	-35.2551713	House	232	Ray White Canberra	Phyllis Tidmarsh	4	2	3	1.5	1264.0
52179	residential	Captivating, convenient and no body corporate	Auction 29/01/2022	2022-01-06T13:11:18.337227+11:00	2022-01-09T21:16:31.592266+11:00	10 Dugdale Street	COOK	ACT	2614	149.0715106	-35.26045209999999	House	232	Ray White Canberra	Phyllis Tidmarsh	2	1	1	3.0	448.0
52180	residential	Start out or scale down in a super convenient location	Auction	2022-01-06T13:13:02.288461+11:00	2022-01-11T12:46:28.876206+11:00	14/19 Ashby Circuit	KAMBAH	ACT	2902	149.0672823	-35.3961288	Townhouse	2801	Solely Properties	Andrew Thorpe	2	1	1	2.0	
52185	residential	Construction Marvel in an Established Street 	$ 1,700,000 +	2022-01-06T14:23:47.099368+11:00	2022-01-07T15:31:22.673077+11:00	28 Vellacott Street	DENMAN PROSPECT	ACT	2611	149.024352	-35.3079669	House	2880	Confidence Real Estate	Anish Sebastian	5	3	2	6.0	478.0
52186	residential	Entry level buying	Auction	2022-01-06T14:39:09.544196+11:00	2022-01-10T16:31:46.415960+11:00	6 Madigan Street	HACKETT	ACT	2602	149.1601386	-35.2450424	DuplexSemi-detached	232	Ray White Canberra	Chris Dixon	3	1	0	1.5	552.25
52199	residential	Views, reserve access, three living spaces and much, much more	Auction	2022-01-06T16:40:10.534325+11:00	2022-01-12T11:01:40.118462+11:00	230 Bicentennial Drive	JERRABOMBERRA	NSW	2619	149.2038841	-35.3972051	House	232	Ray White Canberra	Chris Dixon	5	4	2		974.8
52200	residential	Single level, Modern Living	$999,000 +	2022-01-06T16:56:10.342817+11:00	2022-01-10T14:16:31.671284+11:00	3/21 Bernacchi Street	MAWSON	ACT	2607	149.0968438	-35.3619031	Townhouse	413	Luton Tuggeranong	Gabbi Kalthofen	3	2	2	4.5	
52203	residential	Blue Chip Potential!	Auction on 5/2 @ Noon	2022-01-06T18:35:13.094974+11:00	2022-01-10T10:01:44.796376+11:00	75 Lowanna Street	BRADDON	ACT	2612	149.1334087	-35.2624149	DuplexSemi-detached	433	Maloney's Property	Moira Maloney	3	1	0	1.5	428.0
52204	residential	Thought you couldnt afford to buy in Ainslie? Well think again!	Auction to 5/2 @ 10.00am	2022-01-06T18:36:29.369613+11:00	2022-01-13T05:31:25.308414+11:00	5 Salomons Place	AINSLIE	ACT	2602	149.1547832	-35.2510739	DuplexSemi-detached	433	Maloney's Property	Moira Maloney	2	1	1	5.5	
52206	residential	The Perfect Family Home 	Offers above $979,000	2022-01-06T21:30:07.990753+11:00	2022-01-10T13:46:38.826245+11:00	8 Nicholls Place	HIGGINS	ACT	2615	149.0241762	-35.2291362	House	702	Town Residential	Mohammed Islam	5	3	2	1.5	1155.0
52235	residential	FAMILY FRIENDLY HOME WITH THE IDEAL POSITION	$895,000	2022-01-10T08:54:37.780197+11:00	2022-01-10T13:46:29.578765+11:00	6 Doughty Place	GILMORE	ACT	2905	149.1386888	-35.4223453	House	1099	The Real Estate Shop	Natalie Roberts	3	2	4	5.0	1103.0
52237	residential	Spacious Family Living and Entertaining	Auction 03/02/2022	2022-01-10T09:31:26.057023+11:00	2022-01-10T09:32:05.495665+11:00	15 Degraves Crescent	WANNIASSA	ACT	2903	149.0776977	-35.3985612	House	232	Ray White Canberra	Cameron Whitnall	4	2	1	1.0	938.0
52238	residential	Spacious Family Home with Breath-taking Views	Auction 05/02/2022	2022-01-10T09:28:15.674093+11:00	2022-01-10T09:46:56.356948+11:00	35 Willoughby Crescent	GILMORE	ACT	2905	149.1355937	-35.4103444	House	232	Ray White Canberra	Cameron Whitnall	5	2	2	2.5	776.0
52240	residential	Stylish and Modern Living and Entertaining	Auction 05/02/2022	2022-01-10T09:46:56.831370+11:00	2022-01-10T09:48:00.931629+11:00	24A Hovea Street	O'CONNOR	ACT	2602	149.1244026	-35.2569203	DuplexSemi-detached	232	Ray White Canberra	Cameron Whitnall	3	2	2	0.0	780.0
52246	residential	Architecturally Designed for family living.	Auction- Onsite	2022-01-10T12:01:21.950676+11:00	2022-01-10T12:02:07.885071+11:00	17 Forest Drive	JERRABOMBERRA	NSW	2619	149.2003161	-35.3913706	House	623	Ray White Queanbeyan | Jerrabomberra	Brad O'Mara	4	2	2		930.0
52250	land	Dream Home Potential	$570,000	2022-01-10T12:35:31.966513+11:00	2022-01-14T11:46:24.513315+11:00	Lot: 860 Lanham Street	GOOGONG	NSW	2620	149.2359484	-35.4221969	Land	516	LJ Hooker Queanbeyan – Jerrabomberra – Googong	Jon Stumbles	0	0	0		538.0
52253	residential	What a beautiful opportunity!!!! 	$ 805,000 +	2022-01-10T14:23:49.637491+11:00	2022-01-14T13:31:30.375704+11:00	18 Mccredie Street	TAYLOR	ACT	2913	149.1034373	-35.1511599	House	2880	Confidence Real Estate	Rahul Kumar	3	2	2	6.0	
52286	residential	Open Plan Living with So Much to Offer	AUCTION	2022-01-11T11:20:36.764107+11:00	2022-01-11T12:46:32.976066+11:00	66 Woralul Street	WARAMANGA	ACT	2611	149.0606615	-35.3482233	House	34	McIntyre Property	Maya Rourke	4	1	2	0.5	693.0
52288	residential	Impressive top floor apartment backing reserve - Karelia Park	$499,000 +	2022-01-11T12:26:41.456059+11:00	2022-01-13T06:46:30.606805+11:00	43/25 Aspinall Street	WATSON	ACT	2602	149.1571266	-35.229626	Apartment	410	McGrath Canberra	Justin Taylor	2	2	2	4.5	
52297	residential	Privacy and tranquility in the Foreshore precinct	Offers Over $499,000	2022-01-11T14:05:07.363435+11:00	2022-01-17T10:01:27.493177+11:00	5/71 Giles Street	KINGSTON	ACT	2604	149.1456506	-35.3129704	Apartment	412	Luton Manuka	Kate Yates	1	1	1	6.0	
52299	residential	Presenting Instant Appeal and Excellent Future Promise	Auction 05/02/2022	2022-01-11T14:13:10.747290+11:00	2022-01-17T11:43:51.776159+11:00	83/25 Pinkerton Circuit	KAMBAH	ACT	2902	149.0664596	-35.3980718	Townhouse	232	Ray White Canberra	Cameron Whitnall	3	2	2	3.5	0.0
52304	residential	Luxury Living in prestigious city precinct	$749,000 +	2022-01-11T14:38:12.843267+11:00	2022-01-17T10:46:26.310004+11:00	310/2 Batman Street	BRADDON	ACT	2612	149.1356385	-35.2781547	Apartment	413	Luton Tuggeranong	Gabbi Kalthofen	2	2	2	6.0	
52306	residential	MAKE ME ALL YOURS!	AUCTION	2022-01-11T14:49:40.827804+11:00	2022-01-11T17:01:29.601739+11:00	39 Karrugang Circuit	NGUNNAWAL	ACT	2913	149.1010021	-35.1697473	DuplexSemi-detached	34	McIntyre Property	Colin Blunden	3	1	1	3.5	
52307	residential	Architectural Masterpiece with Open Living Spaces	Online Auction - 30/01/2021 at 10:45am	2022-01-11T14:46:29.810938+11:00	2022-01-11T19:01:30.166105+11:00	38 Ben Blakeney Street	BONNER	ACT	2914	149.1393617	-35.1586595	House	2862	Stone Gungahlin	Jess Smith	4	2	2	4.5	450.0
52312	residential	The Most Practical and Affordable Family Home with Many Features in Gowrie! 	Auction	2022-01-11T15:33:19.519102+11:00	2022-01-17T11:01:26.217105+11:00	106 Bugden Avenue	GOWRIE	ACT	2904	149.1122257	-35.4149115	House	413	Luton Tuggeranong	Mina Etminan	3	2	2	2.0	846.0
52314	residential	Convenient and Easy-Care City Fringe Living	Auction 05/02/2022	2022-01-11T15:32:09.573058+11:00	2022-01-17T11:43:35.403896+11:00	24B Hovea Street	O'CONNOR	ACT	2602	149.1244126	-35.2569217	DuplexSemi-detached	232	Ray White Canberra	Cameron Whitnall	2	1	2	1.0	780.0
52326	residential	Townhouse with utmost Convenience and Location! 	By Negotiation	2022-01-12T00:33:12.039431+11:00	2022-01-18T12:32:20.333321+11:00	6/12 Dulcie Holland Crescent	MONCRIEFF	ACT	2914	149.1137089	-35.1556083	House	1534	New Door Properties	Yash Sethi	2	2	1	6.0	120.0
52327	residential	Spacious apartment living; vacant and ready to move in	Auction, Sat 5th Feb at 2:30pm	2022-01-12T09:20:07.953568+11:00	2022-01-17T11:31:33.917506+11:00	56/112 Baldwin Drive	KALEEN	ACT	2617	149.1010536	-35.222414	Apartment	233	LJ Hooker Gungahlin	Troy Thompson	3	2	1	2.5	
52337	residential	Perfect blend of luxury and comfort. 	$ 1,100,000 - $ 1,200,000	2022-01-12T11:22:37.931279+11:00	2022-01-13T13:16:33.765871+11:00	27 Bonarba Link	GOOGONG	NSW	2620	149.2355857	-35.41670180000001	House	2880	Confidence Real Estate	Anish Sebastian	4	2	2	6.0	
52338	residential	Incredible opportunity in Isabella Plains	By Negotiation	2022-01-12T11:21:12.572430+11:00	2022-01-17T13:31:31.286267+11:00	1 Firbank Close	ISABELLA PLAINS	ACT	2905	149.097651	-35.4318	House	413	Luton Tuggeranong	Gabbi Kalthofen	4	2	2	4.0	925.0
52342	residential	An Excellent Opportunity!	AUCTION ONSITE	2022-01-12T12:05:52.848421+11:00	2022-01-17T13:01:27.881526+11:00	35 Scantlebury Crescent	THEODORE	ACT	2905	149.1265779	-35.4430749	House	410	McGrath Canberra	Natalie Kokic Schmidt	4	1	2	4.5	783.0
52343	residential	A Backyard Bliss with Mountain Views!	Auction	2022-01-12T12:03:08.857958+11:00	2022-01-18T08:31:28.381466+11:00	17 Osburn Drive	MACGREGOR	ACT	2615	149.0222043	-35.2113772	House	437	LJ Hooker Belconnen	Sharon Schnyder	3	1	0	1.5	795.0
52344	residential	The Complete Package 	Auction	2022-01-12T12:03:07.913239+11:00	2022-01-18T11:31:51.480111+11:00	19 Goddard Crescent	HOLT	ACT	2615	149.0276811	-35.2231165	Townhouse	437	LJ Hooker Belconnen	George Vlandis	2	1	1	1.0	
52346	residential	Comfort, Convenience & Perfect for Entertaining 	Auction Onsite	2022-01-12T12:16:31.761171+11:00	2022-01-18T09:16:26.498865+11:00	18 Tarrant Crescent	DUNLOP	ACT	2615	149.0255879	-35.1956535	House	410	McGrath Canberra	Jason Anasson	3	2	2	3.0	450.0
52349	residential	Affordable Entry Into Page	Auction 03/02/2022	2022-01-12T12:54:18.950440+11:00	2022-01-17T11:01:55.219395+11:00	33 Krichauff Street	PAGE	ACT	2614	149.0546097	-35.2394483	House	232	Ray White Canberra	Jake Crooks	3	1	1	2.0	
52352	residential	Stunning vista, great location and amenity!	Offers over $349,000	2022-01-12T14:28:08.455592+11:00	2022-01-12T15:01:28.822697+11:00	255/325 Anketell Street	GREENWAY	ACT	2900	149.0725965	-35.4215659	Apartment	412	Luton Manuka	Kate Yates	1	1	1	6.0	
52355	residential	Home is Holder	Auction	2022-01-12T15:45:12.781828+11:00	2022-01-17T15:16:29.812525+11:00	84 Dixon Drive	HOLDER	ACT	2611	149.0397282	-35.3334577	House	273	Luton Dickson	Jane Ahern	4	2	1	4.0	780.0
52362	residential	Modern Convenience	Auction	2022-01-13T07:09:21.000111+11:00	2022-01-19T11:31:36.029783+11:00	32/58 Max Jacobs Avenue	WRIGHT	ACT	2611	149.0386637	-35.32218990000001	Apartment	414	Luton Weston Creek & Molonglo Valley	Tim and Justine Burke	3	3	2	6.0	
52363	residential	Classic Willemsen architect designed townhouse	Auction	2022-01-13T07:53:17.632136+11:00	2022-01-17T12:46:28.911212+11:00	2 Burara Crescent	WARAMANGA	ACT	2611	149.0596388	-35.3520719	Townhouse	414	Luton Weston Creek & Molonglo Valley	Luke Metcalfe	3	2	2	1.0	
52364	residential	Potential aplenty!	Auction	2022-01-13T08:04:12.745695+11:00	2022-01-17T12:01:29.678438+11:00	75 Nangor Street	WARAMANGA	ACT	2611	149.0608857	-35.3563141	House	414	Luton Weston Creek & Molonglo Valley	Tim and Justine Burke	4	2	2	1.0	905.0
52365	residential	Top floor, Northern corner apartment.	$649,000+	2022-01-13T08:16:05.933168+11:00	2022-01-18T13:46:24.816404+11:00	96/29 Dawes Street	KINGSTON	ACT	2604	149.143556	-35.3171339	Apartment	1155	PURNELL	Nick Purnell	2	2	2	6.0	
52366	residential	Excellent entry level opportunity in a super convenient location	Auction	2022-01-13T08:04:12.885281+11:00	2022-01-17T12:01:25.643325+11:00	2/131 Port Jackson Circuit	PHILLIP	ACT	2606	149.0943165	-35.3461548	Townhouse	414	Luton Weston Creek & Molonglo Valley	Tim and Justine Burke	2	1	1	6.0	
52367	residential	A tightly held gem	Auction Wednesday 2nd February at 6pm	2022-01-13T08:48:09.970748+11:00	2022-01-15T12:31:33.164181+11:00	3/72 Tenison Woods Circuit	BONYTHON	ACT	2905	149.0745587	-35.4260049	Townhouse	684	McCann Properties	Mark McCann	3	2	1	4.5	0.0
52369	residential	First class renovation proposition or prime building site	Auction	2022-01-13T09:32:27.570488+11:00	2022-01-17T09:16:32.104323+11:00	42 Hawker Street	TORRENS	ACT	2607	149.0819571	-35.3708817	House	414	Luton Weston Creek & Molonglo Valley	Luke Metcalfe	4	3	2	1.5	1009.0
52371	residential	Location location!	AUCTION	2022-01-13T09:43:35.971182+11:00	2022-01-18T11:01:31.496301+11:00	27 Bullock Circuit	KAMBAH	ACT	2902	149.0488048	-35.3849776	House	34	McIntyre Property	Terry Cooper	3	1	2	1.0	755.0
52372	residential	What you're looking for	Auction 04/02/22	2022-01-13T09:40:17.168508+11:00	2022-01-18T09:47:19.232671+11:00	3 Goessling Place	FLYNN	ACT	2615	149.045824	-35.2053151	House	232	Ray White Canberra	Jake Battenally	3	1	2	1.5	740.0
52376	residential	One of Forde's finest	Auction 5th February 2022, 11:15am	2022-01-13T09:55:09.322667+11:00	2022-01-15T15:16:28.744148+11:00	43 Hurrell Street	FORDE	ACT	2914	149.1449242	-35.1693623	House	410	McGrath Canberra	Matt Harmer	4	2	2	4.0	
52377	residential	Estate-Style Waterfront Serenity	Auction - Saturday February 5th, on site at 10am	2022-01-13T09:49:10.330386+11:00	2022-01-18T13:46:43.833223+11:00	19 Thorpe Avenue	QUEANBEYAN	NSW	2620	149.2388291	-35.3602064	House	443	LJ Hooker Manuka	Stephen Thompson	4	2	2		
52380	residential	Timeless Style, Beautiful Gardens, Premium Location	Auction 05/02/22	2022-01-13T10:06:19.432712+11:00	2022-01-17T12:16:57.754616+11:00	31 Bambridge Street	WEETANGERA	ACT	2614	149.0543856	-35.2461409	House	232	Ray White Canberra	Treston Bamber	4	2	3	0.0	719.0
52383	residential	Cosy and Classy in Sought-After Locale	Auction Saturday February 5th, on site at 11:30am	2022-01-13T10:19:16.778426+11:00	2022-01-18T13:46:37.626883+11:00	4 Strzelecki Crescent	NARRABUNDAH	ACT	2604	149.1448793	-35.3282392	House	443	LJ Hooker Manuka	Stephen Thompson	3	1	3	1.0	668.0
52385	residential	Family Entertainer in Blue-Chip Locale	Auction 05/02/22	2022-01-13T10:25:13.905778+11:00	2022-01-17T12:31:45.478481+11:00	5 McKeahnie Street	WEETANGERA	ACT	2614	149.0473032	-35.2557084	House	232	Ray White Canberra	Treston Bamber	4	2	2	0.5	1411.0
52388	residential	AUCTION 5th FEBRUARY at 10:30AM	AUCTION 5th FEBRUARY at 10:30am	2022-01-13T10:38:42.821099+11:00	2022-01-18T11:16:27.517382+11:00	14 Murchison Street	KALEEN	ACT	2617	149.1093555	-35.2193589	House	410	McGrath Canberra	Kris Hellier	4	2	1	2.5	
52389	residential	Friendly for the family, or for those whose nests are empty!	Auction 05/02/2022	2022-01-13T10:39:11.036615+11:00	2022-01-17T23:16:24.626132+11:00	1/68 Twelvetrees Crescent	FLOREY	ACT	2615	149.0563463	-35.2223208	House	232	Ray White Canberra	Gerard Northey	3	1	1	2.0	
52390	residential	Low-Maintenance Living | Easy Lifestyle	Auction 04/02/2022	2022-01-13T10:45:16.652818+11:00	2022-01-18T10:31:24.467187+11:00	17/46 Catchpole Street	MACQUARIE	ACT	2614	149.0660591	-35.2485903	House	232	Ray White Canberra	Gerard Northey	2	1	1	3.0	
52392	residential	Single Level Residence | Perfect for Downsizers & Young Families!	Auction 05/02/2022	2022-01-13T10:49:17.843773+11:00	2022-01-19T09:16:29.106985+11:00	3 Macvitie Place	MACQUARIE	ACT	2614	149.068731	-35.2544645	House	232	Ray White Canberra	Gerard Northey	3	1	1	4.5	
52394	residential	Completion for Oaks Crown anticipated Q1 2023	$405,000	2022-01-13T11:16:09.003121+11:00	2022-01-13T11:17:11.346156+11:00	115/11 Irving Street	PHILLIP	ACT	2606	149.0856906	-35.3383004	Apartment	695	Independent Projects	Mark Wolens	1	1	1	6.0	0.0
52396	residential	Convenience and quality with space for the whole family!	Auction 05/02/2022	2022-01-13T11:08:14.055256+11:00	2022-01-17T16:01:42.267851+11:00	45 Mapleton Avenue	HARRISON	ACT	2914	149.1571925	-35.1950794	House	232	Ray White Canberra	Gerard Northey	4	2	2	6.0	255.2
52401	residential	Fall in Love with This Beautiful Family Home	Auction Saturday February 12th, on site at 9:30am	2022-01-13T12:05:18.906901+11:00	2022-01-13T16:31:52.113523+11:00	38 Fitzhardinge Crescent	EVATT	ACT	2617	149.0669826	-35.2170007	House	443	LJ Hooker Manuka	Samuel Thompson	4	2	2	1.5	
52402	residential	Comfy and Cozy	Auction 03/02/2022	2022-01-13T12:14:12.521278+11:00	2022-01-18T16:31:31.282913+11:00	39/7 Medley Street	CHIFLEY	ACT	2606	149.084582	-35.3534073	Apartment	232	Ray White Canberra	Alec Brown	2	1	1	3.5	
52403	residential	Irresistibly appealing	Auction 04/02/2022	2022-01-13T12:13:18.361035+11:00	2022-01-18T16:31:52.945794+11:00	3 Birdwood Street	HUGHES	ACT	2605	149.0951399	-35.3297286	House	232	Ray White Canberra	Alec Brown	3	1	2	1.0	781.0
52404	residential	Modern home in an ideal locale 	AUCTION ONSITE	2022-01-13T12:28:39.169514+11:00	2022-01-13T20:16:25.648249+11:00	40 Honyong Crescent	NGUNNAWAL	ACT	2913	149.1128536	-35.1632128	House	410	McGrath Canberra	Natalie Kokic Schmidt	3	1	1	3.5	376.0
52405	residential	A most desirable rural holding on Old Cooma Road. 	By Negotiation	2022-01-13T12:28:15.529032+11:00	2022-01-17T13:16:34.994016+11:00	1616 Old Cooma Road	ROYALLA	NSW	2620	149.175486	-35.473779	House	413	Luton Tuggeranong	Rex Purcell	5	3	10		9.62
52406	residential	Move in and enjoy	Auction 05/02/2022	2022-01-13T12:18:15.746163+11:00	2022-01-19T12:46:47.000849+11:00	26 Max Henry Crescent	MACARTHUR	ACT	2904	149.1273852	-35.4067479	House	232	Ray White Canberra	Alec Brown	3	1	3	3.5	790.0
52407	residential	Reward the family	Auction 05/02/2022	2022-01-13T12:23:11.636643+11:00	2022-01-18T16:16:45.537228+11:00	23 Galbraith Close	BANKS	ACT	2906	149.1038394	-35.4734187	House	232	Ray White Canberra	Alec Brown	4	2	2	4.5	902.0
52408	residential	Find yourself on Fitchett	Auction 28/01/2022	2022-01-13T12:23:10.751848+11:00	2022-01-18T16:31:44.834757+11:00	62 Fitchett Street	GARRAN	ACT	2605	149.0996241	-35.3407719	House	232	Ray White Canberra	Alec Brown	4	2	2	0.5	741.0
52409	residential	A charming & comfortable home in the golf course estate	Auction 03/02/2022	2022-01-13T13:16:10.913737+11:00	2022-01-17T22:31:36.283056+11:00	2/74 Britten-Jones Drive	HOLT	ACT	2615	149.0019204	-35.22375630000001	House	232	Ray White Canberra	Gerard Northey	3	2	1	3.5	
52410	residential	Single Level, Easy Care Townhouse	Auction 03/02/22	2022-01-13T13:06:07.742724+11:00	2022-01-17T12:16:42.886789+11:00	1/3 Sexton Street	COOK	ACT	2614	149.0706272	-35.2560957	Townhouse	232	Ray White Canberra	Treston Bamber	2	1	1	2.0	
52414	residential	Call Page Home	Auction 04/02/2022	2022-01-13T13:35:15.778750+11:00	2022-01-15T13:16:33.797407+11:00	16 Newbery Crescent	PAGE	ACT	2614	149.0443	-35.2376219	House	232	Ray White Canberra	Nathan Wood	3	2	0	1.5	947.0
52415	residential	Brand New | Expansive 3 Bed With Park Views	$1,450,000	2022-01-13T14:11:27.113978+11:00	2022-01-13T14:11:27.264547+11:00	402/4 Anzac Park	CAMPBELL	ACT	2612	149.14246795	-35.28987659	Apartment	1597	JWLand	Dallas Harry	3	2	2	7.7	0.0
52416	residential	Move in & make it your own!	Auction 03/02/2022	2022-01-13T14:09:16.707950+11:00	2022-01-19T10:16:42.982230+11:00	38 Mortlock Circuit	KALEEN	ACT	2617	149.0933686	-35.2322739	House	232	Ray White Canberra	Sebastian Gutierrez	4	2	3	1.5	
52417	residential	on.nature's.doorstep 	$465,000+	2022-01-13T14:05:12.668830+11:00	2022-01-14T13:46:32.824446+11:00	48/35 Tay Street	WATSON	ACT	2602	149.1682535	-35.22486689999999	Unit	618	home.by holly	Jenny Michael And Mark McReynolds	2	1	1	6.0	
52421	residential	Spacious Immaculate Family Home	AUCTION On-Site on 29/01/2022	2022-01-13T14:57:26.080591+11:00	2022-01-18T10:48:29.234130+11:00	16 Bakewell Street	COOMBS	ACT	2611	149.0427013	-35.317134	House	2880	Confidence Real Estate	Anish Sebastian	4	2	2	3.0	
52423	residential	Woden Valley entry or an easy investment	$299,000+	2022-01-13T14:59:16.462693+11:00	2022-01-18T09:47:36.781937+11:00	7a/30 Glenorchy Street	LYONS	ACT	2606	149.0782262	-35.3391083	Unit	232	Ray White Canberra	Gerard Northey	2	1	1	4.5	
52426	residential	Why rent when you can buy?	Auction	2022-01-13T15:35:13.565384+11:00	2022-01-17T12:01:58.484700+11:00	8/3 Bonrook Street	HAWKER	ACT	2614	149.0422044	-35.2454955	Unit	437	LJ Hooker Belconnen	Kathy Komar	2	1	1	4.5	
52431	residential	Premium Location Waiting For The Premium Touch	Auction	2022-01-13T16:06:51.961289+11:00	2022-01-17T11:46:34.273177+11:00	105 Bandjalong Crescent	ARANDA	ACT	2614	149.0835937	-35.2580982	House	439	LJ Hooker Kaleen	Lukas Cole	4	2	6	0.5	966.0
52433	residential	Three beds plus studio potential in garden-wrapped townhouse	Auction 04/02/2022	2022-01-13T16:36:06.158609+11:00	2022-01-17T11:02:04.198687+11:00	2 Wardill Close	HOLT	ACT	2615	149.0261484	-35.2244713	Townhouse	232	Ray White Canberra	Andrew Lonsdale	3	1	2	1.5	418.0
52435	residential	Perfectly Located One Bedroom Unit	$199,000 - $229,000	2022-01-13T17:02:31.670799+11:00	2022-01-20T15:31:25.870811+11:00	6/38 Isabella Street	QUEANBEYAN	NSW	2620	149.2376843	-35.3553618	Unit	516	LJ Hooker Queanbeyan – Jerrabomberra – Googong	Jon Stumbles	1	1	1		
52436	residential	Queanbeyan's Best One Bed!	$399,000 - $419,000	2022-01-13T17:02:31.843690+11:00	2022-01-18T09:46:35.559553+11:00	7/15 Morisset Street	QUEANBEYAN	NSW	2620	149.2325853	-35.35215609999999	Unit	516	LJ Hooker Queanbeyan – Jerrabomberra – Googong	Tom Maloney	1	1	1		
52445	residential	Family home - great location	Auction	2022-01-14T06:48:20.338195+11:00	2022-01-20T10:16:19.384855+11:00	17 Meerup Street	AMAROO	ACT	2914	149.1344274	-35.171969	House	414	Luton Weston Creek & Molonglo Valley	Josh Wilson	4	2	2	3.0	631.0
52447	residential	Charm, comfort and convenience 	Auction	2022-01-14T08:05:18.145708+11:00	2022-01-17T12:01:29.875177+11:00	3 Alawa Street	WARAMANGA	ACT	2611	149.0664894	-35.3501043	House	414	Luton Weston Creek & Molonglo Valley	Tim and Justine Burke	3	1	2	4.5	661.0
52451	residential	Affordability Meets Value In Gowrie 	Auction	2022-01-14T09:44:21.308867+11:00	2022-01-17T16:01:29.723061+11:00	20 Currey Street	GOWRIE	ACT	2904	149.1052296	-35.4159583	House	413	Luton Tuggeranong	Michael Martin	4	2	3	2.0	
52452	residential	Architecturally designed family home with stunning views	Auction 03/02/2021	2022-01-14T09:56:20.462946+11:00	2022-01-18T23:16:44.590467+11:00	14 Deacon Close	CHISHOLM	ACT	2905	149.1297176	-35.4215186	House	232	Ray White Canberra	Kellie Chalker	5	2	3	0.5	861.0
52453	residential	Renovated Executive Home	AUCTION	2022-01-14T10:06:31.673049+11:00	2022-01-17T21:02:48.612468+11:00	10 Birdseye Lane	GUNGAHLIN	ACT	2912	149.1454962	-35.1834945	Terrace	2909	Ally Smith - Edge Real Estate	Ally Smith	4	2	2	6.0	241.0
52455	residential	Sunny, North facing, Courtyard apartment.	Auction 5/02/22	2022-01-14T10:14:13.543390+11:00	2022-01-20T10:16:19.291612+11:00	27/4 Tench Street	KINGSTON	ACT	2604	149.1396989	-35.3147879	Apartment	1155	PURNELL	Nick Purnell	2	1	1		
52461	residential	Easy Living @ Envy!	$425,000 Plus	2022-01-14T11:24:04.454285+11:00	2022-01-20T11:16:43.487717+11:00	42/35 Torrens Street	BRADDON	ACT	2612	149.1339116	-35.2719013	Apartment	433	Maloney's Property	Moira Maloney	1	1	1	6.0	
52462	residential	A bush retreat lifestyle	Auction	2022-01-14T11:43:34.783844+11:00	2022-01-18T15:31:28.640001+11:00	54 Bingley Crescent	FRASER	ACT	2615	149.0552821	-35.1928756	House	1072	Independent Gungahlin	Andrew Potts	4	2	2	4.0	
52463	residential	DKSN - Unit 505 - 2 Bedroom Apartment	$654,900	2022-01-14T12:01:24.615009+11:00	2022-01-17T09:21:28.137941+11:00	505/480 Northbourne Aveune	DICKSON	ACT	2602	149.134719	-35.2508444	Apartment	695	Independent Projects	Independent Projects	2	2	1	6.0	0.0
52467	residential	Single Level . Low Maintenance . High-End Luxury	Auction	2022-01-14T12:29:15.469197+11:00	2022-01-17T16:01:32.053658+11:00	1/19 May Maxwell Crescent	GILMORE	ACT	2905	149.135353	-35.416023	Townhouse	413	Luton Tuggeranong	Michael Martin	3	2	3	2.0	
52472	land	Blank Canvas Ready to Build On	$ 929,000 +	2022-01-14T13:31:21.806234+11:00	2022-01-14T13:31:26.134730+11:00	41 Freebury Street	DENMAN PROSPECT	ACT	2611	149.0216897	-35.3011498	Land	2880	Confidence Real Estate	Anish Sebastian	0	0	0		583.0
52474	residential	Wattle Your Next Investment Be?	295,000+	2022-01-14T13:20:06.896360+11:00	2022-01-17T10:01:39.649117+11:00	7B/62 Wattle Street	LYNEHAM	ACT	2602	149.1267573	-35.2538257	Apartment	436	LJ Hooker Dickson	Andrew Browne	1	1	1	1.0	
52475	residential	The Start	$370,000 +	2022-01-14T13:40:10.635301+11:00	2022-01-17T14:31:32.914563+11:00	141/64 College Street	BELCONNEN	ACT	2617	149.0695944	-35.2427786	Apartment	2647	Timothy Road	Tim McInnes	1	1	1	6.0	
52482	residential	Canberra character and creative potential in this intact ex-govie	Auction 04/02/2022	2022-01-14T14:04:19.217551+11:00	2022-01-17T10:02:27.343223+11:00	9 Mollison Street	SCULLIN	ACT	2614	149.0410728	-35.2358166	House	232	Ray White Canberra	Andrew Lonsdale	3	1	1	1.0	643.0
52487	residential	A home in the sky with everything taken care of	Auction 04/02/2022	2022-01-14T15:15:16.118672+11:00	2022-01-17T10:16:50.042808+11:00	15/9 Jardine Street	KINGSTON	ACT	2604	149.1409035	-35.3137124	Unit	232	Ray White Canberra	Andrew Lonsdale	3	2	2	4.5	
52489	residential	malabar.magic.location 	$530,000+	2022-01-14T15:45:14.340638+11:00	2022-01-20T13:31:27.018853+11:00	410/6 Cape Street	DICKSON	ACT	2602	149.1370319	-35.2515734	Apartment	618	home.by holly	Jenny Michael And Mark McReynolds	2	2	1	6.0	
52493	residential	Grand Central Towers - Unit 1901	$918,900	2022-01-14T16:11:39.431080+11:00	2022-01-14T16:11:39.592234+11:00	1901/15 Bowes Street	PHILLIP	ACT	2606	149.0868669	-35.3441316	Apartment	694	GEOCON	Adam Morgan	3	2	2	5.0	0.0
52503	residential	Lifestyle, Location and Quality	EXPRESSIONS OF INTEREST BY 2 FEBRUARY AT 5PM	2022-01-14T18:32:05.715862+11:00	2022-01-19T17:01:36.779397+11:00	103/6 Provan Street	CAMPBELL	ACT	2612	149.1438714	-35.2887474	Apartment	631	Maria Selleck Properties	Maria Selleck	3	2	2	6.0	
52512	residential	Convenience is here	Auction Thursday 3rd February at 6pm	2022-01-17T10:53:11.558073+11:00	2022-01-18T11:16:30.182340+11:00	3/18 Horbury Street	PHILLIP	ACT	2606	149.0934058	-35.3514923	Townhouse	684	McCann Properties	Mark McCann	3	2	2	2.0	0.0
52524	residential	Lifestyle Location	$470,000+	2022-01-17T12:36:16.734605+11:00	2022-01-20T08:31:27.010819+11:00	516/1 Elouera Street	BRADDON	ACT	2612	149.1308463	-35.2728896	Apartment	232	Ray White Canberra	Gerard Northey	1	1	1	6.0	
52527	residential	First Home Buyer Opportunity 	AUCTION	2022-01-17T13:05:36.171782+11:00	2022-01-21T20:16:25.414683+11:00	3 Tom Place	CHARNWOOD	ACT	2615	149.039011	-35.1998554	House	34	McIntyre Property	Colin McIntyre	3	1	2	2.0	537.0
52545	residential	Spectacular Views All Year Round That Could be Yours!	AUCTION	2022-01-17T15:17:34.172802+11:00	2022-01-24T19:01:32.620243+11:00	25 Jackie Howe Crescent	MACARTHUR	ACT	2904	149.1251874	-35.4071742	House	34	McIntyre Property	Maya Rourke	3	2	2	2.5	1400.0
52555	residential	Presented in mint condition, Lucky # 20 apartment is a real surprise! 	$420,000+	2022-01-17T16:46:23.209922+11:00	2022-01-17T16:46:41.710232+11:00	20/30 Chinner Crescent	MELBA	ACT	2615	149.0491213	-35.210076	Apartment	273	Luton Dickson	Aniko and Peter Carey	2	1	1	2.5	
52556	residential	'To be, or not to be, that is the question!'	Auction	2022-01-17T16:44:05.621602+11:00	2022-01-20T10:46:20.104123+11:00	93 Shakespeare Crescent	FRASER	ACT	2615	149.0374423	-35.191216	House	436	LJ Hooker Dickson	Andrew Grenfell	3	1	2	1.0	1105.0
52558	residential	Updated Family Home for new Family to Improve their Lifestyle !	By Negotiation	2022-01-17T18:13:19.276689+11:00	2022-01-20T12:31:58.751509+11:00	30 Beattie Crescent	RICHARDSON	ACT	2905	149.1141093	-35.4204442	House	636	Impact Properties	Mandeep Singh	3	2	5	1.0	749.0
52562	residential	Stromlo Gardens	By Negotiation	2022-01-18T09:42:34.793254+11:00	2022-02-02T11:51:53.858683+11:00	10/5 Hyndes Crescent	HOLDER	ACT	2611	149.0453866	-35.3356096	Apartment	637	Hodgkinson Real Estate	Quinten Hodgkinson	4	1	1	3.00	0.00
52563	residential	This Family Home is a Hole in One!	Auction Sat, 12th of Feb at 10:00am	2022-01-18T09:38:25.712522+11:00	2022-01-24T10:32:08.507025+11:00	9 Phantom Street	HARRISON	ACT	2914	149.1621964	-35.1995694	House	233	LJ Hooker Gungahlin	Jake Bunday	4	2	2	5.0	519.0
52564	residential	Aspen Village - Unit 734	$366,900	2022-01-18T10:31:43.675015+11:00	2022-01-21T11:58:09.746510+11:00	734/26 Cynthea Teague Crescent	GREENWAY	ACT	2900	149.0735348243731	-35.421616902869175	Apartment	694	GEOCON	Adam Morgan	1	1	1	5.0	0.0
52566	residential	A Home Without Compromise	Auction 12/02/2022	2022-01-18T10:57:10.530071+11:00	2022-01-22T18:46:35.726599+11:00	26 Davis Street	WEETANGERA	ACT	2614	149.0446138	-35.2480768	House	232	Ray White Canberra	Sharon Peart	4	2	2	3.0	
52567	residential	Welcome home	Auction	2022-01-18T11:16:28.409690+11:00	2022-01-18T11:46:30.319153+11:00	51 Louisa Lawson Crescent	GILMORE	ACT	2905	149.1375225	-35.412052	House	412	Luton Manuka	Sophie Luton	3	1	1	4.0	764.0
52568	residential	Spacious, Light-filled Separate Title Home	Auction	2022-01-18T11:16:28.283978+11:00	2022-01-20T09:31:46.676095+11:00	11 Haystack Crescent	PALMERSTON	ACT	2913	149.1238884	-35.1906971	House	412	Luton Manuka	Sophie Luton	3	2	2	4.0	
52570	residential	Modern Bliss In The Greenway Terraces	Offers Over $715k	2022-01-18T11:31:59.602564+11:00	2022-01-18T11:47:26.874106+11:00	93/1 Rowland Rees Crescent	GREENWAY	ACT	2900	149.0665123	-35.4241254	Townhouse	2732	Upside	Catherine Halloran	3	2	2	6.0	0.0
52574	residential	You'll be laughing at Kookaburra Ridge!	Auction Sat, 12th Feb at 11:30am	2022-01-18T11:52:12.358282+11:00	2022-01-21T14:01:33.462142+11:00	10/4 Tauss Place	BRUCE	ACT	2617	149.0938332	-35.2383874	Townhouse	233	LJ Hooker Gungahlin	Olivia Fairweather	4	2	2	4.5	
52576	residential	Welcome to 136/8 Limburg Way Greenway!	$370,000+	2022-01-18T12:11:43.229289+11:00	2022-01-24T11:46:25.485723+11:00	136/8 Limburg Way	GREENWAY	ACT	2900	149.07187	-35.4195839	Apartment	34	McIntyre Property	Maya Rourke	1	1	1	6.0	9727.0
52601	residential	Beautiful Family Home or Investment in O'Connor	Auction	2022-01-18T12:46:21.778030+11:00	2022-01-18T12:46:57.257486+11:00	12 Quandong Street	O'CONNOR	ACT	2602	149.1148718	-35.25735	House	2394	Carter and Co Agents	Kostya Logvinov	5	2	2	1.5	729.0
52604	residential	Stunning Single-level Townhouse	Auction	2022-01-18T13:16:11.567810+11:00	2022-01-18T16:47:04.323635+11:00	5/25 Thurralilly Street	QUEANBEYAN EAST	NSW	2620	149.2418146	-35.3432427	Townhouse	623	Ray White Queanbeyan | Jerrabomberra	Nick Southwell	2	1	1		180.0
52607	residential	Seperate-title single level homes with high end inclusions available as split contracts	$925,000 - $999,000	2022-01-18T14:10:33.184651+11:00	2022-01-20T11:31:22.460672+11:00	15 Maggie Scott Terrace	WHITLAM	ACT	2611	149.0449171	-35.2724576	House	1072	Independent Gungahlin	Rahul Mehta	4	2	2	6.0	250.0
52610	residential	Modern Family Haven	Auction	2022-01-18T14:24:15.504988+11:00	2022-01-18T19:01:35.295943+11:00	3 Myulung Street	NGUNNAWAL	ACT	2913	149.1040913	-35.1584917	House	2042	Ray White Rural Canberra | Yass	George Southwell	3	2	1	5.5	352.79
52611	residential	Modern & Cosy Family Sanctuary 	Auction	2022-01-18T14:37:16.664423+11:00	2022-01-18T19:01:31.952564+11:00	6/4 Lawrenson Circuit	JACKA	ACT	2914	149.1295166	-35.1602249	Townhouse	2042	Ray White Rural Canberra | Yass	George Southwell	3	2	2	6.0	182.0
52616	residential	Delightful family home in a quiet family-friendly street	Online Auction 06/02/2022 at 12:15pm	2022-01-18T15:19:42.053320+11:00	2022-01-18T18:16:29.061264+11:00	3 Whittell Crescent	FLOREY	ACT	2615	149.0482445	-35.2213791	House	2862	Stone Gungahlin	Jess Smith	5	2	3	4.5	850.0
52618	residential	A Perfect Family Package of Space, Style and Comfort	Auction 12/02/2022	2022-01-18T15:25:14.613979+11:00	2022-01-24T13:32:14.393117+11:00	95 Beasley Street	TORRENS	ACT	2607	149.0860149	-35.371544	House	232	Ray White Canberra	Cameron Whitnall	3	1	1	0.5	864.0
52621	residential	Safe As Houses Investment Opportunity	$997,000+	2022-01-18T15:40:15.815439+11:00	2022-01-24T14:01:28.468162+11:00		AMAROO	ACT	2914	0.0	0.0	House	273	Luton Dickson	Melissa Martin-Smith	4	2	2	4.0	
52623	residential	The very best of convenient, contemporary family living	Auction 12/02/2022	2022-01-18T16:30:18.584501+11:00	2022-01-24T13:17:08.339511+11:00	183 Antill Street	DOWNER	ACT	2602	149.1519674	-35.2473686	House	232	Ray White Canberra	Cameron Whitnall	3	2	2	1.0	735.0
52626	residential	The Perfect Gem &#x2013; &#x201C;Quite Franklin&#x201D;	Auction 12/02/2022	2022-01-18T17:15:23.234561+11:00	2022-01-24T11:01:32.417678+11:00	26/56 Christina Stead Street	FRANKLIN	ACT	2913	149.1447236	-35.2027937	Townhouse	2429	One Agency Gamarra & Co	Bryan Gamarra	3	2	2	6.0	
52634	residential	Beautiful Double Storey Townhouse!	By Negotiation	2022-01-19T00:11:13.834801+11:00	2022-01-25T15:17:05.924536+11:00	23D Narrambla Terrace	LAWSON	ACT	2617	149.087157	-35.2285698	Townhouse	1534	New Door Properties	Abhi Parashar	3	3	2	6.0	2173.0
52635	residential	Elegance blended with charm with an unrivalled outlook!	Auction	2022-01-19T07:21:10.558780+11:00	2022-01-24T10:16:47.689673+11:00	9 Rosella Street	NICHOLLS	ACT	2913	149.1124948	-35.1892727	House	1190	Blackshaw Gungahlin	Thom Eriksson-Lake	3	2	2	4.0	433.0
52637	residential	Modern Elegance, Two Story Family Home | Buyers Guide = $1,175,000	Auction	2022-01-19T08:33:06.654538+11:00	2022-01-25T11:46:49.162127+11:00	2 Biddlecombe St	PEARCE	ACT	2607	149.0859449	-35.3584582	House	2042	Ray White Rural Canberra | Yass	George Southwell	3	2	2	6.0	475.7
52638	residential	Prime positioning with unlimited opportunities	Auction 10/02/2022	2022-01-19T09:01:18.620800+11:00	2022-01-19T09:01:45.191645+11:00	3 Goulburn Street	MACQUARIE	ACT	2614	149.0622305	-35.2532883	House	1087	Civium Property Group - Residential	Josh Finnigan	3	1	0	2.0	680.0
52639	residential	Tick all the boxes	Auction Saturday 5th February at 10am	2022-01-19T08:54:12.047700+11:00	2022-01-25T09:01:39.299200+11:00	4 Gair Place	WANNIASSA	ACT	2903	149.0808362	-35.4006893	House	684	McCann Properties	Mark McCann	3	1	2	0.0	885.0
52640	residential	Tri-level home with views	Auction Wednesday 9th February at 6pm	2022-01-19T08:54:12.187842+11:00	2022-01-25T09:01:52.828529+11:00	11 Holden Crescent	WANNIASSA	ACT	2903	149.0912835	-35.3958901	House	684	McCann Properties	Mark McCann	4	2	2	2.0	991.0
52646	residential	AUCTION 12th FEBRUARY at 12:00pm	AUCTION 12th FEBRUARY at 12:00pm	2022-01-19T09:49:33.686548+11:00	2022-01-24T12:31:29.420714+11:00	64 Tiptree Crescent	PALMERSTON	ACT	2913	149.1175851	-35.1949625	House	410	McGrath Canberra	Kris Hellier	4	2	2	3.0	
52647	residential	A Weston Creek Opportunity Not to be Missed	Auction - 12th February 2022	2022-01-19T09:54:36.897355+11:00	2022-01-24T11:01:32.006769+11:00	31 Kallara Close	DUFFY	ACT	2611	149.0389214	-35.3418	House	599	Cream Residential	Chris Wilson	3	2	4	2.0	943.0
52648	residential	Nothing left to do, updated townhouse in reputable complex and superb location.	Auction - 12th February 2022	2022-01-19T09:53:26.134513+11:00	2022-01-24T16:16:31.759034+11:00	11/86 Mawson Drive	MAWSON	ACT	2607	149.0974677	-35.3624656	Apartment	599	Cream Residential	Chris Wilson	2	1	1	4.5	
52649	residential	1 bedroom plus large study!!	$380,000+	2022-01-19T09:49:33.561772+11:00	2022-01-20T16:16:27.496528+11:00	24/4 Sapling Street	HARRISON	ACT	2914	149.1520997	-35.1925966	Apartment	410	McGrath Canberra	Matt Harmer	1	1	1	6.0	
52650	residential	Chillax in Isabella Plains	AUCTION	2022-01-19T10:00:43.796621+11:00	2022-01-22T16:16:32.044486+11:00	63 Hadleigh Circuit	ISABELLA PLAINS	ACT	2905	149.1028529	-35.4315266	House	34	McIntyre Property	Anne Farrell	3	2	1	2.5	750.0
52652	residential	Oasis	Auction	2022-01-19T10:11:08.140360+11:00	2022-01-25T16:46:37.385814+11:00	12/45 Dobbin Circuit	NICHOLLS	ACT	2913	149.0903327	-35.1846019	Townhouse	409	Luton Gungahlin	Nick Paine	4	2	2	4.5	
52653	residential	Often Sought but Rarely Found Fully-Renovated One Level Home	EXPRESSIONS OF INTEREST BY 9 FEBRUARY AT 5PM	2022-01-19T10:22:06.200088+11:00	2022-01-20T17:01:31.772828+11:00	20 Fernyhough Crescent	LYNEHAM	ACT	2602	149.1194299	-35.237999	House	631	Maria Selleck Properties	Maria Selleck	3	2	2	4.0	416.0
52655	residential	1 Bedroom Apartment	$380,000+	2022-01-19T10:51:05.721772+11:00	2022-01-25T14:46:26.064028+11:00	NUE Camilleri Way	GUNGAHLIN	ACT	2912	149.1357923	-35.1887584	Apartment	690	LJ Hooker Project Marketing	James Herbert	1	1	1	5.0	0.0
52657	residential	AUCTION 12th FEBRUARY at 9:45AM	AUCTION 12th FEBRUARY at 9:45AM	2022-01-19T11:07:02.439093+11:00	2022-01-24T09:46:44.033752+11:00	40 Henry Melville Crescent	GILMORE	ACT	2905	149.1399897	-35.4225574	House	410	McGrath Canberra	Kris Hellier	4	2	4	2.0	
52660	residential	When you wish upon a Star!	Forthcoming auction	2022-01-19T11:05:15.346348+11:00	2022-01-24T14:46:42.842824+11:00	9 Star Close	AMAROO	ACT	2914	149.1267349	-35.1670629	House	233	LJ Hooker Gungahlin	Jeff Shortland	4	2	2	4.0	487.0
52665	residential	3 Bedroom Apartment	$800,000+	2022-01-19T11:46:26.112520+11:00	2022-01-19T11:46:53.479893+11:00	NUE Camilleri Way	GUNGAHLIN	ACT	2912	149.1357923	-35.1887584	Apartment	690	LJ Hooker Project Marketing	James Herbert	3	2	2	5.0	
52667	residential	Exceptional presentation and Character 	$ 719,000 +	2022-01-19T11:59:40.732074+11:00	2022-01-25T17:46:27.731833+11:00	32/8 Ken Tribe Street	COOMBS	ACT	2611	149.0415376	-35.3171067	Townhouse	2880	Confidence Real Estate	Anish Sebastian	3	2	1	6.0	
52668	residential	Captivating Masterpiece	Online Auction 06/02/2022 at 11:30am	2022-01-19T12:10:59.439683+11:00	2022-01-19T17:01:41.779209+11:00	4 Bev Lawson Street	CASEY	ACT	2913	149.0892688	-35.17123309999999	House	2862	Stone Gungahlin	Jess Smith	4	2	2	5.5	646.0
52670	residential	A Golden Ticket To Waterfront Living	Auction	2022-01-19T12:12:09.423349+11:00	2022-01-24T09:16:30.426493+11:00	67 Mortimer Lewis Drive	GREENWAY	ACT	2900	149.071206	-35.4044995	House	413	Luton Tuggeranong	Michael Martin	4	2	2	2.0	341.0
52672	residential	Style and Comfort.	Auction	2022-01-19T12:23:14.609923+11:00	2022-01-19T15:31:30.007008+11:00	5 Amphlett Street	MONCRIEFF	ACT	2914	149.1113917	-35.1589552	House	409	Luton Gungahlin	Nick Paine	4	2	2	6.0	
52673	residential	Double Glazed, Ground Floor Gem.	$245,000+	2022-01-19T12:25:02.913660+11:00	2022-01-25T10:46:44.630820+11:00	2a/111 Knox Street	WATSON	ACT	2602	149.1560339	-35.2396208	Apartment	436	LJ Hooker Dickson	Andrew Grenfell	1	1	1	4.5	78.4
52675	residential	Spacious Apartment in the Heart of Woden	$395,000+	2022-01-19T12:38:13.622296+11:00	2022-01-24T13:31:51.400821+11:00	6/26 Chaseling Street	PHILLIP	ACT	2606	0.0	0.0	Apartment	232	Ray White Canberra	Cameron Whitnall	2	1	1	6.0	
52717	residential	Immaculate Family Home	AUCTION	2022-01-19T13:29:37.566067+11:00	2022-01-25T15:01:50.839254+11:00	22 Glencross Street	CHISHOLM	ACT	2905	149.1198052	-35.4144939	House	34	McIntyre Property	Colin McIntyre	4	2	2	3.5	685.0
52722	residential	Stop looking, youve found me!	$1,350,000+	2022-01-19T14:06:41.482153+11:00	2022-01-21T15:16:33.848676+11:00	71 McClelland Avenue	NICHOLLS	ACT	2913	149.0885931	-35.1802819	House	233	LJ Hooker Gungahlin	Jeff Shortland	4	2	2	5.5	745.0
52723	residential	Urban farm style living in O'Connor	Auction 12/02/2022	2022-01-19T14:14:16.913234+11:00	2022-01-25T13:46:55.053778+11:00	6 Hack Street	O'CONNOR	ACT	2602	149.114199	-35.2600731	House	232	Ray White Canberra	Maree Van Arkel	4	2	2	3.5	1407.69
52725	residential	You deserve the best opportunity! 	Auction	2022-01-19T14:31:21.884336+11:00	2022-01-19T14:31:41.772037+11:00	38 Falkiner Place	MACARTHUR	ACT	2904	149.1302559	-35.4093806	House	413	Luton Tuggeranong	Mina Etminan	3	1	2	2.5	1192.0
52728	residential	Change your Life with Easy-care Living!	$495,000	2022-01-19T14:20:20.827252+11:00	2022-01-25T16:32:06.578833+11:00	5/39 Benjamin Way	BELCONNEN	ACT	2617	149.0678111	-35.2393022	Unit	437	LJ Hooker Belconnen	Sharon Schnyder	2	1	1	6.0	
52730	residential	Modern Family Home with Desirable Location	Auction  05/02/2022 	2022-01-19T14:32:04.247608+11:00	2022-01-25T16:31:34.353082+11:00	11 John James Loop	MACGREGOR	ACT	2615	149.0054	-35.211904	House	2880	Confidence Real Estate	Anish Sebastian	4	2	2	3.0	
52731	residential	Kambah Keepsake!	Auction on 10/2 @ 12.30pm	2022-01-19T14:35:02.851192+11:00	2022-01-25T15:31:29.034590+11:00	21 Attiwell Circuit	KAMBAH	ACT	2902	149.0525926	-35.3772697	House	433	Maloney's Property	Moira Maloney	3	1	1	3.5	
52734	residential	Ground Level Apartment 	$230,000	2022-01-19T15:08:09.527103+11:00	2022-01-25T16:16:53.890058+11:00	1/10 Arthur Street	CRESTWOOD	NSW	2620	149.2166535	-35.3462102	Unit	623	Ray White Queanbeyan | Jerrabomberra	Nick Southwell	1	1	1		
52741	residential	Location & Opportunity	AUCTION	2022-01-19T16:04:17.438160+11:00	2022-01-25T15:01:28.022279+11:00	3 McCrae Street	GARRAN	ACT	2605	149.0976959	-35.342167	House	34	McIntyre Property	Colin McIntyre	3	1	2	0.0	879.0
52743	residential	Stunning opunlence set amongst an idyllic green background	Online Auction 06/02/2022 at 10:45am	2022-01-19T16:34:14.972101+11:00	2022-01-24T17:46:30.877608+11:00	1 Drummer Street	HARRISON	ACT	2914	149.1581585	-35.1992502	House	2862	Stone Gungahlin	Jess Smith	5	4	2	6.0	730.0
52744	residential	forever.home	Auction 11:30am Saturday 5 February 2022	2022-01-19T16:56:30.392662+11:00	2022-01-25T15:16:37.683362+11:00	46 Ballarat Street	FISHER	ACT	2611	149.0521443	-35.3641938	House	618	home.by holly	Bianca Way	4	2	1	2.5	853.0
52748	residential	Well located & low maintenance	Online Auction 06/02/2022 at 10:00am	2022-01-19T17:18:53.988066+11:00	2022-01-26T01:01:23.520653+11:00	7/39 Mornington Street	AMAROO	ACT	2914	149.13421	-35.1663189	Villa	2862	Stone Gungahlin	Jess Smith	3	2	2	5.0	
52749	residential	ELEVATED POSITION ON A 825sqm BLOCK	Auction 12th Feb @ 12pm on site	2022-01-19T17:29:56.080852+11:00	2022-01-21T12:16:39.512530+11:00	17 Gellibrand Street	CAMPBELL	ACT	2612	149.1608504	-35.2890616	House	433	Maloney's Property	Philip Kouvelis	4	1	2	1.0	825.0
52752	residential	Imagine the Possibilities	Auction	2022-01-19T18:48:10.549532+11:00	2022-01-21T09:46:32.421659+11:00	70 Burn Street	DOWNER	ACT	2602	149.1521468	-35.2464478	House	273	Luton Dickson	Melissa Martin-Smith	3	1	1	4.0	
52753	residential	1 Bedroom Apartment with Study	$439,900+	2022-01-19T21:53:45.469497+11:00	2022-01-20T17:31:29.125456+11:00	Marlu McMichael Terrace	DENMAN PROSPECT	ACT	2611	149.0307036	-35.2991173	Apartment	690	LJ Hooker Project Marketing	James Herbert	1	1	1	7.5	0.0
52757	residential	Neat, sweet and complete	Offers over $609,000	2022-01-20T08:34:40.286595+11:00	2022-01-24T13:16:29.186510+11:00	22/18 Cromwell Circuit	ISABELLA PLAINS	ACT	2905	149.087905	-35.4284798	Townhouse	513	One Agency Sandy Morris	Tahlia Davidson	3	1	2	4.5	279.0
52758	residential	Spacious, elevated and beautifully renovated	Auction	2022-01-20T08:34:40.422033+11:00	2022-01-25T11:01:39.310418+11:00	14 Purbrick Street	CHISHOLM	ACT	2905	149.1254117	-35.4223961	House	513	One Agency Sandy Morris	Sandy Morris	3	2	2	5.0	1332.0
52759	residential	One of a kind in Gleneagles Estate	Auction	2022-01-20T08:46:05.090164+11:00	2022-01-25T10:46:34.821833+11:00	30 Mt Vernon Drive	KAMBAH	ACT	2902	149.0356271	-35.388765	House	513	One Agency Sandy Morris	Sandy Morris	4	2	2	5.5	
52760	residential	inner.city.options	$275,000+	2022-01-20T08:42:24.649236+11:00	2022-01-26T14:46:32.341790+11:00	101/2 Akuna Street	CITY	ACT	2601	149.1325401	-35.2819387	Apartment	618	home.by holly	Sally Strang	1	1	0	6.0	
52761	residential	Make your mark	$790,000+	2022-01-20T09:29:43.626024+11:00	2022-01-25T11:01:29.564620+11:00	4 Hopwood Place	KAMBAH	ACT	2902	149.0523236	-35.3924275	House	513	One Agency Sandy Morris	Zac Morris	3	1	1	0.5	1003.0
52762	residential	Excellent investment opportunity	$300,000+	2022-01-20T09:40:43.685330+11:00	2022-01-20T12:16:26.239244+11:00	18/56 Cowlishaw Street	GREENWAY	ACT	2900	149.0654575	-35.4138473	Apartment	513	One Agency Sandy Morris	Sandy Morris	1	1	1	6.0	
52763	residential	Beautifully presented ground-floor gem!	$395,000+	2022-01-20T09:40:44.125515+11:00	2022-01-25T10:16:25.963319+11:00	142/8 Limburg Way	GREENWAY	ACT	2900	149.07187	-35.4195839	Apartment	513	One Agency Sandy Morris	Sandy Morris	2	1	1	4.0	
52764	residential	Great first home - ready to enjoy, with space to grow	Auction - Saturday February 12th, On site at 3:30p	2022-01-20T09:43:35.686122+11:00	2022-01-25T10:32:12.344372+11:00	8 Watkins Street	WANNIASSA	ACT	2903	149.0885035	-35.4051445	House	443	LJ Hooker Manuka	Samuel Thompson	3	1	1	3.5	
52765	residential	Wall to wall value	$300,000+	2022-01-20T09:40:43.869873+11:00	2022-01-20T11:01:23.043905+11:00	60/58 Cowlishaw Street	GREENWAY	ACT	2900	149.0656423	-35.4137539	Apartment	513	One Agency Sandy Morris	Sandy Morris	1	1	1	6.0	
52769	residential	Location. Light. Lifestyle.	Auction - Saturday February 12th, On site at 11:00	2022-01-20T09:52:10.352706+11:00	2022-01-25T10:46:47.714762+11:00	730/1 Elouera Street	BRADDON	ACT	2612	149.1308463	-35.2728896	Apartment	443	LJ Hooker Manuka	Samuel Thompson	2	2	2	5.5	
52771	land	AUCTION 9TH FEBRUARY at 6PM	AUCTION 9th FEBRUARY at 6PM	2022-01-20T10:12:31.654274+11:00	2022-01-27T16:01:52.588849+11:00	1 Mendoza Street	MONCRIEFF	ACT	2914	149.1222529	-35.155498	Land	410	McGrath Canberra	Kris Hellier	0	0	0	0.0	587.0
52772	residential	Light-filled apartment with 180 degree outlook within the Parliamentary Triangle 	Auction	2022-01-20T10:12:17.060097+11:00	2022-01-25T09:46:46.845612+11:00	14/11 Sydney Avenue	BARTON	ACT	2600	149.1323636	-35.3124781	Apartment	412	Luton Manuka	Sophie Luton	3	2	2	5.5	
52773	residential	"A great townhouse... you can ""Banksia"" on that!!"	Auction 12/2/22	2022-01-20T10:23:39.974973+11:00	2022-01-27T08:31:21.463617+11:00	2/10 Karabar Street	QUEANBEYAN	NSW	2620	149.2284048	-35.3604495	Townhouse	624	Ian McNamee & Partners - Queanbeyan	Lucy MacGregor	3	2	2		
52774	residential	Sunny, Spacious and Family Focused	Auction 12/02/2022	2022-01-20T10:28:20.243220+11:00	2022-01-26T09:16:38.627353+11:00	14 Herman Close	FLOREY	ACT	2615	149.0520995	-35.2329921	House	232	Ray White Canberra	Gerard Northey	4	2	2	4.5	
52775	residential	Lifestyle and convenience at your doorstep	Auction 09/02/2022	2022-01-20T10:20:21.749729+11:00	2022-01-27T10:47:24.085818+11:00	104/15 Irving Street	PHILLIP	ACT	2606	149.0862871	-35.3374794	Apartment	232	Ray White Canberra	Vince Pinneri	1	1	1	6.0	
52776	residential	A hidden gem	Auction	2022-01-20T10:34:36.522593+11:00	2022-01-25T14:01:29.994388+11:00	8 Creed Place	MACGREGOR	ACT	2615	149.0245347	-35.2083081	House	411	Luton Kippax	Ben Oostermeyer	3	1	1	2.5	825.0
52781	residential	Hard to go past	Auction	2022-01-20T11:29:49.722516+11:00	2022-01-25T14:01:31.477099+11:00	16 Aurora Close	MAWSON	ACT	2607	149.0944224	-35.3567974	House	411	Luton Kippax	Ben Oostermeyer	3	1	2	1.5	797.0
52782	residential	family.home 	On site 11:00am Saturday 12 February	2022-01-20T11:16:15.198800+11:00	2022-01-24T11:01:45.215659+11:00	15 Onkaparinga Crescent	KALEEN	ACT	2617	149.1056332	-35.2167944	House	618	home.by holly	Jenny Michael And Mark McReynolds	4	2	2	0.5	783.0
52783	residential	Architectural Masterpiece with Commanding Views	Auction	2022-01-20T11:22:26.122694+11:00	2022-01-27T09:31:45.760997+11:00	9 Bilin Bilin Street	BONNER	ACT	2914	149.1477263	-35.1535497	House	2300	VERV Property	Jason Roses	4	3	2	4.5	540.0
52834	residential	Affordable and Convenient	$ 399,000 +	2022-01-20T12:30:34.281896+11:00	2022-01-24T11:41:02.276752+11:00	128/121 Easty Street	PHILLIP	ACT	2606	149.0913956	-35.3468464	Apartment	2880	Confidence Real Estate	Anish Sebastian	1	1	1	5.5	0.0
52916	residential	Neat and tidy townhouse with no body corporate fees	Auction, Sat 12th Feb at 1:00pm	2022-01-20T13:19:06.987067+11:00	2022-01-27T11:16:51.692178+11:00	27 Domain Street	PALMERSTON	ACT	2913	149.1225484	-35.18942240000001	Townhouse	233	LJ Hooker Gungahlin	Jason Hall	4	2	2	5.0	237.0
52917	residential	Redefining luxury urban living	Auction 05/02/2022	2022-01-20T13:45:19.091423+11:00	2022-01-25T16:47:07.134975+11:00	63/9 Braybrooke Street	BRUCE	ACT	2617	149.0981667	-35.2448522	House	232	Ray White Canberra	Kim Zarevac	3	2	2	6.0	210.0
52920	residential	happy.in.hedley 	On site 9:30am Saturday 12 February 2022	2022-01-20T14:12:20.742309+11:00	2022-01-24T11:01:31.223369+11:00	20 Hedley Street	HACKETT	ACT	2602	149.1580239	-35.2478689	House	618	home.by holly	Jenny Michael And Mark McReynolds	3	1	2	1.5	698.0
52922	residential	Imagine .. a private oasis with space for everyone, offering a resort lifestyle around the 10 m pool!	Auction	2022-01-20T14:03:29.518059+11:00	2022-01-24T22:46:30.114013+11:00	6 Florina Place	HAWKER	ACT	2614	149.0299799	-35.2427936	House	273	Luton Dickson	Aniko and Peter Carey	5	2	2	1.0	
52944	residential	Beloved Family Home	Auction 	2022-01-20T14:59:33.793969+11:00	2022-01-27T11:01:45.014277+11:00	10 Hensman Street	LATHAM	ACT	2615	149.0304954	-35.2199349	House	629	Badenoch Real Estate	Symon Badenoch	4	2	2	4.0	
52945	residential	BEST AND FINAL THURSDAY 27/01 9AM	$529,000+	2022-01-20T14:49:37.748322+11:00	2022-01-25T15:31:29.983362+11:00	105/6-8 Cape Street	DICKSON	ACT	2602	149.1370319	-35.2515734	Apartment	233	LJ Hooker Gungahlin	Bri Williams	2	2	1	6.0	
52946	residential	Right in the Heart of Gungahlin	Auction, Sat 5th Feb 2022 at 3pm	2022-01-20T14:52:30.916660+11:00	2022-01-24T15:31:25.678184+11:00	309/100 Gungahlin Place	GUNGAHLIN	ACT	2912	149.1352823	-35.1835784	Apartment	233	LJ Hooker Gungahlin	Bri Williams	1	1	1	6.0	
52948	residential	As cute as it gets!	Auction	2022-01-20T15:02:45.463912+11:00	2022-01-24T09:01:30.368333+11:00	36 Charlton Crescent	GORDON	ACT	2906	149.0771597	-35.4608344	House	439	LJ Hooker Kaleen	Tim Russell	3	1	1	3.5	368.0
52950	residential	Live life to the fullest	Auction 03/02/2022	2022-01-20T15:07:14.528481+11:00	2022-01-25T16:02:14.804139+11:00	231/15 Irving Street	PHILLIP	ACT	2606	149.0862871	-35.3374794	Apartment	232	Ray White Canberra	Alec Brown	2	2	2	5.5	
52962	residential	Impressive entertainer	Auction 09/02/21	2022-01-20T15:17:18.201012+11:00	2022-01-24T18:16:39.611712+11:00	31 Armstrong Crescent	HOLT	ACT	2615	149.009612	-35.2203567	House	232	Ray White Canberra	Jake Battenally	4	2	2	1.5	718.0
52963	residential	Stunning Family Home in Sought After Location	Auction	2022-01-20T15:44:27.312523+11:00	2022-01-24T09:16:27.148615+11:00	52 Rusten Street	KARABAR	NSW	2620	149.221591	-35.3731405	House	3661	Rapport Property	Marc Donohue	5	2	4		845.0
52965	residential	Nest or invest	Auction 03/02/2022	2022-01-20T16:05:16.591656+11:00	2022-01-24T15:16:59.204619+11:00	5/6 Yarrow Street	QUEANBEYAN EAST	NSW	2620	149.2452297	-35.3548969	Townhouse	232	Ray White Canberra	Alec Brown	2	1	1		
52966	residential	Priced to Sell!	$370,000+	2022-01-20T16:16:19.288947+11:00	2022-01-27T09:02:00.062182+11:00	80/21 Battye Street	BRUCE	ACT	2617	149.0975389	-35.2461509	Apartment	1087	Civium Property Group - Residential	Armin Kashan	2	1	1	6.0	
52967	residential	Location is Key!	Auction	2022-01-20T17:10:10.559908+11:00	2022-01-25T16:32:14.590078+11:00	41 Luehmann Street	PAGE	ACT	2614	149.0485583	-35.2415433	House	437	LJ Hooker Belconnen	Sharon Schnyder	3	1	0	2.0	743.0
52969	residential	Invest Now, Live in Later	Forthcoming Auction	2022-01-20T18:05:11.750601+11:00	2022-01-25T08:46:28.101499+11:00	22 Pademelon Street	THROSBY	ACT	2914	149.1586283	-35.184165	House	273	Luton Dickson	Melissa Martin-Smith	4	2	2	5.5	
52972	residential	Magnificent residence of grand proportions 	Auction	2022-01-21T07:17:23.791119+11:00	2022-01-24T14:31:37.102700+11:00	52 Monkman Street	CHAPMAN	ACT	2611	149.0279184	-35.3528566	House	414	Luton Weston Creek & Molonglo Valley	Tim and Justine Burke	5	4	6	4.5	1797.0
52973	residential	52. mainwaring rich circuit	Auction on Saturday 5th February 2022 at 10:00am	2022-01-21T07:37:17.803456+11:00	2022-01-24T08:16:29.371129+11:00	52 Mainwaring Rich Circuit	PALMERSTON	ACT	2913	149.1221038	-35.1946515	House	2542	Hugo. Canberra	Hugo Mendez	3	1	0	3.0	500.0
52974	residential	Four bedroom home in quiet leafy street	Auction 10/02/2022	2022-01-21T09:18:11.720039+11:00	2022-01-24T19:01:29.860358+11:00	21 Hemmant Street	O'CONNOR	ACT	2602	149.1117324	-35.2603873	House	232	Ray White Canberra	Maree Van Arkel	4	2	1	1.0	746.0
52983	residential	Stylish Living with Unbeatable Location!	$485,000+	2022-01-21T10:50:45.930153+11:00	2022-01-25T15:46:34.404177+11:00	406/27 Lonsdale Street	BRADDON	ACT	2612	149.1326108	-35.2719619	Apartment	440	LJ Hooker Canberra City	Antony Damiano	1	1	1	6.0	
52985	residential	Beautiful, Spacious and Lifestyle Apartment	EXPRESSIONS OF INTEREST BY 9 FEBRUARY AT 5PM	2022-01-21T11:19:05.742729+11:00	2022-01-25T14:16:29.460311+11:00	305/2 Gribble Street	GUNGAHLIN	ACT	2912	149.1308313	-35.181569	Apartment	631	Maria Selleck Properties	Maria Selleck	2	2	2	6.0	
52987	residential	Spacious, stylish and centrally located inner-city apartment	Auction, Wed 23rd Feb at 5:00pm	2022-01-21T11:18:45.806543+11:00	2022-01-26T06:01:25.953584+11:00	609/222 City Walk	CANBERRA	ACT	2601	149.1321402	-35.2803658	Apartment	233	LJ Hooker Gungahlin	Jason Hall	2	2	1	6.0	
52989	residential	young.at.heart	Auction 10:00am Saturday 5 February 2022	2022-01-21T11:39:16.094943+11:00	2022-01-27T12:31:33.442491+11:00	25/124 De Burgh Street	LYNEHAM	ACT	2602	149.1324925	-35.2535244	Townhouse	618	home.by holly	Holly Komorowski	3	2	1	2.5	
52994	residential	Sensational renovated Family Home with Views	Auction 19th February 2022	2022-01-21T12:30:39.189771+11:00	2022-01-21T13:59:20.667479+11:00	24 Birdwood Street	HUGHES	ACT	2605	149.0975165	-35.3302833	House	626	Berkely Residential	Bill Lyristakis	4	2	2	3.0	0.0
53002	residential	 Inner City Prestige	Auction: Saturday 12th February 10:30am	2022-01-21T13:42:29.942686+11:00	2022-01-25T12:16:24.550648+11:00	144 Blamey Crescent	CAMPBELL	ACT	2612	149.1503075	-35.29145159999999	House	410	McGrath Canberra	Mick Barlow	4	2	1	1.0	813.0
53015	residential	Great Opportunity with Comfort, Convenience & Lifestyle	$ 809,000 +	2022-01-21T15:26:24.972366+11:00	2022-01-25T16:31:36.988249+11:00	17 Mary Hall Circuit	DUNLOP	ACT	2615	149.0312619	-35.1933774	House	2880	Confidence Real Estate	Rahul Kumar	3	2	2	3.5	
53018	residential	Beautiful & Spacious Family Home 	AUCTION	2022-01-21T16:27:34.619230+11:00	2022-01-26T10:31:28.856739+11:00	64 Must Circuit	CALWELL	ACT	2905	149.0986824	-35.4379432	House	34	McIntyre Property	Daryl Gough	4	2	2	1.5	749.0
53020	residential	Amazing opportunity in the heart of Gordon	Auction 	2022-01-21T16:20:20.405729+11:00	2022-01-25T16:31:43.031156+11:00	12 Oxenham Circuit	GORDON	ACT	2906	149.0849164	-35.4591948	House	2880	Confidence Real Estate	Anish Sebastian	3	2	2	2.5	
53026	residential	North Facing Spacious City Living!	Auction	2022-01-21T17:29:19.457760+11:00	2022-01-27T14:46:36.230481+11:00	17/5 Gould Street	TURNER	ACT	2612	149.1291569	-35.2725808	House	440	LJ Hooker Canberra City	Antony Damiano	2	2	2	0.0	
53038	residential	RZ2 ZONING WITH ENDLESS OPPORTUNITIES	$1,295,000+	2022-01-23T12:30:23.879569+11:00	2022-01-24T12:31:33.386664+11:00	16 McNamara Street	PEARCE	ACT	2607	149.0852303	-35.3564496	House	1083	Michael Potter Real Estate	Michael Potter	3	1	1	0.0	791.0
53042	residential	Renovated Modern Living	Auction 12/02/22 10am On Site	2022-01-24T08:21:50.966420+11:00	2022-01-28T10:01:55.885215+11:00	11 Odern Place	NGUNNAWAL	ACT	2913	149.1014403	-35.1681809	House	620	Morrissey Property	Trenton Morrissey	4	2	2	3.5	620.0
53054	residential	Welcome to 143/35 Oakden Street Greenway!	$360,000+	2022-01-24T10:27:37.391041+11:00	2022-01-26T13:16:31.006898+11:00	143/35 Oakden Street	GREENWAY	ACT	2900	149.0732858	-35.42166090000001	Apartment	34	McIntyre Property	Maya Rourke	1	1	1	6.0	7284.06
53055	residential	Beginners dream	Offers over $625,000	2022-01-24T10:39:59.014678+11:00	2022-01-29T13:31:30.116607+11:00	8/8 Wilson Crescent	BANKS	ACT	2906	149.0975647	-35.4717445	Townhouse	513	One Agency Sandy Morris	Tahlia Davidson	3	1	2	4.0	288.0
53058	residential	Tree Lined Street Offers Street Facing Opportunity	Auction	2022-01-24T11:00:11.320740+11:00	2022-01-24T14:46:26.274396+11:00	20/10 Helpmann Street	BONYTHON	ACT	2905	149.0716095	-35.4257699	Townhouse	413	Luton Tuggeranong	Michael Martin	3	2	2	4.5	159.0
53063	residential	A Generous RZ2 Corner Block Perfect for Redevelopment	Auction	2022-01-24T12:26:43.619553+11:00	2022-01-25T10:31:55.064431+11:00	34 Kalgoorlie Crescent	FISHER	ACT	2611	149.0602132	-35.3619792	House	438	LJ Hooker Woden/Weston	Andy Greenberger	3	2	1	1.5	837.1
53071	residential	A VIBRANT URBAN LIFESTYLE AWAITS	Auction	2022-01-24T13:48:19.401575+11:00	2022-01-28T13:31:38.913240+11:00	49/11 Fawkner Street	BRADDON	ACT	2612	149.1353021	-35.2722542	Apartment	440	LJ Hooker Canberra City	Andy Greenberger	1	1	1	5.0	
53074	residential	Endless Opportunity in Googong	$ 1,200,000 - 1,300,000	2022-01-24T15:16:20.021724+11:00	2022-01-24T15:16:40.032141+11:00	Lot 833 Horton  Street	GOOGONG	NSW	2620	149.2359484	-35.4221969	House	2880	Confidence Real Estate	Anish Sebastian	4	3	2	6.0	
53075	residential	AUCTION 12th FEBRUARY at 12:45pm	AUCTION 12th FEBRUARY at 12:45pm	2022-01-24T15:35:38.781572+11:00	2022-01-25T19:31:26.698425+11:00	42 Wanderer Court	AMAROO	ACT	2914	149.1181906	-35.1694588	House	410	McGrath Canberra	Kris Hellier	3	2	2	4.5	
53077	residential	When Family Home Meets Resort!	Auction 19/02/2022	2022-01-24T15:49:04.957912+11:00	2022-01-28T17:16:35.514217+11:00	98 Temperley Street	NICHOLLS	ACT	2913	149.0951847	-35.1913508	House	436	LJ Hooker Dickson	Stephen Bunday	5	2	2	4.0	1029.0
53084	residential	Gorgeous three bedroom residence with expansive backyard	$799,000+	2022-01-24T17:14:40.832393+11:00	2022-02-02T14:58:17.964793+11:00	76 Summerland Circuit	KAMBAH	ACT	2902	149.0702553	-35.3850977	House	410	McGrath Canberra	Sam Taylor	3	2	2	1.5	914.0
53086	residential	Double Storey House & Land Package	$988,000 +	2022-01-24T17:46:19.753437+11:00	2022-01-24T17:46:24.640844+11:00	19 Malcolm Cole Terrace	WHITLAM	ACT	2611	0.0	0.0	House	1534	New Door Properties	Yash Sethi	4	2	2	6.0	245.0
53091	residential	Room for the growing family	Auction 19 February 12pm	2022-01-25T08:38:31.682344+11:00	2022-01-29T13:01:29.569076+11:00	8 Westbury Circuit	NICHOLLS	ACT	2913	149.109333	-35.1854086	House	410	McGrath Canberra	Matt Harmer	4	2	2	2.5	
53094	residential	Secure your Provenance 	$685,000+	2022-01-25T09:11:32.416954+11:00	2022-01-31T14:01:33.057777+11:00	203/47 Currong Street	BRADDON	ACT	2612	149.136698	-35.2783924	Unit	410	McGrath Canberra	Suzi Wells	2	2	2	6.0	
53096	residential	Tastefully Renovated Single Level Home 	Auction	2022-01-25T09:55:16.368188+11:00	2022-01-25T11:31:27.360086+11:00	18 Dixson Circuit	CONDER	ACT	2906	149.0924942	-35.4615712	House	413	Luton Tuggeranong	Michael Martin	3	1	2	4.0	
53131	residential	Immaculate Family Home 	AUCTION	2022-01-25T14:08:48.346230+11:00	2022-01-28T12:46:39.620020+11:00	10 Barringer Street	CONDER	ACT	2906	149.1086828	-35.4622366	House	34	McIntyre Property	Colin McIntyre	4	2	2	2.0	739.0
53136	residential	Superb in Springbank.	Auction	2022-01-25T14:52:18.398465+11:00	2022-02-01T14:31:30.436621+11:00	13 Kowalski Street	CASEY	ACT	2913	149.1007003	-35.1585452	House	409	Luton Gungahlin	Nick Paine	3	2	2	5.0	465.0
53137	residential	""" The Palms"" Original 1950's 3 bedroom residence set in a fantastic location only minutes to Dickson Shopping Centre."	Auction 19/02/2022	2022-01-25T15:11:44.934701+11:00	2022-02-02T09:24:13.117075+11:00	21 Bancroft Street	DICKSON	ACT	2602	149.1422326	-35.2532132	House	1102	Wright Dunn Real Estate	Peter Andrighetto	3	1	1	0.5	0.0
53138	residential	POTENTIAL, POTENTIAL, POTENTIAL! 1394 m Of Land In The Heart Of Macarthur 	Auction	2022-01-25T15:25:17.598099+11:00	2022-01-31T13:46:33.865464+11:00	15 Jackie Howe Crescent	MACARTHUR	ACT	2904	149.1252771	-35.4078974	House	413	Luton Tuggeranong	Mina Etminan	3	2	2	3.5	1394.0
53141	residential	This Home is just Adooring	Auction	2022-01-25T15:58:08.732133+11:00	2022-01-28T11:01:35.439549+11:00	24A Dooring Street	BRADDON	ACT	2612	149.1345074	-35.2615895	Townhouse	436	LJ Hooker Dickson	Ryan Hedley	3	2	2	5.0	
53143	residential	Parliament House and Telstra Tower Views! 	$355,000	2022-01-25T16:07:09.564610+11:00	2022-01-31T17:31:27.791019+11:00	3/14 King Street	QUEANBEYAN	NSW	2620	149.2198	-35.3430396	Apartment	623	Ray White Queanbeyan | Jerrabomberra	Nick Southwell	2	1	1		
53148	residential	A rare, 1952 built Yarralumla Home	AUCTION	2022-01-25T17:37:42.991940+11:00	2022-02-01T13:01:29.677640+11:00	5 Schomburgk Street	YARRALUMLA	ACT	2600	149.0944224	-35.3096198	House	34	McIntyre Property	Scott Isaacs	3	1	1	0.0	
53149	residential	Executive apartment with expansive lake views in the heart of Belconnen	$398,000 +	2022-01-26T08:50:27.816443+11:00	2022-01-31T10:16:47.424821+11:00	612/4 Grazier Lane	BELCONNEN	ACT	2617	149.0719813	-35.2401725	Apartment	410	McGrath Canberra	Dimi Romero	1	1	1	6.0	
53152	residential	Sprawling family home in the heart of Gungahlin	Online Auction 20/02/2022 at 10:00am	2022-01-26T12:46:23.390006+11:00	2022-01-26T12:46:35.614215+11:00	17 Nellie Hamilton Avenue	GUNGAHLIN	ACT	2912	149.1359964	-35.1790813	House	2862	Stone Gungahlin	Jess Smith	5	2	2	4.0	346.0
53153	land	Rare Opportunity Land For Sale in Watson	By Negotiation	2022-01-26T14:16:21.244612+11:00	2022-01-26T14:16:30.528608+11:00	1 Kilduff Street	WATSON	ACT	2602	149.1634123	-35.231432	Land	1534	New Door Properties	Yash Sethi	0	0	0		417.0
53154	residential	Love where you live!	By Negotiation	2022-01-26T14:25:14.212063+11:00	2022-02-02T15:05:59.394963+11:00	21/283 Flemington Road	FRANKLIN	ACT	2913	149.150779	-35.1925673	Unit	1534	New Door Properties	Yash Sethi	2	2	2	6.0	4355.0
53155	residential	Captivating views and pristine gardens	Auction 19/02/2022 at 11:00am	2022-01-26T20:18:34.079032+11:00	2022-02-01T17:01:37.218200+11:00	21 Hughes Crescent	NGUNNAWAL	ACT	2913	149.10949	-35.1782038	House	2862	Stone Gungahlin	Jess Smith	5	3	2	4.0	653.0
53156	residential	A Taste of Country Within the City	AUCTION	2022-01-27T02:48:05.466647+11:00	2022-02-01T12:01:39.499508+11:00	7 Annear Place	FADDEN	ACT	2904	149.1203883	-35.4022908	House	631	Maria Selleck Properties	Maria Selleck	3	2	2	2.5	1041.0
53157	residential	Modern and Sophisticated Townhouse 	Auction	2022-01-27T06:17:17.839005+11:00	2022-02-01T09:31:29.557941+11:00	1/1 Gifford Street	COOMBS	ACT	2611	149.037977	-35.3166534	Townhouse	414	Luton Weston Creek & Molonglo Valley	Josh Wilson	3	2	3	6.0	
53158	residential	Single-level, ideally located and surrounded by stunning gardens	Auction	2022-01-27T06:39:13.684549+11:00	2022-01-31T12:01:43.107237+11:00	113 De Little Circuit	GREENWAY	ACT	2900	149.0721098	-35.4001646	House	414	Luton Weston Creek & Molonglo Valley	Tim and Justine Burke	3	2	1	1.5	441.0
53159	residential	Immaculate Family Home Featuring Beautiful Outlooks	Auction	2022-01-27T06:50:58.217426+11:00	2022-01-28T22:42:57.347841+11:00	21 Sturdee Crescent	MONASH	ACT	2904	149.0945569	-35.4098019	House	1630	Agent Residential	Bruno Garreffa	5	3	2	2.0	745.0
53160	residential	Renovated, contemporary home in a quiet, leafy street	Auction	2022-01-27T06:50:20.318993+11:00	2022-01-31T12:16:45.506160+11:00	3 Eungella Street	DUFFY	ACT	2611	149.0297783	-35.3403746	House	414	Luton Weston Creek & Molonglo Valley	Tim and Justine Burke	3	2	1	5.0	941.0
53161	residential	Separate title and ready for immediate enjoyment	Auction	2022-01-27T06:50:20.086064+11:00	2022-02-01T09:31:28.220578+11:00	14 Giltinan Place	HOLT	ACT	2615	149.0301612	-35.2238765	House	414	Luton Weston Creek & Molonglo Valley	Tim and Justine Burke	2	1	1	0.5	375.0
53162	residential	A dream lifestyle awaits	Auction	2022-01-27T06:50:20.579120+11:00	2022-02-02T11:01:33.087492+11:00	83 Jim Bradley Crescent	URIARRA VILLAGE	ACT	2611	148.923249	-35.2927434	House	414	Luton Weston Creek & Molonglo Valley	Tim and Justine Burke	4	2	2	6.0	1224.0
53163	residential	The future looks extremely prosperous here.	Auction	2022-01-27T08:02:30.747338+11:00	2022-02-02T10:01:43.418433+11:00	13 Sheehan Street	PEARCE	ACT	2607	0.0	0.0	House	2801	Solely Properties	Andrew Thorpe	5	2	3	2.0	1279.0
53165	residential	IMMACULATE PRESENATION IN A PRIME LOCATION	729,000+	2022-01-27T08:29:43.804412+11:00	2022-02-02T14:54:05.181676+11:00	8/20 Power Street	MAWSON	ACT	2607	149.0948164	-35.3539678	Townhouse	1083	Michael Potter Real Estate	Michael Potter	2	2	1	4.0	221.0
53166	residential	"""Ticks all the boxes!"""	Auction 19/02/2022	2022-01-27T08:29:38.693708+11:00	2022-01-31T10:16:45.060966+11:00	15 Elm Way	JERRABOMBERRA	NSW	2619	149.2022235	-35.3885901	House	624	Ian McNamee & Partners - Queanbeyan	Lucy MacGregor	6	2	1		933.0
53167	residential	Family Friendly Franklin	Auction	2022-01-27T08:40:09.764914+11:00	2022-02-02T14:57:47.699398+11:00		FRANKLIN	ACT	2913	0.0	0.0	House	412	Luton Manuka	Miriana Cavic	4	2	2	5.0	615.0
53168	residential	Extra-Large apartment with Breathtaking Views to Enjoy Living !	$550,000+	2022-01-27T09:00:28.308325+11:00	2022-02-02T15:47:00.626431+11:00	271/1 Anthony Rolfe Avenue	GUNGAHLIN	ACT	2912	149.1299195	-35.181994	Apartment	636	Impact Properties	Shaun Iqbal	2	2	2	6.0	
53169	residential	Home is calling	Auction	2022-01-27T09:04:01.153331+11:00	2022-02-02T09:46:37.745127+11:00	31 Ferrett Circuit	KAMBAH	ACT	2902	149.0529063	-35.3844138	House	513	One Agency Sandy Morris	Zac Morris	3	2	2	5.5	920.0
53170	residential	Bright, spacious and modern.	Auction 19/02/2022	2022-01-27T09:11:53.329398+11:00	2022-01-28T15:16:25.316396+11:00	22/5 Sydney Avenue	BARTON	ACT	2600	149.1331335	-35.31281269999999	Apartment	1155	PURNELL	Nick Purnell	1	1	1	6.0	
53171	residential	"Premium 3 bedroom villa - Idyllic setting ""The Gardens"""	Auction 19/02/2022	2022-01-27T09:13:40.302778+11:00	2022-01-31T11:16:33.061809+11:00	25/21 Temperley Street	NICHOLLS	ACT	2913	149.0922958	-35.1841018	Townhouse	410	McGrath Canberra	Justin Taylor	3	2	2	2.0	
53172	residential	Oasis in Kingston Mews	Auction: Saturday February 12th, on site at 2:00pm	2022-01-27T09:05:21.071503+11:00	2022-02-01T13:46:32.940274+11:00	17/8 Giles Street	GRIFFITH	ACT	2603	149.1382223	-35.3183847	Apartment	443	LJ Hooker Manuka	Samuel Thompson	2	1	1	6.0	
53173	residential	Northeast facing residence.	$495,000+	2022-01-27T09:29:21.501427+11:00	2022-02-01T10:46:24.865809+11:00	98/32 Blackall Street	BARTON	ACT	2600	149.1367824	-35.3068011	Apartment	1155	PURNELL	Nick Purnell	1	1	1	6.0	
53174	residential	A warm welcome	Auction	2022-01-27T09:25:38.891840+11:00	2022-01-31T09:01:32.040527+11:00	59 Lee Steere Crescent	KAMBAH	ACT	2902	149.0756353	-35.3852625	House	513	One Agency Sandy Morris	Zac Morris	4	2	2	1.5	745.0
53176	residential	Renovated Family Home	AUCTION	2022-01-27T09:46:47.428779+11:00	2022-02-02T14:57:12.985091+11:00	10 Rose Scott Circuit	CHISHOLM	ACT	2905	149.1334854	-35.4264202	House	34	McIntyre Property	Colin McIntyre	3	2	1	2.0	849.0
53177	residential	Contemporary Living in Quiet Convenience	Auction	2022-01-27T09:51:59.355115+11:00	2022-02-01T10:31:36.763863+11:00	1/33 McGovern Street	CASEY	ACT	2913	149.099529	-35.1610023	Unit	1402	Blackshaw Belconnen	Matt Sebbens	2	1	2	6.0	
53180	residential	Beautifully renovated and extended home with separate living areas, in an enviable location!	Auction	2022-01-27T10:08:24.504313+11:00	2022-01-31T23:01:27.907607+11:00	61 Banfield Street	DOWNER	ACT	2602	149.1452382	-35.2384809	House	273	Luton Dickson	Aniko and Peter Carey	3	2	2	2.0	694.0
53182	residential	DHA Investment Property with Potential 10 Year Lease 	$750,000+	2022-01-27T10:30:33.894384+11:00	2022-02-03T10:16:26.680123+11:00		NGUNNAWAL	ACT	2913	0.0	0.0	House	273	Luton Dickson	Melissa Martin-Smith	3	2	1	4.5	
53183	residential	Endless Possibilities	Auction	2022-01-27T10:30:35.481065+11:00	2022-01-27T13:01:32.498943+11:00	38 Boobialla Street	O'CONNOR	ACT	2602	149.1173833	-35.2504846	House	409	Luton Gungahlin	Corbin Eslick	3	1	1	0.0	751.0
53184	residential	Tranquil low maintenance living	Auction	2022-01-27T10:27:23.373712+11:00	2022-02-01T18:01:34.275854+11:00	72 Noarlunga Crescent	BONYTHON	ACT	2905	149.0851854	-35.4356373	House	435	LJ Hooker Tuggeranong	Sally McCallum	3	1	1	2.0	0.0
53186	residential	AUCTION 19TH FEBRUARY at 1:30PM	AUCTION 19TH FEBRUARY at 1:30PM	2022-01-27T10:41:32.636344+11:00	2022-01-31T07:31:30.395175+11:00	6 & 8 Patchett Street	FRANKLIN	ACT	2913	149.1454053	-35.1940226	House	410	McGrath Canberra	Kris Hellier	7	5	3	4.0	440.0
53190	residential	Opportunity Knocks..!	Offers Over $815,000	2022-01-27T11:02:21.546747+11:00	2022-02-02T08:59:59.693293+11:00	43 Benson Crescent	CALWELL	ACT	2905	149.1128536	-35.4420653	House	2207	Zango Private Listers	Private Lister	4	2	4	1.5	811.0
53191	residential	AUCTION 19TH FEBRUARY at 9:45AM	AUCTION 19TH FEBRUARY at 9:45AM	2022-01-27T11:14:45.418648+11:00	2022-01-31T10:01:27.736326+11:00	1/5 Fitchett Street	GARRAN	ACT	2605	149.0987272	-35.3431954	Townhouse	410	McGrath Canberra	Kris Hellier	3	2	2	1.5	
53193	residential	Take advantage of the location and low-maintenance lifestyle this home offers.	Auction 17/02/2022	2022-01-27T11:04:14.640179+11:00	2022-01-29T14:01:32.366680+11:00	80 Dexter Street	COOK	ACT	2614	149.0697396	-35.2579523	House	232	Ray White Canberra	Leonie Taylor	2	1	1	2.0	
53197	residential	Beautifully presented family home on spacious block	Auction Onsite	2022-01-27T11:47:30.923872+11:00	2022-01-31T12:01:33.711024+11:00	26 Namadgi Circuit	PALMERSTON	ACT	2913	149.1170245	-35.1985938	House	410	McGrath Canberra	Jason Anasson	4	2	2	3.5	761.0
53199	residential	Bespoke villa in ideal location	$548,000+	2022-01-27T12:09:33.833532+11:00	2022-02-02T16:01:35.545768+11:00	79 Greg Urwin Circuit	CASEY	ACT	2913	149.1029362	-35.1564716	Townhouse	410	McGrath Canberra	Natalie Kokic Schmidt	2	1	1	6.0	117.0
53200	residential	EXPANSIVE HOME WITH STRIKING BRINDABELLA VIEWS	AUCTION	2022-01-27T12:05:37.636756+11:00	2022-02-01T10:46:34.480378+11:00	25 Huelin Circuit	FLYNN	ACT	2615	149.0465412	-35.2011285	House	628	Belle Property Canberra	Bree Currall	5	3	2	4.5	0.0
53201	residential	Entertainers paradise on a grand scale	Auction	2022-01-27T12:01:34.977942+11:00	2022-02-01T18:01:37.341006+11:00	26 Longman Street	RICHARDSON	ACT	2905	149.1134366	-35.4181997	House	435	LJ Hooker Tuggeranong	Andrew Curren	4	2	4	2.0	988.0
53203	residential	Privately Positioned Family Home In Prime Location	Auction	2022-01-27T12:23:13.743536+11:00	2022-01-28T14:46:36.503144+11:00	1 Whitfeld Street	MONASH	ACT	2904	149.1016196	-35.4102283	House	2880	Confidence Real Estate	Anish Sebastian	3	2	2	1.5	
53207	residential	Inspired Lakeside Living	Auction 19/02/2022	2022-01-27T12:52:11.924755+11:00	2022-02-02T10:17:21.601424+11:00	33 Strayleaf Crescent	GUNGAHLIN	ACT	2912	149.1377019	-35.1750289	House	232	Ray White Canberra	Alec Brown	3	2	2	4.5	660.0
53210	residential	A PLACE TO CALL HOME	Auction	2022-01-27T13:18:55.572509+11:00	2022-02-01T14:31:52.643274+11:00	4 Ligar Place	HOLDER	ACT	2611	149.0482394	-35.3365692	House	438	LJ Hooker Woden/Weston	Jane Kusetic	3	2	2	2.0	715.2
53211	residential	rivett.home 	1:30pm Saturday 19 February 2022	2022-01-27T13:35:14.220320+11:00	2022-01-31T14:31:39.380375+11:00	89 Rivett Street	HACKETT	ACT	2602	149.1672664	-35.2456127	House	618	home.by holly	Jenny Michael And Mark McReynolds	4	2	2	4.0	906.0
53212	residential	A private paradise with ultra-convenient location!	Auction	2022-01-27T13:37:18.360946+11:00	2022-01-29T10:46:30.443281+11:00	27 Gungahlin Place	GUNGAHLIN	ACT	2912	149.1361768	-35.1821808	House	409	Luton Gungahlin	Luke McAuliffe	4	2	2	5.5	249.0
53213	residential	mackenzie.magic 	On site 12pm Saturday 19 February 2022	2022-01-27T14:08:18.621689+11:00	2022-01-31T14:16:37.547757+11:00	17 MacKenzie Street	HACKETT	ACT	2602	149.1672664	-35.2493816	House	618	home.by holly	Jenny Michael And Mark McReynolds	4	1	1	2.0	727.0
53216	residential	Seriously Good Position- Seriously for Sale	Auction	2022-01-27T14:12:17.725617+11:00	2022-01-27T14:46:49.260403+11:00	112/41 Chandler Street	BELCONNEN	ACT	2617	149.0709502	-35.2394623	Unit	437	LJ Hooker Belconnen	George Vlandis	1	1	1	6.0	
53217	residential	Eagles Nest	Auction	2022-01-27T14:12:17.922977+11:00	2022-02-03T08:46:35.214428+11:00	173 Kingsford Smith Drive	MELBA	ACT	2615	149.0608184	-35.2025776	House	437	LJ Hooker Belconnen	Michael Wellsmore	5	2	2	4.0	1086.0
53220	residential	Best Time to Buy	$450,000 +	2022-01-27T14:12:19.468686+11:00	2022-02-01T13:16:59.718479+11:00	290/80 Chandler Street	BELCONNEN	ACT	2617	149.0705729	-35.2420241	Apartment	437	LJ Hooker Belconnen	Michael Wellsmore	2	1	1	6.0	
53221	residential	Jump into The Market!	Auction	2022-01-27T14:12:18.447345+11:00	2022-02-01T13:01:37.911126+11:00	11 D'Hage Court	MELBA	ACT	2615	149.0464894	-35.2143519	House	437	LJ Hooker Belconnen	George Vlandis	3	1	1	3.0	222.0
53222	residential	tapia.tantalising 	Online 4pm Saturday 19 February 2022	2022-01-27T14:19:15.493074+11:00	2022-02-03T11:16:39.608777+11:00	5/153 Kosciuszko Avenue	PALMERSTON	ACT	2913	149.1138876	-35.194034	Townhouse	618	home.by holly	Jenny Michael And Mark McReynolds	3	2	2	4.0	
53223	residential	A Knockout Knockdown 	Auction	2022-01-27T14:25:15.527228+11:00	2022-02-01T13:01:30.751040+11:00	20 McGinness Street	SCULLIN	ACT	2614	149.0432691	-35.2339913	House	437	LJ Hooker Belconnen	George Vlandis	3	1	1	1.0	905.0
53224	residential	Position & Potential Plus! 	Auction	2022-01-27T14:25:15.497821+11:00	2022-02-01T13:01:34.490231+11:00	6 Lidgett Place	FLOREY	ACT	2615	149.0548787	-35.227603	House	437	LJ Hooker Belconnen	George Vlandis	3	2	2	3.0	489.0
53225	residential	Comfortable living 	$399,000+	2022-01-27T14:26:07.198593+11:00	2022-02-03T15:47:47.668802+11:00	10/60 John Gorton Drive	COOMBS	ACT	2611	149.0403109	-35.3212112	House	232	Ray White Canberra	Vince Pinneri	2	1	1	6.0	
53228	residential	Home Sweet Home !	By Negotiation	2022-01-27T15:00:18.844542+11:00	2022-02-02T15:31:57.044937+11:00	5/30 CARTWRIGHT STREET	CHARNWOOD	ACT	2615	149.0321301	-35.203248	Townhouse	636	Impact Properties	Gurpreet Singh	3	1	2	1.5	232.0
53229	residential	Treasured family home in a premium location 	Auction	2022-01-27T15:05:13.065555+11:00	2022-01-31T11:16:27.464627+11:00	69 Blackman Crescent	MACQUARIE	ACT	2614	149.0654135	-35.25438159999999	House	408	Luton Belconnen	Charles Blackney	5	2	2	0.5	924.0
53230	residential	Stylish, Sunny and Secure	Auction 12/02/2022	2022-01-27T15:16:19.343320+11:00	2022-01-31T14:16:54.339472+11:00	4/3 Coppin Place	WEETANGERA	ACT	2614	149.0546427	-35.2454567	Townhouse	232	Ray White Canberra	Peter Walker	1	1	1	6.0	162.3
53231	residential	Spacious Family Living at its Best!	By Negotiation	2022-01-27T15:07:16.588945+11:00	2022-02-02T15:04:06.674948+11:00	6 Amaryllis Street	WRIGHT	ACT	2611	149.032508	-35.3255907	House	1534	New Door Properties	Malkiat Dhillon	4	3	2	6.0	540.0
53235	residential	A residence of grand proportions offering quality, flexible living	Auction 19/02/2022	2022-01-27T16:15:19.368577+11:00	2022-02-02T14:57:17.429496+11:00	13 Nancy Cato Street	FRANKLIN	ACT	2913	149.1419859	-35.204165	House	2300	VERV Property	Alysia Walsh	5	3	2	4.5	540.0
53237	residential	unique.lifestyle 	On site 2.30pm Saturday 19 February 2022	2022-01-27T16:20:17.660365+11:00	2022-02-01T10:01:36.702956+11:00	2/20 Allport Street	DOWNER	ACT	2602	149.1446099	-35.2478561	House	618	home.by holly	Jenny Michael And Mark McReynolds	3	2	1	2.0	
53238	residential	Huge Private, Sunny Rear Courtyard Makes This One Stand Out!	Auction 16/02/2022	2022-01-27T16:21:56.220861+11:00	2022-01-31T09:46:28.662628+11:00	3/2 Cunningham Street	GRIFFITH	ACT	2603	149.1435335	-35.3210674	Unit	436	LJ Hooker Dickson	Stephen Bunday	2	2	2	6.0	
53239	residential	Quality shines through in this crisp, elevated home	Online Auction	2022-01-27T16:20:14.860562+11:00	2022-02-01T16:38:40.406233+11:00	74 Macrossan Crescent	LATHAM	ACT	2615	149.0343049	-35.2153812	House	232	Ray White Canberra	Phyllis Tidmarsh	3	1	2	3.0	758.0
53241	residential	Inviting home offering separate living areas and leafy entertaining, in an excellent location!	Auction	2022-01-27T16:33:12.713383+11:00	2022-01-31T23:01:27.237551+11:00	3 Darby Street	KALEEN	ACT	2617	149.106575	-35.2167879	House	273	Luton Dickson	Aniko and Peter Carey	3	2	2	1.5	820.0
53243	residential	Affordable in the heart of Woden	Auction	2022-01-27T16:53:06.033869+11:00	2022-02-01T14:31:32.322162+11:00	2/6 Heard Street	MAWSON	ACT	2607	149.0959229	-35.3666424	Apartment	438	LJ Hooker Woden/Weston	Jane Kusetic	2	1	1	1.0	
53246	residential	A Townhouse close to...The whole shebang !	By Negotiation	2022-01-27T17:28:14.369014+11:00	2022-02-02T15:46:39.522331+11:00	11/12 DULCIE HOLLAND CRESCENT	MONCRIEFF	ACT	2914	149.1137089	-35.1556083	Townhouse	636	Impact Properties	Gurpreet Singh	2	2	2	6.0	
53250	residential	Contemporary haven of space and light	Auction	2022-01-28T06:29:12.771047+11:00	2022-01-31T12:01:36.554344+11:00	5 Blowering Street	DUFFY	ACT	2611	149.0381594	-35.3333627	House	414	Luton Weston Creek & Molonglo Valley	Tim and Justine Burke	4	2	2	2.0	733.0
53251	residential	Renovated, extended and superbly located	Auction	2022-01-28T06:29:12.635239+11:00	2022-01-31T12:01:44.402945+11:00	4 Hannam Place	MAWSON	ACT	2607	149.1016421	-35.3596513	House	414	Luton Weston Creek & Molonglo Valley	Tim and Justine Burke	4	2	2	4.5	815.0
53252	residential	Room for all	Auction Thursday 10th February at 6pm	2022-01-28T07:57:08.900402+11:00	2022-02-02T08:16:27.070105+11:00	2 Reeves Street	WANNIASSA	ACT	2903	149.0926736	-35.3978337	House	684	McCann Properties	Mark McCann	4	2	4	1.5	1076.0
53258	residential	Commanding Family Oasis Opposite Reserve 	Auction 19/02/22	2022-01-28T10:14:39.216103+11:00	2022-02-02T10:31:34.661448+11:00	16 Cocoparra Crescent	CRACE	ACT	2911	149.1106924	-35.206875	House	2853	Bastion Property Group	Theo Koutsikamanis	4	2	2	5.5	449.0
53273	residential	ENVIABLE LOCATION, PRISTINE PRESENTATION	975,000+	2022-01-28T10:46:36.895662+11:00	2022-02-02T14:54:06.670547+11:00	1/3 Tantangara Street	DUFFY	ACT	2611	149.0358608	-35.3391691	Townhouse	1083	Michael Potter Real Estate	Alisa Lawrence	3	2	2	6.0	
53275	residential	Looking for Style, Location, and Value?	Auction	2022-01-28T11:15:21.494089+11:00	2022-02-03T13:01:30.353438+11:00	42/24 Hartley Street	TURNER	ACT	2612	149.1278079	-35.2634798	Apartment	413	Luton Tuggeranong	Mina Etminan	2	2	2	6.0	
53286	residential	Tightly Held And Hard To Come By 	$360,000 +	2022-01-28T12:19:10.803310+11:00	2022-02-03T08:31:29.205719+11:00	9/1 Port Jackson Circuit	PHILLIP	ACT	2606	149.0947052	-35.3471251	Apartment	232	Ray White Canberra	Samuel Fitzsimmons	1	1	1	6.0	
53290	residential	Investment or first home? This property could be either!	$350,000+	2022-01-28T13:01:37.900013+11:00	2022-02-02T09:16:29.895718+11:00	22/120 Thynne Street	BRUCE	ACT	2617	149.0983895	-35.2438103	Apartment	233	LJ Hooker Gungahlin	Carly Clough	1	1	1	6.0	
53295	residential	Homely in Hawker	$357,000+	2022-01-28T13:31:20.672370+11:00	2022-02-03T15:01:39.841626+11:00	8/188 Hawker Place	HAWKER	ACT	2614	149.0436053	-35.242764	Apartment	629	Badenoch Real Estate	Symon Badenoch	1	1	1	6.0	
53305	residential	Resort Style Entertaining Available!	Auction	2022-01-28T14:55:10.070128+11:00	2022-02-01T20:16:28.587382+11:00	6 Chevalley Loop	GORDON	ACT	2906	149.0892769	-35.4459294	House	413	Luton Tuggeranong	Michael Martin	3	1	1	3.5	
53320	residential	Superb location & low-maintenance living!	Auction	2022-01-27T15:55:08.866289+11:00	2022-01-31T12:31:57.335830+11:00	11/15 Dickins Street	FORDE	ACT	2914	149.146135	-35.1730419	House	2746	Canberry Properties	Bob Zhuang	3	2	2	6.0	0.0
53323	residential	Nothing to do	Auction 23/02/2022	2022-01-31T04:57:00.084314+11:00	2022-01-31T05:05:47.335166+11:00	1/47 Clift	RICHARDSON	ACT	2905	149.1090299	-35.4273576	House	3305	The Real Estate Guy	John Tye	3	1	2	1.50	423.00
53324	residential	Relaxed living with the ultimate hobby space	Auction Thursday 17th February at 6pm	2022-01-31T08:33:10.598562+11:00	2022-02-05T14:31:35.885246+11:00	50 Chauncy Crescent	RICHARDSON	ACT	2905	149.1155445	-35.430695	House	684	McCann Properties	Mark McCann	4	1	6	4.00	796.00
53326	residential	If you have dollars, this makes cents! 	Offers over $525,000	2022-01-31T09:12:06.965505+11:00	2022-02-03T15:16:28.950785+11:00	32/75 Elizabeth Jolley Crescent	FRANKLIN	ACT	2913	149.1447447	-35.187663	Apartment	1190	Blackshaw Gungahlin	Thom Eriksson-Lake	3	2	2	6.00	
53328	residential	2-Bedroom apartments at the exquisite Mulberry development. Ready to move in March 2022.	$550,000 - $690,000	2022-01-31T09:04:31.922049+11:00	2022-02-01T11:16:23.679791+11:00	147/55 Dooring Street	DICKSON	ACT	2602	149.1336324	-35.2582011	Unit	1072	Independent Gungahlin	Rahul Mehta	2	2	1	6.00	
53333	residential	Neat as a pin!	Auction 19/02/22	2022-01-31T10:23:15.061080+11:00	2022-01-31T12:31:29.580731+11:00	7 Kanbi Place	NGUNNAWAL	ACT	2913	149.1096694	-35.1675128	House	409	Luton Gungahlin	Luke McAuliffe	3	2	2	4.5	350.0
53340	residential	When an idyllic location meets family-friendly living!	Auction	2022-01-31T11:35:31.778991+11:00	2022-02-01T18:46:31.323403+11:00	78 Gwen Meredith Loop	FRANKLIN	ACT	2913	149.1432903	-35.1979546	House	1190	Blackshaw Gungahlin	Michael Braddon	3	2	1	4.0	325.0
53345	residential	Secure and private two bedroom apartment with leafy outlook	$405,000+	2022-01-31T13:30:36.516190+11:00	2022-02-04T08:01:25.464707+11:00	17/38 Bootle Place	PHILLIP	ACT	2606	149.0960591	-35.3448276	Apartment	410	McGrath Canberra	Suzi Wells	2	1	1	3.5	83.0
53346	residential	Conveniently located spacious apartment among the treetops 	$510,000 - $540,000	2022-01-31T13:41:36.281807+11:00	2022-02-06T13:31:24.244754+11:00	5/20 De Burgh Street	LYNEHAM	ACT	2602	149.131532	-35.2573186	Unit	410	McGrath Canberra	Suzi Wells	2	2	2	6.00	15.00
53348	residential	New Door House and Land Packages 	By Negotiation	2022-01-31T13:42:18.667779+11:00	2022-02-01T13:31:40.630546+11:00	51 Devenish Street	TAYLOR	ACT	2913	149.1029615	-35.1465958	House	1534	New Door Properties	Gurjant Singh	4	2	1	6.0	250.0
53350	residential	A lifestyle of convenience	$360,000 +	2022-01-31T13:40:11.815098+11:00	2022-02-03T15:47:55.503005+11:00	5/153 Murranji Street	HAWKER	ACT	2614	149.041879	-35.2467654	House	702	Town Residential	Ajay Kumar	2	1	1	3.00	5541.00
53353	residential	This is the best apartment you will find!	$600,000+	2022-01-31T14:25:09.239419+11:00	2022-02-05T08:31:26.770512+11:00	163/395 Antill Street	WATSON	ACT	2602	149.1494168	-35.2478147	Apartment	233	LJ Hooker Gungahlin	Jeff Shortland	2	2	2	6.0	
53355	residential	Character-filled cottage in ideal location	AUCTION 24/02/2022 at 5:30pm	2022-01-31T14:36:38.554735+11:00	2022-02-03T10:16:28.489420+11:00	320 Goyder Street	NARRABUNDAH	ACT	2604	149.1392271	-35.342053	House	410	McGrath Canberra	Sam Taylor	3	1	2	0.0	
53359	residential	Impressive Family home with easy care surrounds 	Forthcoming Auction	2022-01-31T15:03:39.434369+11:00	2022-02-04T10:32:06.417601+11:00	6 Middleton Circuit	GOWRIE	ACT	2904	149.1053193	-35.4076492	House	2880	Confidence Real Estate	Anish Sebastian	4	2	2	1.5	
53373	residential	Unlimited possibilities! Appealing home on 1,006 m2 block in RZ2 zone, a short walk to Kippax Fair! 	Auction	2022-01-27T12:31:18.594137+11:00	2022-01-31T22:46:33.816119+11:00	6 Beaurepaire Crescent	HOLT	ACT	2615	149.0161993	-35.226569	House	273	Luton Dickson	Aniko and Peter Carey	3	2	3	1.0	
53374	residential	49/301. flemington road	Auction on Sunday 20th February 2022 at 12:30pm	2022-02-01T07:46:21.410826+11:00	2022-02-01T07:46:28.260944+11:00	49/301 Flemington Road	FRANKLIN	ACT	2913	149.1503528	-35.1896797	Apartment	2542	Hugo. Canberra	Hugo Mendez	1	1	1	6.0	
53379	residential	Modern Ground Floor Apartment with Spacious Sunny Courtyard	Offers over $390,000	2022-02-01T10:20:13.930470+11:00	2022-02-01T12:01:46.192492+11:00	167/60 College Street	BELCONNEN	ACT	2617	149.0700133	-35.242506	Apartment	232	Ray White Canberra	Treston Bamber	1	1	1	6.00	
53385	residential	Immaculately renovated family sanctuary in Amaroo	$1,050,000+	2022-02-01T11:06:08.104214+11:00	2022-02-01T12:46:30.732551+11:00	29 Dulverton Street	AMAROO	ACT	2914	149.128686	-35.1678259	House	2862	Stone Gungahlin	Jess Smith	4	2	2	4.5	449.0
53386	residential	Luxury townhouse just metres from Lonsdale Street	Online Auction 20/02/2022 at 10:45am	2022-02-01T11:06:07.969181+11:00	2022-02-04T13:01:31.567903+11:00	5/70 Henty Street	BRADDON	ACT	2612	149.1324725	-35.26821	Townhouse	2862	Stone Gungahlin	Jess Smith	3	2	3	5.5	
53387	residential	Immaculate townhome surrounded by local amenity	$678,000+	2022-02-01T11:30:30.356306+11:00	2022-02-04T10:46:27.195617+11:00	27/21 Bakewell Street	COOMBS	ACT	2611	149.0410239	-35.3176768	Townhouse	410	McGrath Canberra	Sam Taylor	3	2	2	6.00	
53395	residential	Home for all ages and Taste. 	 Auction	2022-02-01T13:02:42.267204+11:00	2022-02-04T16:46:42.014609+11:00	2 Garratt Street	WANNIASSA	ACT	2903	149.0866202	-35.39437789999999	House	2880	Confidence Real Estate	Anish Sebastian	4	2	2	2.00	
53396	residential	Functional Family Living Awaits	Auction Saturday 26 February 10:00am On Site	2022-02-01T13:28:44.054326+11:00	2022-02-03T15:46:36.390242+11:00	27 Poynton Street	HUGHES	ACT	2605	149.0960815	-35.3369781	House	599	Cream Residential	Chris Wilson	3	2	1	3.00	675.00
53397	residential	Elegant home with Care free Surrounds	779,000 +	2022-02-01T13:43:28.523041+11:00	2022-02-04T10:32:09.515370+11:00	13 Woodward Loop	TAYLOR	ACT	2913	149.1056879	-35.1517789	House	2880	Confidence Real Estate	Anish Sebastian	3	2	2	6.00	
53400	residential	white.wash	$630,000+	2022-02-01T14:02:17.404418+11:00	2022-02-03T21:31:30.480631+11:00	405/45 Furzer Street	PHILLIP	ACT	2606	149.0848491	-35.3439106	Apartment	618	home.by holly	Sally Strang	2	2	2	6.0	
53405	residential	Spacious 2-Bedroom apartment in a desirable location !	By Negotiation	2022-02-01T14:19:39.702973+11:00	2022-02-02T14:54:49.680283+11:00	41/68 HARDWICK CRESCENT	HOLT	ACT	2615	149.019269	-35.2203905	Apartment	636	Impact Properties	Lameh Mourad	2	2	1	6.0	
53413	residential	Generous family home in the friendly suburb of Amaroo 	Online Auction 20/02/2022 at 1:00PM	2022-02-01T15:09:00.834744+11:00	2022-02-03T18:31:30.208883+11:00	53 Katherine Avenue	AMAROO	ACT	2914	149.1339116	-35.1700159	House	2862	Stone Gungahlin	Jess Smith	4	2	2	4.5	599.0
53419	residential	Spectacular family home - perfect for extended families	Auction	2022-02-01T15:32:22.907507+11:00	2022-02-03T13:46:34.299726+11:00	61 Beattie Crescent	CHISHOLM	ACT	2905	149.1133918	-35.4214819	House	409	Luton Gungahlin	Matt Negline	7	3	2	0.0	746.0
53421	residential	House and Land Package With Quality Inclusions	$1,149,000+	2022-02-01T15:54:12.470132+11:00	2022-02-01T20:31:21.591737+11:00	204 Robin Boyd Cres	TAYLOR	ACT	2913	149.1029809	-35.147399	House	1534	New Door Properties	Gurjant Singh	4	3	2	6.00	426.00
53422	residential	Peaceful Rural Retreat with Panoramic Views	Auction 26/02/2022	2022-02-01T16:16:21.218863+11:00	2022-02-01T16:16:35.436999+11:00	200 Valley Drive	ROYALLA	NSW	2620	149.1813496	-35.5230595	House	232	Ray White Canberra	Cameron Whitnall	4	2	2		4.13
53424	residential	An Absolute Delight	Auction 26/02/2022	2022-02-01T16:28:08.642570+11:00	2022-02-03T14:16:57.893446+11:00	14 Capella Crescent	GIRALANG	ACT	2617	149.0917319	-35.2163711	House	639	Dwyer Dunn Property Consultants	Jo Maxwell	3	1	2	1.0	781.0
53430	residential	Double Storey House & Land Package	$988,000 +	2022-02-01T19:25:14.958020+11:00	2022-02-01T20:31:22.878849+11:00	11 Malcolm Cole Terrace	WHITLAM	ACT	2611	149.0449171	-35.2724576	House	1534	New Door Properties	Gurjant Singh	4	2	2	6.00	245.00
53432	residential	Charming Chapman 	Auction	2022-02-02T08:57:16.370411+11:00	2022-02-03T15:16:34.901649+11:00	1 Banvard Place	CHAPMAN	ACT	2611	149.0368645	-35.3549134	House	412	Luton Manuka	Miriana Cavic	4	2	0	1.50	999.00
53433	residential	Well-presented apartment in superior location	$608,000+	2022-02-02T08:46:39.584569+11:00	2022-02-04T11:16:28.242185+11:00	13/10 MacPherson Street	O'CONNOR	ACT	2602	149.1220478	-35.2636839	Apartment	410	McGrath Canberra	Natalie Kokic Schmidt	2	2	2	6.00	
53434	residential	Location, convenience and lifestyle	Auction 24/02/2022	2022-02-02T09:07:08.442189+11:00	2022-02-02T15:04:39.294011+11:00	38 Violet Terrace	JERRABOMBERRA	NSW	2619	149.168862	-35.4016427	House	232	Ray White Canberra	Georgia Mikic	3	2	1		335.0
53435	residential	Perfect Position!	Auction 23/2/22	2022-02-02T09:19:43.642389+11:00	2022-02-03T11:46:34.279351+11:00	2 Peppercorn Way	JERRABOMBERRA	NSW	2619	149.2129504	-35.3842743	House	624	Ian McNamee & Partners - Queanbeyan	Michael Edwards	4	2	2		378.00
53437	residential	Stylish apartment in the heart of the action	$425,000+	2022-02-02T09:42:15.063546+11:00	2022-02-04T09:46:40.051879+11:00	60/41 Clare Burton Crescent	FRANKLIN	ACT	2913	149.1490401	-35.1983081	Apartment	233	LJ Hooker Gungahlin	Jake Bunday	2	1	1	6.00	
53438	residential	Perfect home in family oriented quiet cul de sac	Online Auction 20/02/2022 at 11:30AM	2022-02-02T10:03:10.562952+11:00	2022-02-04T15:46:27.604993+11:00	9 Boelke Place	MACGREGOR	ACT	2615	149.0033836	-35.2074893	House	2862	Stone Gungahlin	Jess Doolan	3	2	2	5.5	438.0
53439	residential	A Townhouse That Meets All Your Needs.	Auction	2022-02-02T10:10:12.627518+11:00	2022-02-04T10:47:36.939630+11:00	32/15 John Cleland Crescent	FLOREY	ACT	2615	149.0587839	-35.2270172	Townhouse	623	Ray White Queanbeyan | Jerrabomberra	Brad O'Mara	3	2	2	5.50	
53440	residential	Investment opportunity	$369,000	2022-02-02T10:16:18.427033+11:00	2022-02-03T10:46:42.886899+11:00	7/8 Baudinette Circuit	BRUCE	ACT	2617	149.0922028	-35.2439852	Apartment	232	Ray White Canberra	Jake Battenally	1	1	1	6.0	0.0
53441	residential	Superb Five Bedroom, Three Bathroom Home plus Self-Contained Granny Flat and Garden Studio	Auction	2022-02-02T10:36:21.773549+11:00	2022-02-03T09:01:37.047999+11:00	14 Hamelin Crescent	NARRABUNDAH	ACT	2604	149.1372309	-35.3343303	House	412	Luton Manuka	Geraldine Collison	6	4	3	2.50	949.00
53442	residential	Stunning Single Level Family Home	Auction 26/02/2022	2022-02-02T10:51:20.304609+11:00	2022-02-02T17:31:32.956207+11:00	82 Wyndham Avenue	DENMAN PROSPECT	ACT	2611	149.0235555	-35.3059311	House	2300	VERV Property	Jason Roses	4	3	2	6.0	658.0
53444	residential	Modern . Central . Sophisticated	Auction	2022-02-02T11:16:20.718889+11:00	2022-02-02T11:16:53.260336+11:00	83/1 Rowland Rees Crescent	GREENWAY	ACT	2900	0.0	0.0	Townhouse	413	Luton Tuggeranong	Michael Martin	3	2	2	6.0	
53445	residential	Top Floor Apartment with Stunning Views	Auction 26/02/2022	2022-02-02T11:13:20.435098+11:00	2022-02-02T14:57:43.173917+11:00	148/61 John Gorton Drive	WRIGHT	ACT	2611	149.0391435	-35.3217467	Apartment	2300	VERV Property	Jason Roses	2	2	1	6.00	
53446	residential	CONVENIENCE AND COMFORT ON THE CITY'S EDGE	Auction 26/02/2022	2022-02-02T11:02:25.142074+11:00	2022-02-02T14:56:12.686511+11:00	18/80 Henty Street	BRADDON	ACT	2612	149.1326058	-35.2673488	Apartment	2300	VERV Property	Jason Roses	3	2	2	6.0	
53448	residential	Family home in lush surrounds	Auction	2022-02-02T11:11:02.175014+11:00	2022-02-03T11:46:52.046655+11:00	15 Nunan Crescent	OXLEY	ACT	2903	149.0810642	-35.41070029999999	House	435	LJ Hooker Tuggeranong	Andrew Curren	3	1	2	1.0	788.0
53449	residential	Lake Burley Griffin on your doorstep	Enquire Today	2022-02-02T14:51:00.953035+11:00	2022-02-03T15:31:37.192265+11:00	313/25 Edinburgh Ave	CITY	ACT	2601	149.1225765	-35.2849101	Apartment	1069	Crowthers	Tony Barker	1	1	1	6.00	
53450	residential	Convenience and lifestyle	Auction	2022-02-02T14:50:17.824495+11:00	2022-02-03T16:16:26.588511+11:00	3/14 Jevons Place	PAGE	ACT	2614	149.0559546	-35.2401389	Townhouse	411	Luton Kippax	Ben Oostermeyer	4	2	2	6.0	
