id	type	DescriptionTitle	PriceLabel	ListingDate	ReListingDate	Address	Suburb	State	PostCode	Property.lat	Property.lon	PropertyType	Agency.Id	Agency.Type	Agency.Name	Agent.Name	Beds	Baths	Cars	EER	PlotSize	Features
180223166	RENTAL_RESIDENTIAL	starlight	$500 per week	2022-01-01 13:00:07		87/20 Federal Highway	Watson	ACT	2602	-35.22883912	149.15479857	APARTMENT	577049	Agent	home.byholly	Tamara Davis	2	2	2	0	0	['ALLOCATED_CAR_SPACE']
180223129	RENTAL_RESIDENTIAL	elevation	$650 per week	2022-01-01 13:00:23		10 Callister Crescent	Theodore	ACT	2905	-35.4569471555461	149.118423958294	HOUSE	577049	Agent	home.byholly	Tamara Davis	3	3	2	2.5	0	[]
180222092	RENTAL_RESIDENTIAL	sunset.views	$650 per week	2022-01-01 13:32:02		90/29 Dawes Street	Kingston	ACT	2604	-35.31737821	149.14343025	APARTMENT	577049	Agent	home.byholly	Tamara Davis	2	2	2	6	0	[]
180203651	RENTAL_RESIDENTIAL	Fully Furnished Executive 2 Bedroom Apartment	$390 per week	2022-01-02 07:43:37		Ainslie Avenue	Braddon	ACT	2612	-35.27882849	149.13590536	APARTMENT	965719	PrivateLister	Private Lister		2	2	2		25632	['AIR_CONDITIONING', 'AIR_CONDITIONING_OTHER', 'ALARM', 'FULLY_FURNISHED']
180204235	RENTAL_RESIDENTIAL	Stylish Executive One Bedroom	$510 per week	2022-01-02 13:05:22		326/50 Eastlake Parade	Kingston	ACT	2604	-35.31366331	149.14652169	APARTMENT	552729	Agent	Rod Meates Property	Rod Meates	1	1	1			['AIR_CONDITIONING_SPLIT_SYSTEM', 'BROADBAND', 'DISHWASHER', 'DOUBLE_GLAZED_WINDOWS', 'HOPPER', 'INTERCOM', 'NETWORK_CABLING', 'SHOWER', 'SLAB_CONSTRUCTION']
180223231	RENTAL_RESIDENTIAL	North facing 3 bedroom penthouse on the 18th floor, unobstructed water views	$790 per week	2022-01-02 23:32:00		1806/4 Grazier Lane	Belconnen	ACT	2617	-35.24026196	149.07165482	APARTMENT	653132	Agent	Block Real Estate	Tim Mardiyants	3	3	4	7	0	['AIR_CONDITIONING', 'AIR_CONDITIONING_OTHER']
180222415	RENTAL_RESIDENTIAL	A spacious 2-bedroom apartment in the heart of Braddon. Cafes, dining and nightlife on your doorstep.	$680 per week	2022-01-02 23:32:32		216/1 Elouera Street	Braddon	ACT	2612	-35.27231365	149.13113931	APARTMENT	653132	Agent	Block Real Estate	Tim Mardiyants	2	2	2	6	0	['AIR_CONDITIONING', 'AIR_CONDITIONING_OTHER']
