id	type	DescriptionTitle	PriceLabel	ListingDate	ReListingDate	Address	Suburb	State	PostCode	Property.lat	Property.lon	PropertyType	Agency.Id	Agency.Name	Agent.Name	Beds	Baths	Cars	EER	PlotSize
67009	rental	solar passive home	$1100 NEG per week	2022-10-03T13:09:39.967200+11:00	2022-10-03T13:31:39.853781+11:00	10 Hakea Crescent	O'CONNOR	ACT	2602	149.1231467	-35.2576049	House	618	home.by holly	Tamara Davis	3	2	4	6.0	
67010	rental	revived family home	$860 per week	2022-10-03T14:04:20.161812+11:00	2022-10-04T12:18:28.386329+11:00	35 Liffey Circuit	KALEEN	ACT	2617	149.1037497	-35.23265749999999	House	618	home.by holly	Tamara Davis	4	2	5	4.0	
67012	rental	A Very Rare Opportunity Is Now Available To Rent This Luxurious Family Home In Bonner!	$1,000 per week	2022-10-04T09:25:10.965731+11:00	2022-10-04T12:43:09.905915+11:00	149 Ida West Street	BONNER	ACT	2914	149.1479074	-35.1538102	House	232	Ray White Canberra	Lauren Everett	5	3	2		
67014	rental	Easy Care - Three Bedroom Apartment	$510 - $520 per week	2022-10-04T09:57:46.609191+11:00	2022-10-04T12:08:12.526831+11:00	2d/4 Avoca Place	FISHER	ACT	2611	149.056089	-35.3609674	Apartment	599	Cream Residential	Josh Pilarski	3	2	1	0.0	
67016	rental	PARTLY FURNISHED ONE BEDROOM PLUS STUDY	$440 pw	2022-10-04T10:28:22.236267+11:00	2022-10-05T12:46:29.193286+11:00	14/1 Gungahlin Place	GUNGAHLIN	ACT	2912	149.136603	-35.1810373	Apartment	409	Luton Gungahlin	Sheree Plucinski	1	1	1	0.00	
67017	rental	TOP FLOOR PRESTIGIOUS CITY COMPLEX	$850 pw	2022-10-04T10:49:58.508778+11:00	2022-10-05T15:16:31.293728+11:00	702/2 Batman Street	BRADDON	ACT	2612	149.1356385	-35.2781547	Apartment	409	Luton Gungahlin	Sheree Plucinski	2	2	2		
67018	rental	Braddon Apartment	$650 per week	2022-10-04T10:51:53.537198+11:00	2022-10-04T12:30:03.866027+11:00	7/10 Ipima Street	BRADDON	ACT	2612	149.1318931	-35.2667887	Apartment	443	LJ Hooker Manuka	William Taylor	2	2	1		
67534	rental	POPULAR SUBURB OF BONNER	$675 pw	2022-10-04T11:55:43.966882+11:00	2022-10-05T12:16:26.300848+11:00	186 Mabo Boulevard	BONNER	ACT	2914	149.1476158	-35.1584145	House	409	Luton Gungahlin	Baljeet Kaur	3	2	2		
67537	rental	Centrally Located 1 Bedroom Unit	435/ Wk	2022-10-04T13:02:34.812329+11:00	2022-10-04T13:24:07.433964+11:00	14/57 Benjamin Way	BELCONNEN	ACT	2617	0	0	Apartment	436	LJ Hooker Dickson	Abby Langham	1	1	1	5.00	132.00
67539	rental	Exceptional North Facing Townhouse	$720 Per Week	2022-10-04T13:17:48.003250+11:00	2022-10-04T14:01:30.227586+11:00	1/17 Combo Court	HARRISON	ACT	2914	149.1527749	-35.201973	Townhouse	440	LJ Hooker Canberra City	Stacie Sheldrick	3	2	2		
67540	rental	Resort-style lifestyle	$450	2022-10-04T13:28:47.044189+11:00	2022-10-04T16:46:31.375084+11:00	14/14/60 John Gorton Drive 	COOMBS	ACT	2611	149.0403109	-35.3212112	Unit	2086	Real Estate Australia	Leasing Team	1	1	1		
67541	rental	cute as a button	$750 per week	2022-10-04T13:43:21.332095+11:00	2022-10-04T20:16:32.646951+11:00	97 Ebden Street	AINSLIE	ACT	2602	149.1472569	-35.2598721	House	618	home.by holly	Jamye Dudok	3	1	1	3.00	
67542	rental	Renovated home in a great location	$780 pw	2022-10-04T13:46:52.682466+11:00	2022-10-05T09:46:28.446567+11:00	23 Alawa Street	WARAMANGA	ACT	2611	149.0653014	-35.3487793	House	414	Luton Weston Creek & Molonglo Valley	Kayla Chesher	4	2	1	0.00	724.60
67545	rental	Well Maintained Family Home	$670 - $690 pw	2022-10-04T14:46:25.545460+11:00	2022-10-04T14:46:44.764312+11:00	42 Gallagher Street	KAMBAH	ACT	2902	149.065279	-35.38628720000001	House	513	My Morris	My Morris	4	1	2	2.0	840.0
67547	rental	Style and Convenience in Tuggeranong!	$400 per week	2022-10-04T14:48:17.290582+11:00	2022-10-04T15:16:33.255462+11:00	 71/142 Anketell Street	GREENWAY	ACT	2900	0	0	Apartment	629	Badenoch Real Estate	Lalita Chaplin	1	1	1		0.00
67549	rental	The Perfect Living to Location Ratio	$795 per week	2022-10-04T14:59:16.147142+11:00	2022-10-05T15:32:56.870943+11:00	43 Overall Avenue	CASEY	ACT	2913	149.0907903	-35.1742165	House	232	Ray White Canberra	Shona Curtis	4	2	2		
67555	rental	Stunning Views - Two Bedroom Top Floor Apartment	$700 per week	2022-10-04T15:31:48.361759+11:00	2022-10-05T11:33:27.347206+11:00	134/54 Printers Way	KINGSTON	ACT	2604	149.1460905	-35.3153832	Apartment	433	Maloney's Property	Ned Hibbert	2	2	2		
67556	rental	Six month lease only	$610 / Wk	2022-10-04T15:46:56.969828+11:00	2022-10-04T15:47:55.449744+11:00	5 Gore Street	HIGGINS	ACT	2615	149.0184399	-35.2301924	House	436	LJ Hooker Dickson	Judy Arnott	5	2	2		
67557	rental	Furnished, with treetop views - pack your bags and the place is all yours 	$950 per week	2022-10-04T15:55:24.130521+11:00	2022-10-05T12:46:32.974681+11:00	6/52 Macleay Street	TURNER	ACT	2612	149.1287757	-35.2666675	Apartment	618	home.by holly	Jackie Houghton	3	2	2	5.5	
67561	rental	Versatile Design	$480 Per Week	2022-10-04T16:46:42.803755+11:00	2022-10-04T16:47:28.854446+11:00	33/311 Anketell Street	GREENWAY	ACT	2900	149.0717123	-35.41979329999999	Unit	437	LJ Hooker Belconnen	Leasing Team	1	1	1		
67564	rental	Rural Four Bedroom Homestead	$1,450 per week	2022-10-04T17:57:59.488480+11:00	2022-10-05T13:31:50.033642+11:00	1127 Cotter Rd	STROMLO	ACT	2611	148.9883739	-35.3408144	House	433	Maloney's Property	Ned Hibbert	4	2	2		
67575	rental	GOLF COURSE VILLAS	$560 pw	2022-10-05T09:55:33.603465+11:00	2022-10-05T10:16:39.360154+11:00	3/6 Kudyera Place	NGUNNAWAL	ACT	2913	149.1193567	-35.174219	Townhouse	409	Luton Gungahlin	Sheree Plucinski	3	1	1	0.00	
67576	rental	Two Bedroom Apartment	$550 per week	2022-10-05T10:00:09.502739+11:00	2022-10-05T10:31:27.409274+11:00	313/38 Gozzard Street	GUNGAHLIN	ACT	2912	0.0	0.0	Apartment	4405	Premier Capital Properties	Leasing Agent	2	2	0		164.0
67588	rental	cosmopolitan.lifestyle	$1,200 per week 	2022-10-05T11:10:21.579746+11:00	2022-10-05T12:46:39.902563+11:00	339/26 Anzac Park	CAMPBELL	ACT	2612	149.1432419	-35.2887429	Apartment	618	home.by holly	Jackie Houghton	3	2	2		
67592	rental	2 Bedroom Unit Close To Parliamentary Triangle	$795 per week	2022-10-05T11:12:53.563392+11:00	2022-10-05T11:33:47.862862+11:00	117/32 Blackall Street	BARTON	ACT	2600	149.1368721	-35.3067487	Apartment	233	LJ Hooker Gungahlin	LJ Hooker Gungahlin	2	2	2		
67595	rental	CONVENIENT AND PERFECT 	$500 Per Week	2022-10-05T11:47:00.685348+11:00	2022-10-05T11:48:09.518382+11:00	22/28 Springvale Drive	HAWKER	ACT	2614	149.0431571	-35.2458985	Unit	437	LJ Hooker Belconnen	Leasing Team	2	1	1		
67596	rental	Low Maintenance Family Home	$590 per week	2022-10-05T11:34:08.435752+11:00	2022-10-05T15:32:42.912152+11:00	4 Higham Place	DUNLOP	ACT	2615	149.0161097	-35.1971097	House	232	Ray White Canberra	Shona Curtis	3	2	2		
67598	rental	Enjoy all Gungahlin amenities right at your doorstep 	$450 per week	2022-10-05T12:01:37.843748+11:00	2022-10-05T13:01:31.670753+11:00	115/100 Gungahlin Place	GUNGAHLIN	ACT	2912	149.134343	-35.186077	Apartment	2862	Stone Gungahlin	Amanda Tehle	1	1	1		
67601	rental	Well-appointed three-bedroom townhouse	$550 per week	2022-10-05T12:51:58.850293+11:00	2022-10-05T13:16:32.904092+11:00	25/44 Were Street	CALWELL	ACT	2905	149.1166657	-35.4368642	Townhouse	34	McIntyre Property	Lisa Konig	3	1	2		
67609	rental	Luxury apartment living with views	$580	2022-10-05T14:01:28.248436+11:00	2022-10-05T14:01:48.246633+11:00	115/2 Newchurch Street	COOMBS	ACT	2611	149.0416667	-35.3222446	Apartment	684	McCann Properties	Amber Jarvis	2	2	2	6.00	
67614	rental	Fabulous Family Home	$750 per week	2022-10-05T14:46:57.137200+11:00	2022-10-05T14:48:56.311486+11:00	47 Spalding Street	FLYNN	ACT	2615	149.0482445	-35.1997451	House	441	LJ Hooker Kippax	Jodie Cross	4	2	2	0.0	
67620	rental	WALK TO WORK FROM THIS APARTMENT!	$500 pw	2022-10-05T15:16:25.218093+11:00	2022-10-05T15:16:34.876724+11:00	118/98 Corinna Street	PHILLIP	ACT	2606	149.0886604	-35.3480519	Apartment	415	Luton Woden	Nadia Lourens	2	1	1	0.0	
67626	rental	Exceptional Two Bedroom Apartment in Grand Central Towers	$600 per week 	2022-10-05T16:01:31.129093+11:00	2022-10-05T16:02:19.881355+11:00	2005/15 Bowes Street	PHILLIP	ACT	2606	0	0	Apartment	34	McIntyre Property	Amanda Gordon	2	2	2		
67628	rental	Executive residence amidst lush gardens	$2,850 pw	2022-10-05T16:16:29.537746+11:00	2022-10-05T16:17:23.434502+11:00	18 Monaro Crescent 	RED HILL	ACT	2603	149.1258934	-35.32561130000001	House	626	Berkely Residential	The Asset Manager	4	2	3		
67632	rental	Comfortable Home in a Peaceful Crescent 	$590 Per Week	2022-10-05T16:17:32.658389+11:00	2022-10-05T16:19:29.625566+11:00	31 Tarrant Crescent	DUNLOP	ACT	2615	0	0	House	437	LJ Hooker Belconnen	Leasing Team	3	1	2		
67633	rental	Spacious Ground Floor 1 Bedroom Unit	$420.00 per week	2022-10-05T16:20:58.729289+11:00	2022-10-05T16:46:31.005251+11:00	9/47 McMillan Crescent	GRIFFITH	ACT	2603	0	0	Unit	412	Luton Manuka	Kim Paxton	1	1	1		
67635	rental	FAMILY HOME WITH LOVELY VIEWS	$850 per week	2022-10-05T16:46:25.392753+11:00	2022-10-05T16:46:56.696809+11:00	37 Holden Crescent	WANNIASSA	ACT	2903	149.0924942	-35.3939837	House	629	Badenoch Real Estate	Jayne Spice	4	2	2		0.00
67640	rental	Family Home - Excellent Location	$750 per week	2022-10-05T17:46:25.183079+11:00	2022-10-05T17:46:40.534149+11:00	15 Maurice Pl	GARRAN	ACT	2605	149.1012833	-35.3393394	House	433	Maloney's Property	Ned Hibbert	3	1	0		
