id	type	DescriptionTitle	PriceLabel	ListingDate	ReListingDate	Address	Suburb	State	PostCode	Property.lat	Property.lon	PropertyType	Agency.Id	Agency.Name	Agent.Name	Beds	Baths	Cars	EER	PlotSize
52067	residential	Modern Springbank Gem	Auction	2022-01-04T14:01:20.251690+11:00	2022-01-04T14:01:50.928659+11:00	48 Hanley Street	CASEY	ACT	2913	149.0949213	-35.1663595	House	409	Luton Gungahlin	Peter White	4	2	2	4.5	465.0
52074	residential	Town house living at its finest	Auction - $699,000+	2022-01-04T15:01:20.083178+11:00	2022-01-04T15:01:47.744742+11:00	33/363 Mirrabei Drive	MONCRIEFF	ACT	2914	149.1145616	-35.15361470000001	Townhouse	409	Luton Gungahlin	Peter White	3	2	2	6.0	
52077	residential	An Ideal Starter	Auction 25th Jan 2022	2022-01-04T15:16:21.647435+11:00	2022-01-04T15:16:35.000708+11:00	266 Wheeler Crescent	WANNIASSA	ACT	2903	149.0909697	-35.4016164	House	1784	Sadil Quinlan	Marc Sadil	3	1	0	0.50	804.00
52078	residential	Your Low-Maintenance, High-Yield Opportunity 	$320,000 +	2022-01-04T15:31:19.444185+11:00	2022-01-04T15:31:35.920062+11:00	116/41 Chandler Street	BELCONNEN	ACT	2617	149.0709502	-35.2394623	House	232	Ray White Canberra	Phyllis Tidmarsh	1	1	1	6.00	
52080	residential	A great opportunity not to be missed.	Forthcoming Auction - $399,000+	2022-01-04T15:46:21.997160+11:00	2022-01-04T15:46:28.252733+11:00	39 De Bortoli Street	GUNGAHLIN	ACT	2912	149.1521917	-35.18692	Townhouse	409	Luton Gungahlin	Nick Paine	1	1	1	3.50	
