id	type	DescriptionTitle	PriceLabel	ListingDate	ReListingDate	Address	Suburb	State	PostCode	Property.lat	Property.lon	PropertyType	Agency.Id	Agency.Name	Agent.Name	Beds	Baths	Cars	EER	PlotSize
60180	rental	BEAUTIFULLY PRESENTED HOME	$580 per week	2022-07-01T12:05:22.866479+10:00	2022-07-01T12:31:35.816337+10:00	18 Mobourne Street	BONNER	ACT	2914	149.1388199	-35.1606482	House	409	Luton Gungahlin	Sheree Plucinski	3	1	2	0.0	
60185	rental	RENOVATED FAMILY HOME	$700 per week	2022-07-01T12:05:50.069673+10:00	2022-07-01T16:16:27.676032+10:00	41 Whittell Crescent	FLOREY	ACT	2615	149.0500823	-35.2215488	House	411	Luton Kippax	Amber Smith	3	1	0		
60197	rental	SPACIOUS CITY APARTMENT	$650 per week	2022-07-01T12:05:18.830520+10:00	2022-07-01T16:01:50.725136+10:00	103/16 Moore Street	CITY	ACT	2601	149.1286187	-35.275924	Apartment	408	Luton Belconnen	Luton Belconnen	2	2	1		
60204	rental	FEELS LIKE HOME!	$510 per week	2022-07-01T12:05:49.946853+10:00	2022-07-01T16:16:24.579708+10:00	24 James Harrison Street	DUNLOP	ACT	2615	149.0175884	-35.1925066	House	411	Luton Kippax	Amber Smith	3	1	1		
60444	rental	NewActon South Fully Furnished One Bedroom Apartment 	$650 per week	2022-07-01T09:31:23.904963+10:00	2022-07-01T09:32:43.510658+10:00	G11/19 Marcus Clarke Street	CITY	ACT	2601	149.1248959	-35.2851644	Apartment	1069	Crowthers	Emily Marchant	1	2	1		
60446	rental	LAWSON - GATEWAY - BRAND NEW - CENTRALLY LOCATED	$810 per week	2022-07-01T09:45:18.293429+10:00	2022-07-01T10:01:27.130125+10:00	31/1 Nevertire Street	LAWSON	ACT	2617	149.0913447	-35.2337617	Townhouse	1784	Sadil Quinlan	Cara Horneman	4	2	2		
60448	rental	Double Storey 3 Bedroom Townhouse!	$700 Per Week	2022-07-01T10:01:21.830702+10:00	2022-07-01T10:01:40.930329+10:00	11/2 Pipeclay Street	LAWSON	ACT	2617	149.0873601	-35.2281706	Townhouse	2853	Bastion Property Group	Stephanie Traycevska	3	2	2	7.0	
60450	rental	Move in and Relax!	$490 per week	2022-07-01T10:11:11.905362+10:00	2022-07-01T11:02:14.070231+10:00	41/42 Lhotsky St	CHARNWOOD	ACT	2615	149.0319149	-35.2037182	Townhouse	433	Maloney's Property	Ned Hibbert	3	1	1		
60451	rental	One Bedroom Apartment in the SOHO Complex	$500 per week	2022-07-01T10:26:41.891426+10:00	2022-07-07T11:31:27.924448+10:00	47/10 Burke Street	KINGSTON	ACT	2604	149.1462924	-35.320661	Apartment	34	McIntyre Property	Tegan Ketels	1	1	1		
60453	rental	Great Location	$460 per week	2022-07-01T10:32:19.509642+10:00	2022-07-01T10:33:04.239489+10:00	215/17 Dooring Street	BRADDON	ACT	2612	149.1339014	-35.2611514	Apartment	437	LJ Hooker Belconnen	Leasing Team	1	1	1		
60457	rental	WELL PRESENTED AND AFFORDABLE	$470 per week	2022-07-01T10:49:50.647531+10:00	2022-07-06T11:01:23.601303+10:00	9/40 Fullerton Crescent	RICHARDSON	ACT	2905	149.1233397	-35.4338926	Townhouse	433	Maloney's Property	Ned Hibbert	3	1	1		
60458	rental	Spectacular Views!	$600 Per Week	2022-07-01T10:52:51.687315+10:00	2022-07-07T14:01:34.217686+10:00	807/102 Swain Street	GUNGAHLIN	ACT	2912	149.1316188	-35.1812308	Apartment	440	LJ Hooker Canberra City	Dannielle McSpeerin	2	2	1		
60459	rental	Elevated Sunlit Home At The Foot Of Mount Taylor	$700 per week	2022-07-01T10:51:18.103229+10:00	2022-07-07T11:02:27.515209+10:00	15 Brookman Street	TORRENS	ACT	2607	149.0894899	-35.3756478	House	232	Ray White Canberra	Helen West	3	1	1		
60460	rental	1 Bedroom Townhouse In Heart Of Harrison	$475 per week	2022-07-01T11:30:08.554630+10:00	2022-07-05T13:31:28.506382+10:00	40 Otway Street	HARRISON	ACT	2914	149.1531647	-35.1930014	Townhouse	233	LJ Hooker Gungahlin	LJ Hooker Gungahlin	1	1	1		
60461	rental	Low Maintenance Family Home	$620 per week	2022-07-01T11:43:48.151714+10:00	2022-07-07T11:16:32.663113+10:00	23 Ted Richards Street	CASEY	ACT	2913	149.0921196	-35.1707825	House	34	McIntyre Property	Miki Sant	3	2	2		
60463	rental	Contemporary One Bedroom Apartment	$450 Per Week	2022-07-01T11:32:48.003510+10:00	2022-07-06T10:47:09.666026+10:00	252/12 Limburg Way	GREENWAY	ACT	2900	149.0724163	-35.4199309	Apartment	410	McGrath Canberra	Nina Sikoulabot	1	1	1		
60466	rental	VIBRANT BELCONNEN LIFESTYLE	$480 per week	2022-07-01T12:05:23.005223+10:00	2022-07-01T12:31:27.757494+10:00	5/68 College Street	BELCONNEN	ACT	2617	149.068477	-35.24254579999999	Apartment	409	Luton Gungahlin	Sheree Plucinski	1	1	1	0.0	
60467	rental	BRAND NEW MULBERRY APARTMENT	$560 per week	2022-07-01T12:05:23.405263+10:00	2022-07-01T12:31:48.822341+10:00	401/55 Dooring Street	DICKSON	ACT	2602	149.1335527	-35.2582068	Apartment	409	Luton Gungahlin	Sheree Plucinski	2	1	1	0.0	
60468	rental	PERFECT LOCATION MODERN APARTMENT	$470 per week	2022-07-01T12:31:22.476187+10:00	2022-07-01T12:31:34.485411+10:00	715/120 Eastern Valley Way	BELCONNEN	ACT	2617	149.0735953	-35.240714	Apartment	409	Luton Gungahlin	Sheree Plucinski	1	1	1		
60470	rental	Comfort and Convenience	$450 Per Week	2022-07-01T12:44:03.251153+10:00	2022-07-05T17:46:24.092052+10:00	14/11 Wimmera Street	HARRISON	ACT	2914	149.1500607	-35.1995185	Apartment	440	LJ Hooker Canberra City	Tara Munro	1	1	1	0.0	
60471	rental	Two Stories, Double the Lake Views	$540 per week	2022-07-01T12:46:41.499492+10:00	2022-07-01T12:47:40.005143+10:00	37/1 Beissel Street	BELCONNEN	ACT	2617	149.0654328	-35.2356301	Apartment	437	LJ Hooker Belconnen	Leasing Team	2	1	2		
60473	rental	Inner City Perfection	$620/ Wk	2022-07-01T13:17:09.112961+10:00	2022-07-05T15:46:47.168677+10:00	3/80 Henty Street	BRADDON	ACT	2612	149.1326556	-35.2674308	Apartment	436	LJ Hooker Dickson	Eleni Edwards	2	2	2	0.0	
60475	rental	Leafy Lyneham	$580 per week	2022-07-01T14:31:23.568234+10:00	2022-07-01T14:31:40.675576+10:00	125 Brigalow Street	LYNEHAM	ACT	2602	149.1267584	-35.2498317	DuplexSemi-detached	629	Badenoch Real Estate	Jayne Spice	3	1	0		0.0
60478	rental	Furnished Unit with a View	$440 per week	2022-07-01T15:46:29.069406+10:00	2022-07-01T15:47:11.181226+10:00	28C/21 Beissel Street	BELCONNEN	ACT	2617	149.0651221	-35.2350205	Apartment	437	LJ Hooker Belconnen	Leasing Team	1	1	1		
60479	rental	Spacious one bedroom unit	$415 per week	2022-07-01T15:46:33.573730+10:00	2022-07-01T15:47:24.830419+10:00	142A Tillyard Drive	FLYNN	ACT	2615	149.042552	-35.1965832	Unit	437	LJ Hooker Belconnen	Leasing Team	1	1	1		
60480	rental	Fabulous 2 bed townhouse	$580 per week	2022-07-01T15:57:11.446989+10:00	2022-07-05T09:47:19.107917+10:00	6/1 Sexton Street	COOK	ACT	2614	149.0691689	-35.2560418	Townhouse	232	Ray White Canberra	Shona Curtis	2	1	2		
60488	rental	Townhouse Living, Walk to the City	$750 per week	2022-07-01T17:01:52.121979+10:00	2022-07-01T17:03:25.908972+10:00	18/55 Moore Street	TURNER	ACT	2612	149.1288975	-35.2707011	Townhouse	703	Bertram Ellis	Helen O'Callaghan	2	2	2		
60496	rental	Convenience close to the City	$470 to $500 per week	2022-07-01T17:02:55.711908+10:00	2022-07-05T15:46:29.273121+10:00	102/9 Watkin Street 	BRUCE	ACT	2617	149.0951482	-35.245189	Apartment	34	McIntyre Property	Tegan Ketels	1	1	1		
60497	rental	Large family home opposite parkland	Price on Application	2022-07-01T17:13:18.589018+10:00	2022-07-07T12:32:34.645571+10:00	70 Mary Gillespie Avenue	GUNGAHLIN	ACT	2912	0.0	0.0	House	232	Ray White Canberra	Shona Curtis	4	2	2	5.5	380.8
60511	rental	THE BEST OF BOTH WORLDS	$950 per week	2022-07-04T11:18:51.917299+10:00	2022-07-07T11:16:39.146470+10:00	1 Helman Close	GREENLEIGH	NSW	2620	149.2429881	-35.3632732	House	1191	Blackshaw Queanbeyan & Jerrabomberra	Queanbeyan Property Management	4	2	2		
60516	rental	MODERN, LARGE AND DELIGHTFUL FAMILY HOME 	$740 per week	2022-07-04T12:02:39.504891+10:00	2022-07-04T12:04:37.395049+10:00	59 Henry Sutton Circuit	DUNLOP	ACT	2615	149.0248932	-35.1880188	House	437	LJ Hooker Belconnen	Leasing Team	4	2	2		
60517	rental	Family home in an ideal location 	$580 per week	2022-07-04T12:02:41.339449+10:00	2022-07-04T12:04:50.317770+10:00	14/21 Cossington Smith Crescent	LYNEHAM	ACT	2602	149.1254214	-35.242369	Townhouse	437	LJ Hooker Belconnen	Leasing Team	3	1	1		
60518	rental	QUALITY AND CONVENIENT LIVING	$720 per week	2022-07-04T12:02:43.843176+10:00	2022-07-04T12:04:49.230670+10:00	133 Dumas Street	MCKELLAR	ACT	2617	149.0736178	-35.217087	House	437	LJ Hooker Belconnen	Leasing Team	3	2	2		
60520	rental	Premium Franklin home with popular park-side location	$920 per week	2022-07-04T12:29:22.022410+10:00	2022-07-08T14:01:28.806890+10:00	11 Ellinor Walker Street	FRANKLIN	ACT	2913	149.1424569	-35.2049778	House	2862	Stone Gungahlin	Kerry Robinson	4	2	2		
60537	rental	Studio Apartment - Partially Furnished	$350 per week	2022-07-04T13:05:16.766292+10:00	2022-07-08T10:16:28.820855+10:00	7/27 Coxen Street	HUGHES	ACT	2605	149.0925055	-35.3351768	Studio	599	Cream Residential	Josh Pilarski	0	1	0	0.0	
60539	rental	4 Bedroom Family Home With Pool (Maintenance Included)	$695 per week	2022-07-04T13:03:14.446389+10:00	2022-07-07T10:19:25.312753+10:00	60 MileHam Street	MACGREGOR	ACT	2615	149.0165578	-35.2103626	House	232	Ray White Canberra	Shona Curtis	4	2	2		
60540	rental	Braddon Living At It's Best!	$600 per week	2022-07-04T13:23:15.238467+10:00	2022-07-07T10:18:22.300127+10:00	11/80 Henty Street	BRADDON	ACT	2612	149.1326556	-35.2674308	Apartment	232	Ray White Canberra	Shona Curtis	2	2	2		
60541	rental	Central City Living	$645 p/w	2022-07-04T13:51:43.838250+10:00	2022-07-07T10:47:13.804431+10:00	113/39 London Circuit	CITY	ACT	2601	149.1268246	-35.2793791	Apartment	443	LJ Hooker Manuka	Leasing Consultant	2	2	1		
60542	rental	Beautiful Home in Convenient Location.	$830 pw	2022-07-04T14:02:17.680511+10:00	2022-07-04T14:03:35.498717+10:00	25 Hamelin Crescent	NARRABUNDAH	ACT	2604	149.1381954	-35.3342724	House	443	LJ Hooker Manuka	Leasing Consultant	3	2	1	0.0	
60543	rental	Luxury apartment - be quick!	$540 pw	2022-07-04T14:02:19.558007+10:00	2022-07-04T14:03:37.428052+10:00	44/11 Kerridge Street	KINGSTON	ACT	2604	149.1496433	-35.3134035	Apartment	443	LJ Hooker Manuka	Leasing Consultant	1	1	1		
60550	rental	Pool Views - 1 Bed + Study 	$420 per week	2022-07-04T15:12:14.187785+10:00	2022-07-07T10:19:02.110442+10:00	122/8 Baudinette Circuit	BRUCE	ACT	2617	149.0922924	-35.2439329	Unit	232	Ray White Canberra	Lauren Everett	1	1	1		
60551	rental	Style & Sophistication With Fantastic Lake Views	$530 pw	2022-07-04T15:31:26.918730+10:00	2022-07-04T15:31:41.720905+10:00	49/41 Blackall Street	BARTON	ACT	2600	149.1374041	-35.3064279	Apartment	443	LJ Hooker Manuka	Leasing Consultant	1	1	1	0.0	
60554	rental	Iskia in Campbell	$510 per week	2022-07-04T15:54:15.922501+10:00	2022-07-07T17:02:02.262569+10:00	 76/81 Constitution Avenue	CAMPBELL	ACT	2612	149.146012	-35.2920181	Apartment	629	Badenoch Real Estate	Paul Hunter	1	1	1		0.0
60555	rental	Lumi is Luminescent in Design and Planning	$510 Per Week	2022-07-04T16:02:49.710782+10:00	2022-07-04T16:04:41.982377+10:00	208/102 Swain Street	GUNGAHLIN	ACT	2912	149.1316188	-35.1812308	Apartment	440	LJ Hooker Canberra City	Dannielle McSpeerin	2	1	1		
60558	rental	Call This Lovely Cook Residence Home	$700 per week	2022-07-04T16:38:14.796404+10:00	2022-07-04T17:16:34.080965+10:00	16 Molloy Crescent	COOK	ACT	2614	149.0666687	-35.2574539	House	232	Ray White Canberra	Helen West	3	1	2		
60559	rental	Three Bedroom House in Narrabunda	$600 per week	2022-07-04T17:30:27.310909+10:00	2022-07-08T09:16:35.910283+10:00	60 Walker Crescent	NARRABUNDAH	ACT	2604	149.140214	-35.3339489	House	433	Maloney's Property	Ned Hibbert	3	1	1		
60561	rental	Enjoy The Beautiful Views!	$700 Per Week	2022-07-04T19:59:14.269946+10:00	2022-07-07T15:16:55.337115+10:00	118/11 Trevillian Quay	KINGSTON	ACT	2604	149.1466118	-35.3108977	Apartment	440	LJ Hooker Canberra City	Lagan Puri	2	2	2	6.0	
60566	rental	A home to enjoy the good life!	$640 per week	2022-07-05T09:45:33.308209+10:00	2022-07-07T12:01:25.721057+10:00	27 Warabin Crescent	NGUNNAWAL	ACT	2913	149.1043776	-35.1683282	House	2862	Stone Gungahlin	Amanda Tehle	3	2	1		
60567	rental	Well presented in Pearce	$600.00 per week 	2022-07-05T09:42:34.411582+10:00	2022-07-05T16:01:32.972423+10:00	79 MacFarland Crecent	PEARCE	ACT	2607	149.0782502	-35.3613345	House	413	Luton Tuggeranong	Airlie Jarratt	3	2	1	0.0	
60569	rental	Gorgeous 1 bedroom ground floor unit in the heart of it all!!	$510 /Wk	2022-07-05T09:35:36.011004+10:00	2022-07-08T12:31:38.535117+10:00	3/10 Ipima Street	BRADDON	ACT	2612	149.1318931	-35.2667887	Unit	436	LJ Hooker Dickson	Helena Kime	1	1	1	6.0	
60570	rental	Brand New, Modern Townhouse	$650 per week	2022-07-05T10:11:10.678097+10:00	2022-07-06T13:46:39.814692+10:00	87/60 Kingsland Parade	CASEY	ACT	2913	149.0967766	-35.1722308	Townhouse	437	LJ Hooker Belconnen	Leasing Team	2	2	2		
60572	rental	A DELIGHTFUL SURPRISE	$740.00	2022-07-05T10:46:25.531270+10:00	2022-07-05T10:46:36.916548+10:00	20/53 Elimatta Street	BRADDON	ACT	2612	149.1394514	-35.277365	Townhouse	273	Luton Dickson	Jess Tutt	3	2	0		
60575	rental	Lovely, Modern Townhouse	$760 per week	2022-07-05T11:05:20.407312+10:00	2022-07-09T12:31:45.213021+10:00	7/75 Bellhouse Crescent	MONCRIEFF	ACT	2914	149.1161724	-35.1573823	Townhouse	2046	Uplus Real Estate	Alan Lyu	4	2	2		
60578	rental	Ground floor, 2 Bedroom apartment	$520-$540/week	2022-07-05T11:23:13.745364+10:00	2022-07-06T17:46:29.647097+10:00	5/68 Hardwick Crescent	HOLT	ACT	2615	149.019269	-35.2203905	Apartment	441	LJ Hooker Kippax	Jodie Cross	2	2	1	3.0	
60585	rental	Large One Bedroom Unit	$560 / Wk	2022-07-05T12:16:21.115195+10:00	2022-07-05T12:16:48.477903+10:00	501/240 Bunda Street	CITY	ACT	2601	149.134405	-35.2816321	Apartment	436	LJ Hooker Dickson	Baily Stanley	1	1	1		
60587	rental	Great Quiet Complex	$500 - $520 per week	2022-07-05T12:16:30.861035+10:00	2022-07-05T12:17:13.675440+10:00	21/6 Kemsley Place	PEARCE	ACT	2607	149.0843376	-35.3629222	DuplexSemi-detached	439	LJ Hooker Kaleen	Lauren Toro	2	1	1	2.5	
60589	rental	Inner north 3-bedroom home.	$690	2022-07-05T12:46:24.867422+10:00	2022-07-05T12:46:42.359474+10:00	33a Berrigan Crescent	O'CONNOR	ACT	2602	149.1285514	-35.2579823	House	412	Luton Manuka	Andriana Vidovic	3	1	0		
60595	rental	SPACIOUS FOUR BEDROOM HOME	$900 per week	2022-07-05T13:31:22.759259+10:00	2022-07-05T13:31:34.871134+10:00	1 Xenica Street 	WRIGHT	ACT	2611	0.0	0.0	House	414	Luton Weston Creek & Molonglo Valley	Julia Venner	4	2	2	0.0	
60600	rental	Two Bedroom Apartment with Large Separate Study - IQ Complex - Braddon	$710 per week	2022-07-05T14:01:12.074007+10:00	2022-07-12T09:16:26.230211+10:00	502/51 Mort Street	BRADDON	ACT	2612	149.1315055	-35.2713766	Apartment	433	Maloney's Property	Ned Hibbert	2	2	2		
60602	rental	3 Bedroom 3 Bathroom Unit in Gungahlin CBD	$620 per week	2022-07-05T13:50:15.157237+10:00	2022-07-07T10:18:57.493633+10:00	72/2 Hinder Street	GUNGAHLIN	ACT	2912	149.1370419	-35.1846636	Apartment	232	Ray White Canberra	Helen West	3	3	2		
60608	rental	A Higher Quality of Living	$720 per week	2022-07-05T14:46:57.946930+10:00	2022-07-05T14:48:12.957055+10:00	17/15 Jumbuck Crescent	LAWSON	ACT	2617	149.089759	-35.2267692	Townhouse	437	LJ Hooker Belconnen	Leasing Team	3	3	2		
60612	rental	Huge One Bedroom Unit	$450 Per Week	2022-07-05T15:10:57.388992+10:00	2022-07-07T15:16:48.378841+10:00	8B Cobby Street	CAMPBELL	ACT	2612	149.1582931	-35.2816618	Unit	440	LJ Hooker Canberra City	Mel Kenyon	1	1	0		
60615	rental	Nishi 11th Floor Apartment Lake Facing 	$520 per week	2022-07-05T15:46:23.955342+10:00	2022-07-05T15:47:45.500404+10:00	1113/25 Edinburgh Avenue	CITY	ACT	2601	149.1225765	-35.2849101	Apartment	1069	Crowthers	Emily Marchant	1	1	1	8.0	
60617	rental	Three Bedroom Home in Waramanga	$650 per week	2022-07-05T16:13:11.379556+10:00	2022-07-08T15:16:43.252526+10:00	8A Woralul St	WARAMANGA	ACT	2611	149.061502	-35.3471503	House	433	Maloney's Property	Ned Hibbert	3	1	1		
60620	rental	Apartment in Perfect Location	$530 per week	2022-07-05T16:44:24.027301+10:00	2022-07-05T17:01:31.758527+10:00	110/15 Jardine Street	KINGSTON	ACT	2604	149.1420756	-35.3142711	Apartment	433	Maloney's Property	Ned Hibbert	2	1	1		
60621	rental	Ground Floor North Facing Unit	$500 per week	2022-07-05T17:39:10.617224+10:00	2022-07-06T11:02:01.390554+10:00	33/1 Playfair Place	BELCONNEN	ACT	2617	149.0714492	-35.2445063	Unit	437	LJ Hooker Belconnen	Leasing Team	2	1	1		
60625	rental	Inner North Luxury Living	$630 Per Week	2022-07-06T08:30:39.989212+10:00	2022-07-07T10:31:26.439502+10:00	18/18 Bradfield Street	DOWNER	ACT	2602	149.1452609	-35.243872	Apartment	410	McGrath Canberra	Nina Sikoulabot	2	2	1		
60627	rental	INNER NORTH STYLE	$420 per week	2022-07-06T09:00:23.212952+10:00	2022-07-07T17:01:57.723785+10:00	 52/40 Torrens Street	BRADDON	ACT	2612	149.1347118	-35.2715816	Apartment	629	Badenoch Real Estate	Jayne Spice	1	1	1		0.0
60628	rental	EXECUTIVE CAMPBELL APARTMENT	$850 per week	2022-07-06T09:06:19.025790+10:00	2022-07-07T17:01:29.179197+10:00	 46/1 Provan Street	CAMPBELL	ACT	2612	149.1441391	-35.2881414	Apartment	629	Badenoch Real Estate	Paul Hunter	3	2	2		0.0
60631	rental	GREAT LOCATION IN RED HILL	$350 / Wk	2022-07-06T09:55:29.567448+10:00	2022-07-06T12:01:40.642451+10:00	3/4 Nuyts Street	RED HILL	ACT	2603	149.130682	-35.3394686	Apartment	443	LJ Hooker Manuka	Leasing Consultant	2	1	1		
60633	rental	Great Central Location	$460 per week	2022-07-06T10:01:18.875373+10:00	2022-07-06T10:17:08.622827+10:00	605/74 Northbourne Avenue	BRADDON	ACT	2612	149.1305026	-35.275523	Apartment	232	Ray White Canberra	Christine Pfeiffer	1	1	1		
60638	rental	CONVENIENTLY LOCATED	$750.00	2022-07-06T10:31:22.760348+10:00	2022-07-06T10:31:31.816320+10:00	20 Holroyd Street	WATSON	ACT	2602	149.1552424	-35.2346137	House	273	Luton Dickson	Marleah Stratford	3	1	0	0.0	
60640	rental	Ground floor two bedroom unit 	$420 per week	2022-07-06T10:42:34.365907+10:00	2022-07-06T12:46:26.573441+10:00	3-9/11 Gerald Street 	QUEANBEYAN	NSW	2620	149.2265961	-35.3597778	Unit	412	Luton Manuka	Kim Paxton	2	1	1		
60643	rental	Family Friendly Forde	$860 per week 	2022-07-06T11:46:23.234226+10:00	2022-07-06T11:46:41.331539+10:00	9 Aida Ball Circuit	FORDE	ACT	2914	149.1493429	-35.17396859999999	House	2862	Stone Gungahlin	Amanda Tehle	4	2	2		
60644	rental	Lakeside Luxury	$520 per week	2022-07-06T11:37:54.829893+10:00	2022-07-07T10:17:03.500857+10:00	39/1 Limburg Way	GREENWAY	ACT	2900	149.0725193	-35.4193241	Apartment	34	McIntyre Property	Ellie Brault	2	2	1		
60645	rental	Enjoy The Views!	$490 Per Week	2022-07-06T11:40:11.952056+10:00	2022-07-07T15:16:44.469859+10:00	28/14 Hoolihan Street	DENMAN PROSPECT	ACT	2611	149.0317646	-35.3035436	Apartment	440	LJ Hooker Canberra City	Mel Kenyon	1	1	1		
60649	rental	2 Bedroom unit in Casey	$530/Week	2022-07-06T12:01:41.063780+10:00	2022-07-06T12:02:43.348633+10:00	92 Greg Urwin Circuit	CASEY	ACT	2913	149.1023596	-35.1559025	Townhouse	439	LJ Hooker Kaleen	Lauren Toro	2	1	1		
60651	rental	Right where you want to be!! 	$620 per week	2022-07-06T11:56:18.193065+10:00	2022-07-08T11:17:35.869973+10:00	35A/17 Chandler Street	BELCONNEN	ACT	2617	149.0702329	-35.2369297	Unit	437	LJ Hooker Belconnen	Leasing Team	3	2	2		
60652	rental	Look at this space	$850	2022-07-06T12:10:45.602206+10:00	2022-07-08T13:16:29.892140+10:00	45 Belconnen Way	WEETANGERA	ACT	2614	149.0493651	-35.2437903	House	439	LJ Hooker Kaleen	Maddy Eveleigh	5	2	8	1.0	1071.0
60658	rental	Two-bedroom apartment with golf course views	$520 per week	2022-07-06T12:46:24.363074+10:00	2022-07-06T12:46:39.763630+10:00	26/51 Leahy Close	NARRABUNDAH	ACT	2604	149.1434039	-35.3447304	Apartment	34	McIntyre Property	Lisa Konig	2	2	1		
60661	rental	Uptown living	$680 Per Week	2022-07-06T12:35:02.053490+10:00	2022-07-07T14:01:39.822371+10:00	54/2 Hinder Street	GUNGAHLIN	ACT	2912	149.1370419	-35.1846636	Apartment	440	LJ Hooker Canberra City	Brian Wang	3	3	2		
60664	rental	harris.classic	$650 per week	2022-07-06T13:31:23.187828+10:00	2022-07-06T13:31:42.706725+10:00	4 Harris Street	HACKETT	ACT	2602	149.1627348	-35.2438327	House	618	home.by holly	Jackie Houghton	3	1	1		
60669	rental	MODERN MACGREGOR	$600 per week	2022-07-06T14:07:20.543648+10:00	2022-07-06T14:46:25.045556+10:00	26  Stang Place	MACGREGOR	ACT	2615	149.0045909	-35.2051993	House	413	Luton Tuggeranong	Airlie Jarratt	3	1	1		
60672	rental	Modern Townhouse	$670 Per Week	2022-07-06T14:14:04.345534+10:00	2022-07-06T16:46:56.153789+10:00	27/9 Braybrooke Street	BRUCE	ACT	2617	149.0981667	-35.2448522	Townhouse	440	LJ Hooker Canberra City	Tara Munro	2	2	2	6.0	
60676	rental	Stunning Family Home in Great Location	$680 per week	2022-07-06T14:36:25.444656+10:00	2022-07-13T14:17:03.623873+10:00	32 Holford Street	TAYLOR	ACT	2913	149.1053193	-35.1524595	Townhouse	233	LJ Hooker Gungahlin	LJ Hooker Gungahlin	3	2	2		
60680	rental	FULLY FURNISHED EXECUTIVE APARTMENT	$570 pw	2022-07-06T14:56:11.813615+10:00	2022-07-07T11:31:25.550474+10:00	31/29 Dawes Street	KINGSTON	ACT	2604	149.143556	-35.3171339	Apartment	411	Luton Kippax	Emma Flenely	1	1	1		
60688	rental	Views for Days!	$450 per week	2022-07-06T16:01:47.057326+10:00	2022-07-07T14:16:25.252414+10:00	902/17 Dooring Street	BRADDON	ACT	2612	149.1339014	-35.2611514	Apartment	34	McIntyre Property	Amanda Gordon	1	1	1		
60689	rental	FABULOUS APARTMENT LIVING IN 'WILARA'	$490 per week	2022-07-06T16:04:49.052678+10:00	2022-07-07T15:01:31.842892+10:00	83/121 Easty St	PHILLIP	ACT	2606	149.0913956	-35.3468464	Apartment	433	Maloney's Property	Ned Hibbert	1	1	1		
60692	rental	Settle in at Southwell	$670 per week	2022-07-06T17:01:46.294411+10:00	2022-07-06T17:02:57.433607+10:00	31 Southwell Street	WEETANGERA	ACT	2614	149.0462611	-35.2478145	Townhouse	437	LJ Hooker Belconnen	Leasing Team	3	2	2		
60693	rental	Luxury Living	$630 per week	2022-07-06T17:04:07.962528+10:00	2022-07-12T12:46:50.675898+10:00	46/15 Irving Street	PHILLIP	ACT	2606	149.0862871	-35.3374794	Apartment	232	Ray White Canberra	Matthew Dowler	2	2	2		
60720	rental	LUXURY APARTMENT IN THE HEART OF BRADDON	$760 per week	2022-07-07T10:16:20.705195+10:00	2022-07-07T10:16:47.009973+10:00	503/35 Lonsdale Street	BRADDON	ACT	2612	149.1329423	-35.2708703	Apartment	2300	VERV Property	Charlie Evans	2	2	1		
60721	rental	One Bedroom Furnished Property in Barton	$640 per week	2022-07-07T10:08:15.993229+10:00	2022-07-08T16:16:40.389669+10:00	42/5 Burbury Cl	BARTON	ACT	2600	149.133449	-35.312375	Apartment	433	Maloney's Property	Ned Hibbert	1	1	1		
60724	rental	Spacious three bedroom free standing townhouse in quiet complex	$570 per week	2022-07-07T10:21:43.804365+10:00	2022-07-07T11:16:28.824987+10:00	3/11 Kater Close	MACARTHUR	ACT	2904	149.1331402	-35.4072254	Townhouse	34	McIntyre Property	Tegan Ketels	3	2	2		
60736	rental	5 bedroom home in the heart of Flynn	$850 Per Week	2022-07-07T11:49:38.243777+10:00	2022-07-13T17:31:27.737046+10:00	55 Blackwell Circuit	FLYNN	ACT	2615	149.0354478	-35.2065194	House	410	McGrath Canberra	Nina Sikoulabot	5	2	2		
60737	rental	Salt - Two Bedroom, Two Bathroom Apartment in Central Location	$650 per week	2022-07-07T12:01:11.853529+10:00	2022-07-15T16:16:47.793735+10:00	89/29 Dawes Street	KINGSTON	ACT	2604	149.143556	-35.3171339	Apartment	433	Maloney's Property	Ned Hibbert	2	2	2		
60738	rental	Neat and Tidy 3 Bedroom Home	$650 per week	2022-07-07T11:59:18.834036+10:00	2022-07-09T15:46:26.070160+10:00	80 Lawrenson Circuit	JACKA	ACT	2914	149.1297176	-35.1609231	House	233	LJ Hooker Gungahlin	LJ Hooker Gungahlin	3	2	1		
60739	rental	Furnished Property in the Heart of Kingston	$650 per week	2022-07-07T12:15:49.322387+10:00	2022-07-07T18:01:30.015966+10:00	40/21 Dawes Street	KINGSTON	ACT	2604	149.1425984	-35.3183146	Apartment	433	Maloney's Property	Ned Hibbert	1	1	1		
60746	rental	Fantastic Location!	$650 per week 	2022-07-07T12:56:07.059044+10:00	2022-07-07T14:16:29.052380+10:00	30 Rivers Street	WESTON	ACT	2611	149.0560442	-35.3317523	House	34	McIntyre Property	Amanda Gordon	3	1	1		
60758	rental	Bright one-bedroom apartment	$460 per week	2022-07-07T14:01:40.521001+10:00	2022-07-08T10:01:26.708776+10:00	10/37 Braybrooke Street	BRUCE	ACT	2617	149.1022556	-35.2407907	Apartment	34	McIntyre Property	Laura Grimes	1	1	1		
60759	rental	NATIONAL AWARD WINNING PROPERTY - BATACARA BRADDON	$950 per week	2022-07-07T14:19:08.636750+10:00	2022-07-13T17:01:31.905721+10:00	3/125 Lowanna Street	BRADDON	ACT	2612	149.132992	-35.2654478	Townhouse	1191	Blackshaw Queanbeyan & Jerrabomberra	Queanbeyan Property Management	3	2	2	6.5	
60765	rental	Stunning Apartment, Convenient Location!	$540 per week	2022-07-07T15:07:16.901427+10:00	2022-07-08T14:16:28.838471+10:00	4/4 Hardman Street	O'CONNOR	ACT	2602	149.1211508	-35.2648291	Apartment	232	Ray White Canberra	Lauren Everett	1	1	1		
60769	rental	Kingston Heritage Cottage	$550 per week	2022-07-07T15:42:25.260393+10:00	2022-07-08T10:31:32.219856+10:00	56 Kennedy Street	KINGSTON	ACT	2604	149.1449578	-35.3194795	House	629	Badenoch Real Estate	Jayne Spice	2	1	1		0.0
60772	rental	Three-bedroom family home available	$530-$570 per week	2022-07-07T15:47:02.780641+10:00	2022-07-07T15:48:29.611362+10:00	9 Cazaly Close	HOLT	ACT	2615	149.0144068	-35.2295948	House	441	LJ Hooker Kippax	Jodie Cross	3	1	0		
60773	rental	What a lifestyle!	$470 per week	2022-07-07T15:48:18.839979+10:00	2022-07-12T14:47:28.281458+10:00	 16/41 Hampton Circuit	YARRALUMLA	ACT	2600	149.1105502	-35.310599	House	629	Badenoch Real Estate	Jayne Spice	1	1	1		0.0
60775	rental	PICTURE PERFECT SEPARATE TITLE TOWNHOUSE	$650 pw	2022-07-07T16:02:25.894302+10:00	2022-07-08T15:31:27.434506+10:00	52 Bronhill Street	MONCRIEFF	ACT	2914	149.1108221	-35.1594022	Townhouse	409	Luton Gungahlin	Sheree Plucinski	3	2	1		
60776	rental	Resort Lifestyle in the Heart of Belconnen	$440 per week	2022-07-07T16:06:18.280725+10:00	2022-07-12T15:01:30.441187+10:00	 315/80 Chandler Street	BELCONNEN	ACT	2617	149.0705729	-35.2420241	Apartment	629	Badenoch Real Estate	Jayne Spice	1	1	1		0.0
60777	rental	A Beauty in Banks!	$670 per week	2022-07-07T16:16:25.143436+10:00	2022-07-07T16:16:50.498338+10:00	19 Smeaton Circuit	BANKS	ACT	2906	0.0	0.0	House	34	McIntyre Property	Lisa Konig	3	2	2		
60778	rental	Find Your Sanctuary	$850 Per Week	2022-07-07T16:06:05.893218+10:00	2022-07-07T17:02:23.362984+10:00	72/50 Ellenborough Street	LYNEHAM	ACT	2602	149.1274506	-35.2400502	Townhouse	440	LJ Hooker Canberra City	Tara Munro	3	2	2	0.0	
60779	rental	This Location is Simply Perfect	$630 Per Week	2022-07-07T16:06:08.397984+10:00	2022-07-07T17:46:28.667249+10:00	13/20 Bradfield Street	DOWNER	ACT	2602	149.1445295	-35.2444989	Apartment	440	LJ Hooker Canberra City	Dannielle McSpeerin	2	2	1		
60780	rental	Near new in ever growing Suburb!	$510 Per Week	2022-07-07T16:06:46.518543+10:00	2022-07-07T16:46:38.684902+10:00	144/41 Philip Hodgins Street	WRIGHT	ACT	2611	149.0330237	-35.3176022	Apartment	440	LJ Hooker Canberra City	Lagan Puri	2	2	2		
60781	rental	Looking for a place to call home?	$650 Per Week	2022-07-07T16:06:53.982445+10:00	2022-07-07T17:46:30.263103+10:00	276 Heagney Crescent	GILMORE	ACT	2905	149.1330817	-35.4147921	House	440	LJ Hooker Canberra City	Dannielle McSpeerin	3	2	2		
60782	rental	Neat as a Pin!	$565	2022-07-07T16:37:07.475214+10:00	2022-07-08T09:16:59.076191+10:00	21 Woollum Crescent	RIVETT	ACT	2611	149.0303945	-35.3462395	House	703	Bertram Ellis	Helen O'Callaghan	3	1	0		
60784	rental	Fully Furnished & Equipped minutes to the CBD!	$690 Per Week	2022-07-07T17:00:29.465488+10:00	2022-07-07T17:46:27.598968+10:00	506/74 Northbourne Avenue	BRADDON	ACT	2612	149.1305026	-35.275523	Apartment	440	LJ Hooker Canberra City	Lagan Puri	2	2	1	0.0	
60785	rental	Views you will love to wake up to!	$720 Per Week	2022-07-07T17:02:39.796242+10:00	2022-07-12T15:01:37.395762+10:00	512/21 Provan Street	CAMPBELL	ACT	2612	149.1429504	-35.2900392	Apartment	2853	Bastion Property Group	Stephanie Traycevska	2	2	2		
60787	rental	Sunny two storey townhouse	$630pw	2022-07-07T18:31:23.522370+10:00	2022-07-07T18:31:41.885772+10:00	50/4 Pearlman Street	COOMBS	ACT	2611	0.0	0.0	Townhouse	438	LJ Hooker Woden/Weston	Sarah Miller	3	2	1		
60792	rental	1 Bedroom Apartment With Courtyard	$430 per week	2022-07-08T09:16:48.691651+10:00	2022-07-08T09:17:42.986877+10:00	4/4 Thadoona Street	CRACE	ACT	2911	149.1088173	-35.2019163	Apartment	233	LJ Hooker Gungahlin	LJ Hooker Gungahlin	1	1	1		
60793	rental	Updated, Light Filled Family Home	$820 per week	2022-07-08T09:16:51.739905+10:00	2022-07-08T09:17:55.479854+10:00	5 Trumble Street	PEARCE	ACT	2607	149.0826745	-35.360614	House	233	LJ Hooker Gungahlin	LJ Hooker Gungahlin	4	2	2		
60796	rental	Beautifully Fully Renovated Four Bedroom Family Home	$850 - $900 per week	2022-07-08T09:57:08.895419+10:00	2022-07-28T12:23:35.484617+10:00	12 Clucas Place	BONYTHON	ACT	2905	149.0797377	-35.4285356	House	599	Cream Residential	Tim Miosge	4	2	2	0.0	
60797	rental	North Facing One Bedroom Apartment	$450 per week	2022-07-08T09:56:51.250018+10:00	2022-07-09T14:46:30.906171+10:00	35/303 Flemington Road	FRANKLIN	ACT	2913	149.1499769	-35.1891365	Apartment	233	LJ Hooker Gungahlin	LJ Hooker Gungahlin	1	1	1	6.0	
60801	rental	Stylish And Sophisticated!	$790 per week	2022-07-08T10:20:22.224826+10:00	2022-07-08T10:46:57.263408+10:00	17 Novar Street	YARRALUMLA	ACT	2600	149.0978752	-35.311526	House	232	Ray White Canberra	Helen West	3	2	2		
60805	rental	RESORT STYLE LIVING!	$520 per week	2022-07-08T11:01:25.168046+10:00	2022-07-08T11:01:51.265947+10:00	 151/81 Kennedy Street	KINGSTON	ACT	2604	149.1459784	-35.3191363	Apartment	629	Badenoch Real Estate	Paul Hunter	2	2	1		0.0
60809	rental	EXECUTIVE LIVING CLOSE TO TUGGERANONG CBD	$430 pw	2022-07-08T11:39:28.747622+10:00	2022-07-08T12:01:23.907911+10:00	39/58 Cowlishaw Street	GREENWAY	ACT	2900	149.0656423	-35.4137539	Unit	408	Luton Belconnen	Kaitlyn Gallagher	1	1	1	6.0	
60810	rental	Unique Executive Townhouse	$690 Per Week	2022-07-08T11:41:03.532983+10:00	2022-07-08T20:16:29.339406+10:00	78/2 Rouseabout Street	LAWSON	ACT	2617	149.0911939	-35.2281451	Townhouse	440	LJ Hooker Canberra City	Dannielle McSpeerin	3	2	3		
60811	rental	REALM PARK	$490 Per Week	2022-07-08T11:46:27.649867+10:00	2022-07-08T11:47:13.202279+10:00	30/5 Burbury Close	BARTON	ACT	2600	0.0	0.0	Apartment	440	LJ Hooker Canberra City	Lagan Puri	1	1	1	0.0	
60813	rental	SOUGHT AFTER SUBURB OF FORDE	$850 pw	2022-07-08T11:50:22.881273+10:00	2022-07-12T11:02:03.450274+10:00	24 Helen Leonard Crescent	FORDE	ACT	2914	149.1421653	-35.1665059	House	409	Luton Gungahlin	Baljeet Kaur	4	2	2		
60814	rental	Eclipses the Rest	$560 Per Week	2022-07-08T11:58:27.745398+10:00	2022-07-12T12:16:40.926730+10:00	55/136 Thynne Street	BRUCE	ACT	2617	149.0997362	-35.2422266	Apartment	440	LJ Hooker Canberra City	Tara Munro	2	2	1	6.0	
60815	rental	Split-Level Family Home	$780 per week	2022-07-08T12:01:58.586123+10:00	2022-07-08T12:03:31.840835+10:00	16 Villaret Street	HARRISON	ACT	2914	149.1564537	-35.2073614	House	232	Ray White Canberra	Shona Curtis	4	2	2		
60817	rental	Location, location, location	$720 Per Week	2022-07-08T12:16:34.867617+10:00	2022-07-08T12:17:46.493873+10:00	1 Maclean Street	CHISHOLM	ACT	2905	149.1260845	-35.4156468	House	440	LJ Hooker Canberra City	Dannielle McSpeerin	3	2	2		
60824	rental	Fabulous Four Bedroom Family Home	$1100	2022-07-08T13:16:56.561740+10:00	2022-07-12T18:01:27.139381+10:00	35  Barrallier Street	GRIFFITH	ACT	2603	149.1376571	-35.3262034	House	412	Luton Manuka	Andriana Vidovic	4	2	1		
60827	rental	Great Family Home Close To Walking Trails	$650 per week	2022-07-08T14:09:38.859657+10:00	2022-07-11T09:31:59.788075+10:00	5 Callister Crescent	THEODORE	ACT	2905	149.1191997	-35.4562008	House	233	LJ Hooker Gungahlin	LJ Hooker Gungahlin	3	2	2		
60830	rental	CLOSE TO SOUTHLANDS SHOPPING CENTRE	$350 per week	2022-07-08T14:30:34.776241+10:00	2022-07-14T15:47:53.435123+10:00	24a Aurora Close	MAWSON	ACT	2607	149.0950208	-35.3570941	House	629	Badenoch Real Estate	Paul Hunter	1	1	1		0.0
60832	rental	Top floor	$500 per week	2022-07-08T14:46:23.579491+10:00	2022-07-08T14:46:52.259072+10:00	127/14 Boolee Street	REID	ACT	2612	149.1382748	-35.2812281	Unit	831	Little Bird Properties	Maddison Hamilton	1	1	1		
60833	rental	IN THE HEART OF GUNGAHLIN	$410 pw	2022-07-08T14:57:20.466148+10:00	2022-07-12T11:01:57.322868+10:00	108/77 Gozzard Street	GUNGAHLIN	ACT	2912	149.1328845	-35.1819422	Apartment	409	Luton Gungahlin	Sheree Plucinski	1	1	1	7.0	
60834	rental	SINGLE LEVEL HOUSE	$690 pw	2022-07-08T14:57:19.646105+10:00	2022-07-12T11:01:34.188716+10:00	1/5 Morris Street	HIGGINS	ACT	2615	149.0273581	-35.229415	Townhouse	408	Luton Belconnen	Kaitlyn Gallagher	4	2	2		
60836	rental	LOW-MAINTENANCE, SUNNY LIVING IN MONCRIEFF	$650 pw	2022-07-08T15:19:24.854021+10:00	2022-07-12T11:02:05.560953+10:00	33/351 Mirrabei Drive	MONCRIEFF	ACT	2914	149.114508	-35.1551941	Townhouse	409	Luton Gungahlin	Baljeet Kaur	3	2	2	0.0	
60838	rental	SITUATED IN THE HEART OF GUNGAHLIN	$350 pw	2022-07-08T16:03:25.538104+10:00	2022-07-15T09:46:30.505954+10:00	3/57 Anthony Rolfe Avenue	GUNGAHLIN	ACT	2912	149.1341568	-35.1829977	Studio	409	Luton Gungahlin	Baljeet Kaur	1	1	0		
60843	rental	Neat, Attractive and Convenient	$530 per week	2022-07-08T16:30:59.799835+10:00	2022-07-13T11:31:29.113832+10:00	62/50 Wilkins Street	MAWSON	ACT	2607	149.0987177	-35.3687336	Townhouse	433	Maloney's Property	Ned Hibbert	3	2	1		
60846	rental	Inner City Living	$500 per week	2022-07-08T17:37:07.630614+10:00	2022-07-08T18:01:27.933383+10:00	17/2 Edinburgh Avenue	CITY	ACT	2601	149.1247781	-35.2831932	Apartment	232	Ray White Canberra	Helen West	1	1	1		
60850	rental	Functional Family Home with Pool	$800 - 820 pw	2022-07-09T13:21:05.659513+10:00	2022-07-11T16:16:29.498102+10:00	2 Lamble Place	OXLEY	ACT	2903	149.0799395	-35.4077616	House	513	One Agency Sandy Morris	Dakota Conrad	4	2	2		
60862	rental	Three Bedroom Single Level Townhouse 	$520 per week	2022-07-11T10:02:58.573637+10:00	2022-07-11T10:05:53.112331+10:00	3/1 Amess Place	BELCONNEN	ACT	2617	149.0697515	-35.2472399	Townhouse	437	LJ Hooker Belconnen	Leasing Team	3	1	1		
60864	rental	One Bedroom Apartment	$460 Per Week	2022-07-11T10:20:32.372960+10:00	2022-07-15T12:32:13.053454+10:00	60/64 Kings Canyon Street	HARRISON	ACT	2914	149.1489168	-35.2066013	Apartment	440	LJ Hooker Canberra City	Mel Kenyon	1	1	1	0.0	
60869	rental	Low Maintenance Living	$500 Per Week	2022-07-11T11:03:50.048396+10:00	2022-07-11T11:05:50.272548+10:00	8/60 Paul Coe Crescent	NGUNNAWAL	ACT	2913	149.1176937	-35.1799693	Townhouse	410	McGrath Canberra	Nina Sikoulabot	3	1	1		
60871	rental	Family home in a great location	$700 per week	2022-07-11T11:17:13.753595+10:00	2022-07-11T11:19:14.053169+10:00	67 Tazewell Circuit	NICHOLLS	ACT	2913	149.1034807	-35.1858777	House	437	LJ Hooker Belconnen	Leasing Team	4	2	2		
60873	rental	Three bedroom Magic!	$600/week	2022-07-11T11:32:10.882506+10:00	2022-07-11T11:33:55.871449+10:00	16 Shannon Circuit	KALEEN	ACT	2617	149.1043327	-35.2363567	House	439	LJ Hooker Kaleen	Maddy Eveleigh	3	1	2	4.5	796.0
60876	rental	Newly Renovated Beauty	$700 per week	2022-07-11T11:46:22.764538+10:00	2022-07-11T11:47:17.202733+10:00	21 Dookie Street	FARRER	ACT	2607	149.1091761	-35.3772154	House	1784	Sadil Quinlan	Cara Horneman	3	1	1		777.0
60877	rental	MacGregor Family Home	$650 Per Week	2022-07-11T12:04:36.506123+10:00	2022-07-12T10:16:29.040884+10:00	16 Ron Hoy Street	MACGREGOR	ACT	2615	149.0037355	-35.2066495	House	410	McGrath Canberra	Nina Sikoulabot	3	2	1		
60879	rental	Central fully furnished apartment overlooking parkland	$580 Per Week	2022-07-11T12:03:40.985646+10:00	2022-07-14T17:16:54.413758+10:00	10/19 Fawkner Street	BRADDON	ACT	2612	149.135146	-35.271175	Apartment	440	LJ Hooker Canberra City	Mel Kenyon	2	1	1	0.0	
60883	rental	Large And Beautiful Townhouse - 6 Month Lease Only	$750 per week	2022-07-11T13:16:10.814236+10:00	2022-07-12T10:32:01.689243+10:00	52/23 Wanderlight Avenue	LAWSON	ACT	2617	149.0900224	-35.2327331	Townhouse	232	Ray White Canberra	Amanda Howell	4	3	3		
60884	rental	Beautiful views with spacious living	$600pw	2022-07-11T13:18:24.294045+10:00	2022-07-14T11:46:29.183444+10:00	406/566 Cotter Road	WRIGHT	ACT	2611	149.0430114	-35.3250493	Apartment	438	LJ Hooker Woden/Weston	Sarah Miller	2	2	2	6.0	
60885	rental	Family Home Set On Large Block	$700 per week	2022-07-11T13:28:11.335391+10:00	2022-07-11T14:02:36.351588+10:00	43 May Maxwell Cresent	GILMORE	ACT	2905	149.1359974	-35.4140254	House	232	Ray White Canberra	Helen West	3	2	2		
60887	rental	Affordable Property in Exceptional Location	$400 per week	2022-07-11T13:50:19.907786+10:00	2022-07-15T16:16:43.153293+10:00	5/97 Monaro Cres	RED HILL	ACT	2603	149.131467	-35.3358289	Apartment	433	Maloney's Property	Ned Hibbert	2	1	1		
60889	rental	Neat and Tidy Family Home	$580 per week	2022-07-11T14:46:24.543705+10:00	2022-07-11T14:46:36.036915+10:00	20 Barlow Street	SCULLIN	ACT	2614	149.0378681	-35.2294165	House	414	Luton Weston Creek & Molonglo Valley	Pooja Poudel	3	1	2	0.0	
60892	rental	EXECUTIVE TOWNHOUSE	$570 pw	2022-07-11T15:23:02.672735+10:00	2022-07-13T11:46:25.659336+10:00	25A Negus Crescent	WATSON	ACT	2602	149.1613051	-35.2327386	Townhouse	411	Luton Kippax	Emma Flenley	2	2	2		
60893	rental	Watson 3-bedroom habitat.	$700	2022-07-11T15:46:24.470271+10:00	2022-07-11T15:46:36.202694+10:00	2 Stow Place	WATSON	ACT	2602	149.1510701	-35.238957	House	412	Luton Manuka	Andriana Vidovic	3	1	1		
60894	rental	Fabulous near new home.	$850	2022-07-11T15:46:24.487753+10:00	2022-07-11T15:46:36.821949+10:00	20 Shewcroft Street	WATSON	ACT	2602	149.1630485	-35.2317206	House	412	Luton Manuka	Andriana Vidovic	4	2	2		
60896	rental	Convenience in Kaleen	$680 Per Week	2022-07-11T15:55:47.307024+10:00	2022-07-14T11:16:45.033943+10:00	23 Bokhara Circuit	KALEEN	ACT	2617	149.1146475	-35.2284653	House	410	McGrath Canberra	Nina Sikoulabot	3	1	2	2.0	939.0
60898	rental	Updated family home	$620pw	2022-07-11T16:09:06.669253+10:00	2022-07-14T10:01:35.767400+10:00	52 Kambalda Crescent	FISHER	ACT	2611	149.0603477	-35.3660886	House	438	LJ Hooker Woden/Weston	Sarah Miller	3	1	0	0.0	731.4
60900	rental	Private Townhouse With Large Yard	$620 per week	2022-07-11T16:56:14.063095+10:00	2022-07-14T15:33:05.723507+10:00	10/71 Morrison Street	KAMBAH	ACT	2902	149.0705694	-35.3922785	House	232	Ray White Canberra	Helen West	3	1	1		
60904	rental	Great home in great location	$600pw	2022-07-11T17:55:04.398338+10:00	2022-07-15T12:02:23.077207+10:00	9 Darwinia Terrace	RIVETT	ACT	2611	0.0	0.0	House	438	LJ Hooker Woden/Weston	Sarah Miller	3	1	1	0.0	815.2
60906	rental	Welcome to 10 Edwin Hicks Way, Coombs.	$1299 per week	2022-07-11T19:37:25.817972+10:00	2022-07-12T09:47:28.655546+10:00	10 Edwin Hicks Way	COOMBS	ACT	2611	149.0340911	-35.312023	House	443	LJ Hooker Manuka	William Taylor	5	3	2		
60909	rental	One bedroom apartment in Kingston	$490 per week	2022-07-12T08:51:25.325570+10:00	2022-07-12T11:42:17.991129+10:00	15/27 Eastlake Parade	KINGSTON	ACT	2604	149.1459389	-35.3118113	Apartment	2207	Zango Private Listers	Private Lister	1	1	1	0.0	0.0
60910	rental	2 bed 2 bath Apartment	$680	2022-07-12T08:59:53.715299+10:00	2022-07-12T12:46:28.615053+10:00	78/53  Eyre Street	KINGSTON	ACT	2604	149.1456419	-35.3146357	Apartment	412	Luton Manuka	Andriana Vidovic	2	2	2		
60912	rental	2 Bedroom townhouse in quiet complex	$510	2022-07-12T10:02:00.429228+10:00	2022-07-12T10:03:35.085044+10:00	2/124 Kosciuszko Avenue	PALMERSTON	ACT	2913	149.1163671	-35.1959957	DuplexSemi-detached	233	LJ Hooker Gungahlin	LJ Hooker Gungahlin	2	1	1	0.0	
60915	rental	IMMACULATE TWO BEDROOM APARTMENT	$540 pw	2022-07-12T10:15:27.766266+10:00	2022-07-15T12:01:28.464826+10:00	116/311 Flemington Road	FRANKLIN	ACT	2913	149.1477471	-35.1881123	Apartment	409	Luton Gungahlin	Sheree Plucinski	2	2	1		
60917	rental	Bright sunny Living areas!	$560	2022-07-12T10:13:07.830993+10:00	2022-07-13T12:31:37.010411+10:00	9/46  Dooring St	DICKSON	ACT	2602	149.1341813	-35.2589878	Apartment	2086	Real Estate Australia	Leasing Team	2	2	0		
60918	rental	Low Maintenance Living in Nicholls	$495 / Wk	2022-07-12T10:14:17.366880+10:00	2022-07-14T12:16:37.220111+10:00	31/45 Freda Bennett Street	NICHOLLS	ACT	2913	149.1070491	-35.1794946	Townhouse	436	LJ Hooker Dickson	Eleni Edwards	2	1	1	0.0	
60923	rental	One Bedroom Apartment in a Great Location!	$460 Per Week 	2022-07-12T10:37:40.416054+10:00	2022-07-12T11:01:53.765069+10:00	288/1 Mouat Street	LYNEHAM	ACT	2602	149.1327576	-35.2485434	Apartment	410	McGrath Canberra	Nina Sikoulabot	1	1	1		
60926	rental	Make Banksii Your Home!	$480 Per Week	2022-07-12T11:04:13.602006+10:00	2022-07-13T11:16:38.678921+10:00	33/15 Bowman Street	MACQUARIE	ACT	2614	149.0692466	-35.2535812	Apartment	440	LJ Hooker Canberra City	Mel Kenyon	2	1	1		
60932	rental	Fully Furnished Living	$480 Per Week	2022-07-12T11:54:43.341952+10:00	2022-07-12T12:31:27.867309+10:00	71/68 College Street	BELCONNEN	ACT	2617	149.068477	-35.24254579999999	Apartment	410	McGrath Canberra	Nina Sikoulabot	1	1	1		
60933	rental	Two Bedroom in Belconnen	$560 per week	2022-07-12T11:54:43.061800+10:00	2022-07-12T14:16:28.744030+10:00	8C/68 College Street	BELCONNEN	ACT	2617	149.068477	-35.24254579999999	Apartment	410	McGrath Canberra	Nina Sikoulabot	2	2	2		
60934	rental	highstandard.highgate	$670 per week	2022-07-12T11:52:24.942343+10:00	2022-07-13T16:01:33.693619+10:00	128/264 City Walk	CITY	ACT	2601	149.1334837	-35.2824397	Apartment	618	home.by holly	Jackie Houghton	2	2	1	6.0	
60935	rental	Cosmopolitan Living	$500 Per Week	2022-07-12T11:57:41.840950+10:00	2022-07-15T12:31:59.724915+10:00	24/3 Gordon Street	CITY	ACT	2601	149.1245503	-35.282652	Apartment	440	LJ Hooker Canberra City	Taylor Sandford	1	1	1		
60936	rental	WELL MAINTAINED 2 BEDROOM TOWNHOUSE IN IDEAL LOCATION	$570 pw	2022-07-12T12:05:20.864819+10:00	2022-07-13T11:46:29.616286+10:00	8/26 Narryer Close	PALMERSTON	ACT	2913	149.1296078	-35.197396	Townhouse	409	Luton Gungahlin	Sheree Plucinski	2	1	1		
60937	rental	Four Bedroom Home	$620/ Wk	2022-07-12T12:30:10.103780+10:00	2022-07-12T13:46:59.889718+10:00	21 Bardsley Place	HOLT	ACT	2615	149.0097017	-35.2291562	House	439	LJ Hooker Kaleen	Mellissa Hines	4	1	2	0.0	
60939	rental	Beautiful Home in Soma Complex	$690 Per Week	2022-07-12T12:18:58.402642+10:00	2022-07-14T17:01:47.894915+10:00	20A Castan Street	COOMBS	ACT	2611	149.0421502	-35.3178175	Townhouse	440	LJ Hooker Canberra City	Mel Kenyon	3	2	2		
60941	rental	PERFECT FAMILY HOME!	$615 per week	2022-07-12T12:27:13.295826+10:00	2022-07-17T21:16:27.628777+10:00	14 Dagmar Berne Street	MACGREGOR	ACT	2615	149.0023032	-35.2159227	House	232	Ray White Canberra	Lauren Everett	3	1	1		
60943	rental	LARGE ENSUITE TOWNHOUSE!	$630 pw	2022-07-12T12:49:20.655126+10:00	2022-07-12T16:16:28.354600+10:00	2/74 Katherine Avenue	AMAROO	ACT	2914	149.1310633	-35.1693893	Townhouse	408	Luton Belconnen	Emma Flenley	3	2	2		
60944	rental	Superb Living in a Fantastic Location!	$430 per week	2022-07-12T13:14:12.625341+10:00	2022-07-13T11:01:28.830436+10:00	14/52 Bluebell Street	O'CONNOR	ACT	2602	149.1227348	-35.2634593	Apartment	599	Cream Residential	Josh Pilarski	1	1	1	0.0	
60945	rental	Prime position	$950pw	2022-07-12T13:19:00.322892+10:00	2022-07-14T12:01:44.539103+10:00	4 Birdwood Street	HUGHES	ACT	2605	149.0949605	-35.3301435	House	438	LJ Hooker Woden/Weston	Sarah Miller	4	2	2	2.0	910.0
60946	rental	5 Bedroom Family Home in Outstanding Location	$900 - $920 pw	2022-07-12T13:34:51.599263+10:00	2022-07-14T10:31:30.177729+10:00	11 Rounsevell Street	KAMBAH	ACT	2902	149.0475722	-35.3949968	House	513	One Agency Sandy Morris	Dakota Conrad	5	2	2		
60950	rental	Fabulous Location With Stunning Views	$440 per week	2022-07-12T14:16:25.850568+10:00	2022-07-12T14:16:55.836589+10:00	12/21 Wiseman Street	MACQUARIE	ACT	2614	0.0	0.0	Apartment	1784	Sadil Quinlan	Cara Horneman	1	1	1	6.0	
60952	rental	The Best of Bruce!	$500 per week	2022-07-12T14:30:19.736911+10:00	2022-07-14T16:01:30.697199+10:00	1 Paget Steet	BRUCE	ACT	2617	149.1010171	-35.2422868	Townhouse	629	Badenoch Real Estate	Paul Hunter	2	2	2		0.0
60956	rental	sunset.over.henty	$465 per week	2022-07-12T14:59:44.309260+10:00	2022-07-12T15:16:46.254897+10:00	4/62 Henty Street	BRADDON	ACT	2612	149.1324986	-35.2685322	Apartment	618	home.by holly	Tamara Davis	1	1	1	6.0	
60957	rental	on the fringe of nature	$530 per week	2022-07-12T15:02:00.791165+10:00	2022-07-12T15:03:35.423885+10:00	46 Tay Street	WATSON	ACT	2602	0.0	0.0	House	618	home.by holly	Jackie Houghton	2	1	1	6.0	197.0
60961	rental	LOFT APARTMENT ON TOP FLOOR IN THE ALBEMARLE TOWER	$600 per week	2022-07-12T15:46:22.932374+10:00	2022-07-12T15:46:32.662570+10:00	801/45  Furzer Street	PHILLIP	ACT	2606	149.0851006	-35.3437809	Apartment	414	Luton Weston Creek & Molonglo Valley	Julia Venner	2	2	2	6.0	
60963	rental	BE SURPRISED BY THE SIZE!	$490 per week	2022-07-12T15:46:41.120256+10:00	2022-07-12T15:48:09.661377+10:00	10B/21 Beissel Street	BELCONNEN	ACT	2617	149.0651221	-35.2350205	Apartment	437	LJ Hooker Belconnen	Leasing Team	2	2	1		
60967	rental	Furnished Unit Close to City Centre	$420 Per Week	2022-07-12T16:18:25.065928+10:00	2022-07-14T17:01:28.033819+10:00	37/24 Moore Street	TURNER	ACT	2612	149.1286976	-35.2745397	Apartment	440	LJ Hooker Canberra City	Lagan Puri	1	1	1		
60969	rental	Beautiful Family Home In MacGregor	$875 per week	2022-07-12T16:25:18.748997+10:00	2022-07-13T09:01:42.679553+10:00	4 Luther Place	MACGREGOR	ACT	2615	149.0157064	-35.2159463	House	232	Ray White Canberra	Helen West	4	2	3		
60970	rental	Fantastic Home, Ideal Location	$590	2022-07-12T16:36:05.637491+10:00	2022-07-18T16:46:34.856037+10:00	11/36 Sandover Circuit	AMAROO	ACT	2914	149.1271726	-35.174642	Townhouse	2086	Real Estate Australia	Leasing Team	3	2	2		
60972	rental	Cute Duplex	$400.00 per week	2022-07-12T16:51:38.898453+10:00	2022-07-18T13:31:26.111577+10:00	2/4 Macquoid Place	KAMBAH	ACT	2902	149.0742006	-35.3840038	DuplexSemi-detached	413	Luton Tuggeranong	Maggie Schirmer	1	1	1	0.0	
60973	rental	City Living in the Suburbs!	$500 Per Week	2022-07-12T16:54:00.367250+10:00	2022-07-14T17:16:37.531501+10:00	8/14 Macleay Street	TURNER	ACT	2612	149.1280805	-35.2710347	Apartment	440	LJ Hooker Canberra City	Taylor Sandford	1	1	1	0.0	
60978	rental	North-facing boutique living with sweeping views	$600 per week	2022-07-12T17:16:25.602482+10:00	2022-07-12T17:16:50.352364+10:00	5 Peg Minty	WESTON	ACT	2611	149.0555511	-35.3256393	Townhouse	414	Luton Weston Creek & Molonglo Valley	Julia Venner	2	1	2	4.0	
60980	rental	Spacious Home in Prime Location!	$650 Per Week	2022-07-12T19:33:07.527130+10:00	2022-07-14T19:31:29.807155+10:00	8/9 Gouldsmith Street	DUNLOP	ACT	2615	149.0311194	-35.1942827	House	440	LJ Hooker Canberra City	Grace Bowman	3	2	2		
60983	rental	Secluded Townhouse Located In Oxley	$500 per week	2022-07-13T08:26:22.858295+10:00	2022-07-18T13:31:30.641815+10:00	12/77 Newman Morris Circuit	OXLEY	ACT	2903	149.0763937	-35.4110679	Townhouse	413	Luton Tuggeranong	Airlie Jarratt	2	1	1	0.0	
60986	rental	Captivating Family Home with views over to Mount Taylor	$795 per week	2022-07-13T09:43:40.879680+10:00	2022-07-15T14:01:55.819020+10:00	9 Illingworth Street	WANNIASSA	ACT	2903	149.0802533	-35.3960665	House	34	McIntyre Property	Amanda Gordon	4	2	4		
60988	rental	Renovated Beauty	$670 per week	2022-07-13T09:47:32.398351+10:00	2022-07-13T09:49:24.343053+10:00	19 Ross Smith Crescent	SCULLIN	ACT	2614	149.0391903	-35.2389341	House	437	LJ Hooker Belconnen	Leasing Team	3	1	1		
60991	rental	New Apartment available in the highly sought after township of Googong! 	$450 pw	2022-07-13T10:28:19.768714+10:00	2022-07-19T13:31:28.172958+10:00	12/7 Courtney Street	GOOGONG	NSW	2620	149.2247943	-35.4198014	Apartment	624	Ian McNamee & Partners - Queanbeyan	Property Management	1	1	1		
60999	rental	Family Home Delight	$630 per week	2022-07-13T11:11:29.392489+10:00	2022-07-18T13:31:23.403127+10:00	55 Duggan Street	CALWELL	ACT	2905	149.1002519	-35.4409446	House	413	Luton Tuggeranong	Airlie Jarratt	3	2	1		
61003	rental	Suitable Family Home!	$1000 Per Week	2022-07-13T11:46:25.964787+10:00	2022-07-13T11:46:42.573660+10:00	33 Berents Street	STRATHNAIRN	ACT	2615	148.993947	-35.2259156	House	413	Luton Tuggeranong	Ky Cuschieri	4	2	2		
61005	rental	Wanting an amazing home two bedroom townhouse?	$620 Per Week	2022-07-13T11:31:58.738536+10:00	2022-07-14T17:16:42.682265+10:00	67/60 Kingsland Parade	CASEY	ACT	2913	149.0967766	-35.1722308	Apartment	440	LJ Hooker Canberra City	Grace Bowman	2	2	1		
61012	rental	Well Presented Townhouse 	$530.00 Per Week	2022-07-13T12:06:56.182698+10:00	2022-07-18T13:31:33.535715+10:00	65/12 Albermarle Place	PHILLIP	ACT	2606	149.0980892	-35.3474568	Townhouse	413	Luton Tuggeranong	Airlie Jarratt	2	2	1		
61034	rental	Conveniently located two bedroom house	$510 per week	2022-07-13T15:13:42.198238+10:00	2022-07-15T14:01:28.515075+10:00	18 Larkin Close	GORDON	ACT	2906	149.0836211	-35.4510005	House	34	McIntyre Property	Lisa Konig	2	1	1		
61037	rental	Beautiful Family Home	$700 per week	2022-07-13T15:44:34.060765+10:00	2022-07-19T10:16:30.214787+10:00	23 Mackinolty Street	SCULLIN	ACT	2614	149.0345738	-35.2382888	House	2300	VERV Property	Charlie Evans	3	1	1		
61038	rental	2 Bedroom Apartment in the Landmark	$700 per week	2022-07-13T15:39:22.057973+10:00	2022-07-18T12:17:00.345441+10:00	6/45 Blackall Street	BARTON	ACT	2600	149.1374552	-35.30780590000001	Apartment	433	Maloney's Property	Ned Hibbert	2	2	2		
61039	rental	Modern One Bedroom Apartment	$500 Per Week	2022-07-13T15:42:31.563241+10:00	2022-07-15T14:02:02.119821+10:00	175/1 Mouat Street	LYNEHAM	ACT	2602	149.1327576	-35.2485434	Apartment	440	LJ Hooker Canberra City	Taylor Sandford	1	1	1	0.0	
61045	rental	Family home in fantastic location!	$650 per week	2022-07-13T16:08:50.996653+10:00	2022-07-15T14:01:52.619228+10:00	45 Mullan Street	FADDEN	ACT	2904	149.1217338	-35.4008096	House	34	McIntyre Property	Lisa Konig	3	2	2		
61050	rental	Luxury Home With The Wow Factor!	Price On Application	2022-07-13T16:28:20.995980+10:00	2022-07-18T15:17:27.199527+10:00	40 Serventy Street	WRIGHT	ACT	2611	149.038137	-35.325425	House	232	Ray White Canberra	Christine Pfeiffer	4	2	2		
61052	rental	Proximity in Bruce	$410 per week	2022-07-13T16:42:20.328560+10:00	2022-07-14T16:01:28.467678+10:00	 42/21 Battye Street	BRUCE	ACT	2617	149.0975389	-35.2461509	Apartment	629	Badenoch Real Estate	Jayne Spice	1	1	1		0.0
61053	rental	Stunning Executive Family Living in Forde	$950 per week	2022-07-13T16:54:26.241406+10:00	2022-07-19T11:16:40.920817+10:00	33 Aida Ball Circuit	FORDE	ACT	2914	149.1501729	-35.172044	House	629	Badenoch Real Estate	Jayne Spice	5	3	2		0.0
61054	rental	North Facing Executive Living	$520 per week	2022-07-13T16:58:30.381257+10:00	2022-07-18T12:16:51.806618+10:00	74/22 Eyre Street	KINGSTON	ACT	2604	0.0	0.0	Apartment	433	Maloney's Property	Ned Hibbert	1	1	1		
61056	rental	Convenient Living	$370 per week	2022-07-13T17:06:19.575574+10:00	2022-07-14T15:32:46.856237+10:00	18/58 Bennelong Cresent	MACQUARIE	ACT	2614	149.059227	-35.2493337	House	232	Ray White Canberra	Lauren Everett	1	1	1		
61058	rental	Central Living!	$510 Per Week	2022-07-13T17:55:28.978349+10:00	2022-07-14T17:16:38.261108+10:00	402/222 City Walk	CITY	ACT	2601	149.1321402	-35.2803658	Apartment	440	LJ Hooker Canberra City	Mel Kenyon	1	1	0	0.0	
61066	rental	Furnished Townhome in Woden Town Centre	$600 - $620 pw	2022-07-14T09:12:55.467163+10:00	2022-07-19T12:16:27.167144+10:00	18/135 Easty Street	PHILLIP	ACT	2606	149.0916423	-35.3478276	Unit	513	One Agency Sandy Morris	Abbey Morris	2	2	1		
61067	rental	Move in ready	$700 per week	2022-07-14T09:16:19.180496+10:00	2022-07-14T09:32:06.015854+10:00	21 Lachlan Street	MACQUARIE	ACT	2614	149.0632616	-35.2527642	House	437	LJ Hooker Belconnen	Leasing Team	3	1	1		
61074	rental	Two Bedroom + Study. Beautiful Views!	$590 Per Week	2022-07-14T10:00:41.421518+10:00	2022-07-15T12:16:25.628348+10:00	14/2 McMichael Terrace	DENMAN PROSPECT	ACT	2611	149.0310014	-35.2994766	Apartment	2853	Bastion Property Group	Stephanie Traycevska	2	2	1		
61075	rental	A WINNER FROM FRONT TO BACK 	$750 per week	2022-07-14T09:49:11.604804+10:00	2022-07-15T13:16:56.773307+10:00	14 Muriel Stewart Circuit	BONNER	ACT	2914	149.1419635	-35.1621134	House	437	LJ Hooker Belconnen	Leasing Team	3	2	1		
61082	rental	EXECUTIVE STYLE LIVING IN 'THE GARDENS'	$670 per week	2022-07-14T10:42:22.619209+10:00	2022-07-19T11:16:29.424977+10:00	 11/21 Temperley Street	NICHOLLS	ACT	2913	149.0916437	-35.1839985	Townhouse	629	Badenoch Real Estate	Paul Hunter	4	2	2	2.5	0.0
61087	rental	TERRIFIC TOWNHOUSE IN GARRAN	$600 per week	2022-07-14T11:15:37.385997+10:00	2022-07-18T12:17:14.149622+10:00	9 Mackaness Place	GARRAN	ACT	2605	149.1063171	-35.3426133	Townhouse	433	Maloney's Property	Ned Hibbert	3	1	1		
61088	rental	Executive Hughes Townhouse	$900 per week	2022-07-14T11:30:19.196717+10:00	2022-07-19T11:01:38.294494+10:00	 1/12 Kitchener Street	HUGHES	ACT	2605	149.095521	-35.3338131	Townhouse	629	Badenoch Real Estate	Jayne Spice	4	2	2		0.0
61099	rental	Charming three bedroom townhouse in great location	$550 per week	2022-07-14T12:07:55.860908+10:00	2022-07-15T13:46:27.390807+10:00	5/15 Chipperfield Circuit	GORDON	ACT	2906	149.0903724	-35.4747033	Townhouse	34	McIntyre Property	Tegan Ketels	3	1	2		
61101	rental	Stylish family home	$680pw	2022-07-14T12:17:52.157488+10:00	2022-07-17T07:46:29.133651+10:00	55 Wunderly Circuit	MACGREGOR	ACT	2615	148.9993509	-35.2115509	House	438	LJ Hooker Woden/Weston	Sarah Miller	3	2	2		
61106	rental	WELL ESTABLISHED TRI-LEVEL TOWNHOUSE	$750 per week	2022-07-14T13:02:14.183646+10:00	2022-07-15T13:16:53.089654+10:00	25/128 Flemington Road	HARRISON	ACT	2914	149.1481672	-35.2072094	Townhouse	437	LJ Hooker Belconnen	Leasing Team	4	2	1		
61107	rental	4 Bedroom Townhouse In Central Location	$620 per week	2022-07-14T13:31:20.445282+10:00	2022-07-14T15:01:41.372003+10:00	1/4 Tauss Place	BRUCE	ACT	2617	149.0929466	-35.2386822	Townhouse	232	Ray White Canberra	Shona Curtis	4	2	2		
61111	rental	3 Bedroom Family Home - Please note that approval has been given to construct a Granny Flat in the backyard	$590 per week	2022-07-14T13:57:51.079616+10:00	2022-07-18T13:16:27.667652+10:00	3 Ballarat Street	FISHER	ACT	2611	149.0574339	-35.3630153	House	412	Luton Manuka	Kim Paxton	3	1	2	0.5	
61127	rental	Combining Old World Charm with Sustainable Contemporary Living	$620 per week	2022-07-14T15:49:15.972412+10:00	2022-07-14T15:52:50.307521+10:00	9 Vaughan Gardens	NARRABUNDAH	ACT	2604	149.1434887	-35.3317284	DuplexSemi-detached	433	Maloney's Property	Ned Hibbert	2	1	2		
61129	rental	The Bowery in Bruce	$675 per week	2022-07-14T15:54:28.910587+10:00	2022-07-19T11:01:38.947194+10:00	 75/114 Thynne Street	BRUCE	ACT	2617	149.0976062	-35.2444028	Townhouse	629	Badenoch Real Estate	Paul Hunter	3	2	2		0.0
61133	rental	APARTMENT PIZZAZZ!	$400 per week	2022-07-14T16:42:40.296039+10:00	2022-07-19T11:16:27.642083+10:00	 116/68 Hardwick Crescent	HOLT	ACT	2615	149.019269	-35.2203905	Apartment	629	Badenoch Real Estate	Paul Hunter	2	2	2		0.0
61134	rental	Great Family Home In An Ideal Location!	$520 per week	2022-07-14T16:42:40.435875+10:00	2022-07-19T11:16:44.868304+10:00	4 Absolon Place	MCKELLAR	ACT	2617	149.0738419	-35.2187041	House	629	Badenoch Real Estate	Paul Hunter	3	1	1		0.0
61141	rental	Marlu! Come And See For Yourself	$490 per week	2022-07-14T19:31:00.422845+10:00	2022-07-20T12:01:41.160056+10:00	1 Bed + Study 18/2 McMichael Terrace	DENMAN PROSPECT	ACT	2611	149.0310014	-35.2994766	Apartment	233	LJ Hooker Gungahlin	LJ Hooker Gungahlin	1	1	1		
61144	rental	Fully Furnished	$570 Per Week	2022-07-14T20:52:10.642294+10:00	2022-07-21T16:47:03.766306+10:00	317/1 Mouat Street	LYNEHAM	ACT	2602	149.1327576	-35.2485434	Apartment	440	LJ Hooker Canberra City	Brian Wang	1	1	1		
61149	rental	Stunning Harbour and Lake Views 	$790 pw	2022-07-15T09:56:33.331237+10:00	2022-07-19T14:16:26.176508+10:00	3/6 Trevillian Quay	KINGSTON	ACT	2604	149.1466348	-35.3112581	Apartment	412	Luton Manuka	Kim Paxton	1	1	1		
61151	rental	CONVENIENT TWO-BEDROOM TOWNHOUSE	$560 pw	2022-07-15T10:07:37.482859+10:00	2022-07-18T11:01:25.846558+10:00	44/351 Mirrabei Drive	MONCRIEFF	ACT	2914	149.114508	-35.1551941	Townhouse	408	Luton Belconnen	Kaitlyn Gallagher	2	1	1	7.5	
61155	rental	Lakefront Living	$600 per week	2022-07-15T10:43:14.749672+10:00	2022-07-18T15:02:11.389533+10:00	4/1 Kerridge Street	KINGSTON	ACT	2604	149.1484209	-35.3132845	Apartment	232	Ray White Canberra	Hannah Reading	1	1	1		
61156	rental	Make Founders Lane your home!	$520 Per Week	2022-07-15T10:50:51.005086+10:00	2022-07-18T09:47:12.719337+10:00	817/61 Cooyong Street	BRADDON	ACT	2612	149.1349208	-35.2775642	Apartment	440	LJ Hooker Canberra City	Grace Bowman	1	1	1		
61157	rental	Immaculate 3 Bedroom Family Home	$620 per week	2022-07-15T11:01:49.053867+10:00	2022-07-15T11:03:09.831082+10:00	17 Wirilda Street	RIVETT	ACT	2611	149.0424623	-35.3460209	House	232	Ray White Canberra	Helen West	3	1	2		785.0
61160	rental	Spacious & Stylish	$1,100 Per Week	2022-07-15T11:29:11.493316+10:00	2022-07-15T14:16:31.103959+10:00	2 McKinley Circuit	CALWELL	ACT	2905	149.103391	-35.433849	House	599	Cream Residential	Annetta Fiorese	4	2	2	0.0	
61163	rental	Lifestyle, Location and Privacy - Kingston Place	$590 per week	2022-07-15T11:47:15.781277+10:00	2022-07-21T09:46:44.318102+10:00	78/22 Eyre Street	KINGSTON	ACT	2604	149.1414999	-35.3173891	Apartment	433	Maloney's Property	Ned Hibbert	2	2	2		
61166	rental	Fabulous updated executive apartment-lakeview location !!	$720 per week	2022-07-15T12:44:57.066808+10:00	2022-07-15T13:16:34.251873+10:00	703/2 Marcus Clarke Street	CITY	ACT	2601	149.125988	-35.284707	Apartment	1784	Sadil Quinlan	Kay Stares	2	2	2		
61168	rental	Light Filled Apartment 	$590 per week 	2022-07-15T13:03:47.485322+10:00	2022-07-18T13:46:27.195194+10:00	204/107 Canberra Avenue	GRIFFITH	ACT	2603	149.1455298	-35.3215718	Apartment	413	Luton Tuggeranong	Maggie Schirmer	2	2	1		
61173	rental	Light Filled 3 Bedroom Home	$500 per week	2022-07-15T14:20:50.997671+10:00	2022-07-19T10:01:51.154366+10:00	33/19 Ashby Circuit	KAMBAH	ACT	2902	149.0667625	-35.3968048	Townhouse	34	McIntyre Property	Miki Sant	3	1	2		
61174	rental	Three bedroom home in quiet area	$550 per week	2022-07-15T14:31:24.074857+10:00	2022-07-15T14:31:36.811727+10:00	38 Hollows Circuit	MACGREGOR	ACT	2615	149.0013672	-35.2130535	House	34	McIntyre Property	Miki Sant	3	1	1		
61175	rental	Welcome to Kiara	$740	2022-07-15T14:22:50.855594+10:00	2022-07-18T11:47:10.553132+10:00	96/39 McIntyre	NARRABUNDAH	ACT	2604	149.1451239	-35.3323036	Apartment	443	LJ Hooker Manuka	William Taylor	2	2	2		
61176	rental	Wanting an amazing home in the heart of Casey?	$700 Per Week	2022-07-15T14:58:52.812689+10:00	2022-07-18T09:46:47.055208+10:00	93/60 Kingsland Parade	CASEY	ACT	2913	149.0967766	-35.1722308	Townhouse	440	LJ Hooker Canberra City	Mel Kenyon	3	2	2		
61178	rental	MUST SEE FAMILY HOME!	$680 pw	2022-07-15T15:15:44.431709+10:00	2022-07-19T12:01:27.362503+10:00	40 Sheaffe Street	HOLDER	ACT	2611	149.0416331	-35.3403765	House	415	Luton Woden	Justine Bailey	4	1	2	0.0	
61185	rental	Leafy, private and minutes to the light rail	$480 per week	2022-07-15T15:37:43.829644+10:00	2022-07-21T09:16:25.891673+10:00	18/41 Clare Burton Crescent	FRANKLIN	ACT	2913	149.1490065	-35.19826949999999	Apartment	410	McGrath Canberra	Nina Sikoulabot	2	1	1		
61190	rental	2 bed 2 bath Apartment	$680 pw	2022-07-15T16:10:37.836287+10:00	2022-07-18T13:16:25.447687+10:00	78/53 Eyre Street	KINGSTON	ACT	2604	149.1456419	-35.3146357	Apartment	412	Luton Manuka	Andriana Vidovic	2	2	2		
61191	rental	Fully Furnished 2 Storey, 3 Bedroom Family Home	$650 week	2022-07-15T16:16:23.339637+10:00	2022-07-15T16:16:38.445236+10:00	11 Andamooka Street	FISHER	ACT	2611	149.0485583	-35.3595342	House	412	Luton Manuka	Kim Paxton	3	2	1	0.0	
61192	rental	Ground floor two bedroom unit	$420 per week	2022-07-15T16:10:37.701107+10:00	2022-07-18T13:31:25.058612+10:00	3/11 Gerald Street	QUEANBEYAN	NSW	2620	149.226615	-35.3598375	Unit	412	Luton Manuka	Kim Paxton	2	1	1		
61197	rental	Garden Studio	$360 per week	2022-07-15T16:32:05.951387+10:00	2022-07-15T16:33:16.842055+10:00	59a Ligertwood Street	EVATT	ACT	2617	0.0	0.0	Apartment	232	Ray White Canberra	Katherine Gilks	1	1	2		
61198	rental	Stylish Apartment in Kingston	$720 per week	2022-07-15T16:32:57.028122+10:00	2022-07-21T17:16:30.228291+10:00	416/15 Kerridge Street	KINGSTON	ACT	2604	149.150362	-35.3135106	Apartment	34	McIntyre Property	Miki Sant	2	2	2		
61199	rental	Well presented in Pearce	$600.00 per week	2022-07-15T16:43:30.185948+10:00	2022-07-18T13:31:31.704711+10:00	79 Macfarland Crecent 	PEARCE	ACT	2607	149.0782502	-35.3613345	House	413	Luton Tuggeranong	Airlie Jarratt	3	2	1	0.0	
61201	rental	Peace and quiet with stunning views!	$700 Per Week	2022-07-15T16:39:12.605523+10:00	2022-07-22T13:46:40.232560+10:00	25 Tytherleigh Street	WANNIASSA	ACT	2903	149.089759	-35.3939471	House	440	LJ Hooker Canberra City	Brian Wang	3	1	1		
61202	rental	Marlu! Come See For Yourself!	$590 per week	2022-07-15T16:53:35.894921+10:00	2022-07-19T16:31:51.393989+10:00	84/2 McMichael Terrace	DENMAN PROSPECT	ACT	2611	149.0310014	-35.2994766	Apartment	233	LJ Hooker Gungahlin	LJ Hooker Gungahlin	2	2	1		
61208	rental	Walk to Amaroo Village and Schools	$650 per week	2022-07-17T10:58:44.396361+10:00	2022-07-20T12:17:00.705812+10:00	14 Mornington Street	AMAROO	ACT	2914	149.1313777	-35.1657197	Townhouse	233	LJ Hooker Gungahlin	LJ Hooker Gungahlin	3	2	1	6.0	
61209	rental	Modern comforts paired with convenience!	$550 Per week	2022-07-18T09:15:35.563825+10:00	2022-07-19T15:31:40.543701+10:00	1502/6 Gribble Street 	GUNGAHLIN	ACT	2912	149.1311572	-35.1818137	Apartment	410	McGrath Canberra	Nina Sikoulabot	2	1	1		
61210	rental	Convenient Living	$410 per week	2022-07-18T09:48:37.735540+10:00	2022-07-21T09:31:27.416986+10:00	146/21 Battye Street	BRUCE	ACT	2617	149.0975389	-35.2461509	Apartment	410	McGrath Canberra	Nina Sikoulabot	1	1	1		
61212	rental	Family Friendly Home 	$550 Per Week	2022-07-18T10:10:56.471982+10:00	2022-07-18T10:31:26.850667+10:00	130 Donald Road	QUEANBEYAN	NSW	2620	149.2234875	-35.3679195	House	410	McGrath Canberra	McGrath Canberra	3	1	2		651.0
61214	rental	Designer living in Narrabundah!	$940 Per Week	2022-07-18T10:26:36.928969+10:00	2022-07-22T11:46:30.507487+10:00	1/15 Lumeah Street	NARRABUNDAH	ACT	2604	149.1521468	-35.3346343	Townhouse	2853	Bastion Property Group	Stephanie Traycevska	3	2	2	6.0	
61216	rental	Family Home in Prime Location	$850 Per Week	2022-07-18T10:43:46.989576+10:00	2022-07-21T09:31:27.303520+10:00	50 Langtree Crescent	CRACE	ACT	2911	149.1125845	-35.2006074	House	410	McGrath Canberra	Nina Sikoulabot	4	2	2		
61217	rental	Low Maintenance Townhouse	$530 per week	2022-07-18T10:47:08.190876+10:00	2022-07-18T10:48:20.978043+10:00	2/42 Lhotsky Street	CHARNWOOD	ACT	2615	149.0302485	-35.2042014	Townhouse	437	LJ Hooker Belconnen	Leasing Team	2	1	1		
61221	rental	Family Home in a Quiet Location	$575 Per Week	2022-07-18T11:38:41.392726+10:00	2022-07-22T14:01:38.354806+10:00	15 Manna Close	PALMERSTON	ACT	2913	149.1186615	-35.1988412	House	440	LJ Hooker Canberra City	Mel Kenyon	3	1	2	0.0	
61222	rental	Low Maintenance Home In Great Location	$540 per week	2022-07-18T11:43:56.161692+10:00	2022-07-21T08:46:37.074799+10:00	25 Tungun Street	NARRABUNDAH	ACT	2604	149.1532235	-35.3276796	House	443	LJ Hooker Manuka	William Taylor	2	1	2	0.5	465.0
61224	rental	Three Bedroom home suitable for family living	Contact Agent	2022-07-18T11:49:40.006762+10:00	2022-07-21T15:01:29.295261+10:00	13A Nevile Place	LATHAM	ACT	2615	149.0307591	-35.2106831	House	413	Luton Tuggeranong	Ky Cuschieri	3	1	1		
61225	rental	Lovely functional family home in this highly sought after location	$680 per week	2022-07-18T12:12:30.283150+10:00	2022-07-21T12:01:29.688763+10:00	11 Woronora Street	KALEEN	ACT	2617	149.111553	-35.2144999	House	1784	Sadil Quinlan	Cara Horneman	3	1	2		
61226	rental	Executive Living in the Best Location	$820 per week	2022-07-18T12:09:59.252720+10:00	2022-07-21T10:01:27.618062+10:00	303/15 Provan Street	CAMPBELL	ACT	2612	149.1434214	-35.2898807	Apartment	1818	Knight Property Solutions	Samantha Knight	2	2	2		
61229	rental	Right in the heart of Woden!	$400	2022-07-18T12:34:14.225595+10:00	2022-07-25T11:31:27.040022+10:00	11/60 Callam Street	PHILLIP	ACT	2606	149.0892693	-35.3482402	Unit	415	Luton Woden	Luton Properties	1	1	1	0.0	
61230	rental	Stylish & Contemporary Townhouse 	$700 per week 	2022-07-18T12:55:46.701972+10:00	2022-07-21T14:46:49.969185+10:00	47/2 Rouseabout Street	LAWSON	ACT	2617	149.0905129	-35.2278748	Apartment	34	McIntyre Property	Amanda Gordon	3	3	3		
61231	rental	Excellent Kambah Lifestyle Location !!	$690 per week	2022-07-18T13:11:43.915976+10:00	2022-07-22T11:31:32.109105+10:00	47 Sinclair Street	KAMBAH	ACT	2902	149.0646151	-35.374122	House	1784	Sadil Quinlan	Kay Stares	3	2	2		
61235	rental	Brand new in the heart of Taylor	$600 Per Week	2022-07-18T14:01:38.511249+10:00	2022-07-18T14:03:14.076455+10:00	105 Sutherland Crescent	TAYLOR	ACT	2913	149.1088192	-35.1490427	Townhouse	440	LJ Hooker Canberra City	Grace Bowman	2	2	2		
61236	rental	Two Bedroom Apartment 	$520 per week	2022-07-18T14:01:53.248301+10:00	2022-07-18T14:03:43.561333+10:00	81/68 Hardwick Crescent	HOLT	ACT	2615	149.019269	-35.2203905	Apartment	437	LJ Hooker Belconnen	Leasing Team	2	2	2		
61238	rental	Convenient and easy care living at your fingertips 	$430 Per Week 	2022-07-18T14:12:44.895951+10:00	2022-07-21T12:01:28.768533+10:00	4/21 Wiseman Street	MACQUARIE	ACT	2614	149.0743575	-35.2526173	Unit	410	McGrath Canberra	Nina Sikoulabot	1	1	0	6.0	
61241	rental	Brand new three bedroom townhouse	$700 pw	2022-07-18T14:23:37.988259+10:00	2022-07-25T16:01:29.343658+10:00	31/18 Cornelius Street	COOMBS	ACT	2611	149.0463334	-35.3238627	Townhouse	414	Luton Weston Creek & Molonglo Valley	Julia Venner	3	2	1	4.5	
61244	rental	One Bedroom Fully Furnished in the City!!	$530 Per Week	2022-07-18T14:46:37.504272+10:00	2022-07-18T14:47:43.017173+10:00	521/74 Northbourne Avenue	BRADDON	ACT	2612	149.1305026	-35.275523	Apartment	440	LJ Hooker Canberra City	Brian Wang	1	1	1	6.0	
61245	rental	Perfectly Polished Living!	$690 per week	2022-07-18T14:48:12.223005+10:00	2022-07-19T10:02:27.759912+10:00	2 Sisely Street	MACGREGOR	ACT	2615	149.0036076	-35.2040191	House	232	Ray White Canberra	Shona Curtis	4	2	2	6.5	
61249	rental	Ross street, O'Connor - walking distance to ANU	$740 per week	2022-07-18T15:17:10.448253+10:00	2022-07-20T14:39:28.012809+10:00	4 Ross Street	O'CONNOR	ACT	2602	149.1176076	-35.2659661	House	2207	Zango Private Listers	Private Lister	3	1	2	0.0	0.0
61250	rental	Spacious Three Bedroom Townhouse	$650 Per Week	2022-07-18T15:40:10.958126+10:00	2022-07-22T14:01:30.788323+10:00	46/224 Flemington Road	HARRISON	ACT	2914	149.1513169	-35.1951294	Townhouse	440	LJ Hooker Canberra City	Brian Wang	3	2	1	5.0	
61254	rental	Beautifully Large Family Home	$900 per week	2022-07-18T15:52:12.908355+10:00	2022-07-23T08:31:30.503918+10:00	6 Penton Place	GILMORE	ACT	2905	149.1330369	-35.4124532	House	232	Ray White Canberra	Christine Pfeiffer	5	2	2		
61257	rental	AN ABUNDANCE OF SPACE!	$930 pw	2022-07-18T16:25:06.735646+10:00	2022-07-20T15:31:33.130877+10:00	93 Davenport Street	DICKSON	ACT	2602	149.1421877	-35.2528898	House	411	Luton Kippax	Emma Flenely	4	1	1		
61258	rental	Modern 1 Bedroom unit, excellent location!	$440 per week	2022-07-18T16:57:09.518722+10:00	2022-07-19T13:46:26.981258+10:00	67/27 Wiseman Street	MACQUARIE	ACT	2614	149.0740158	-35.2529388	Apartment	441	LJ Hooker Kippax	Jodie Cross	1	1	1		
61260	rental	Premium Location	$510 - $550 per week	2022-07-18T17:09:06.140709+10:00	2022-07-19T14:02:01.288500+10:00	96/10 Ipima Street	BRADDON	ACT	2612	149.1318931	-35.2667887	Apartment	441	LJ Hooker Kippax	Jodie Cross	1	1	1		
61264	rental	Freshly painted family home	$620pw	2022-07-18T22:29:47.655783+10:00	2022-07-19T18:01:31.770347+10:00	50 Wiburd Street	BANKS	ACT	2906	149.099355	-35.4695551	House	438	LJ Hooker Woden/Weston	Sarah Miller	3	1	2		
61267	rental	Woden Townhouse Living at its Finest!	$650 per week	2022-07-19T09:19:50.098278+10:00	2022-07-25T10:46:37.943514+10:00	2/102 Eggleston Crescent	CHIFLEY	ACT	2606	149.0809259	-35.3534102	Townhouse	599	Cream Residential	Annetta Fiorese	2	2	2	0.0	
61275	rental	EXECUTIVE LIVING	$420 per week	2022-07-19T10:36:20.071303+10:00	2022-07-19T11:16:39.168067+10:00	 39/7 Empire Circuit	FORREST	ACT	2603	149.1319983	-35.3161868	Apartment	629	Badenoch Real Estate	Paul Hunter	1	1	1		0.0
61276	rental	Central Belconnen Townhouse	$430 per week	2022-07-19T10:36:20.264306+10:00	2022-07-19T11:16:33.540941+10:00	 8/170 Totterdell st	BELCONNEN	ACT	2617	149.0600251	-35.2318446	Townhouse	629	Badenoch Real Estate	Paul Hunter	2	1	1		0.0
61279	rental	SPACIOUS AND STYLISH APARTMENT!	$570 per week	2022-07-19T11:00:24.293659+10:00	2022-07-19T11:16:28.258439+10:00	 17/188 Hawker Place	HAWKER	ACT	2614	149.0436053	-35.242764	Apartment	629	Badenoch Real Estate	Paul Hunter	2	2	2		0.0
61282	rental	Large Inner South Home in Desirable Location	$1250/wk	2022-07-19T11:50:20.099274+10:00	2022-07-21T15:16:33.445762+10:00	310 Goyder Street	NARRABUNDAH	ACT	2604	149.140214	-35.3417103	House	443	LJ Hooker Manuka	Leasing Consultant	4	3	2	4.0	
61285	rental	Apartment in the heart of Woden	$510 per week	2022-07-19T12:23:32.786822+10:00	2022-07-20T11:46:29.488710+10:00	57/15 Irving Street	PHILLIP	ACT	2606	149.0862871	-35.3374794	Apartment	412	Luton Manuka	Kesha Brahmbhatt	1	1	1	7.0	
61288	rental	Large and spacious three bedroom house + rumpus	$650 per week	2022-07-19T13:22:34.821793+10:00	2022-07-19T13:46:29.528230+10:00	7 Mewton Place	MELBA	ACT	2615	149.059227	-35.2091786	House	441	LJ Hooker Kippax	Jodie Cross	3	1	1	0.0	
61294	rental	Large Unit | Fantastic Location	$700 per week	2022-07-19T14:19:15.332535+10:00	2022-07-21T12:17:52.610230+10:00	1/6 Macleay Place	TURNER	ACT	2612	149.1279907	-35.2719414	Apartment	232	Ray White Canberra	Shona Curtis	2	2	2		
61296	rental	Great family home	$750 pw	2022-07-19T14:58:09.825146+10:00	2022-07-25T16:01:29.461801+10:00	239 Hindmarsh Drive	RIVETT	ACT	2611	149.040535	-35.3429547	House	414	Luton Weston Creek & Molonglo Valley	Pooja Poudel	4	2	2	0.0	
61297	rental	Delightful Downer Home in Great Location	$720 per week	2022-07-19T15:01:22.541310+10:00	2022-07-19T15:01:40.242214+10:00	55 Swinden Street	DOWNER	ACT	2602	149.14147	-35.2446851	House	1784	Sadil Quinlan	Kay Stares	4	1	2		
61299	rental	EASY LIVING, AFFORDABLE PRICE! 	$400 per week	2022-07-19T15:16:24.861886+10:00	2022-07-19T15:16:33.651610+10:00	8A/2 Keith Street	SCULLIN	ACT	2614	0.0	0.0	Unit	273	Luton Dickson	Dickson Property Management	2	1	1	0.5	
61301	rental	A REAL GEM	$680 pw	2022-07-19T15:30:54.363411+10:00	2022-07-20T12:16:34.408876+10:00	4 Neworra Place	GIRALANG	ACT	2617	149.0961264	-35.2118994	House	408	Luton Belconnen	Kaitlyn Gallagher	3	1	2		
61302	rental	Sun drenched home in sought after locale	$900 per week	2022-07-19T15:31:23.254062+10:00	2022-07-19T15:31:49.259014+10:00	12/44 Shackleton Circuit	MAWSON	ACT	2607	149.1023789	-35.3652716	Townhouse	831	Little Bird Properties	Maddison Hamilton	4	2	2	2.5	
61303	rental	Private family home in Fadden	$700 p/w	2022-07-19T15:29:45.643078+10:00	2022-07-20T11:32:21.311527+10:00	11 Courtice Close	FADDEN	ACT	2904	149.1212853	-35.3980463	House	435	LJ Hooker Tuggeranong	Amy Altmann	3	2	2		
61307	rental	Recently Renovated in Central Location	$480 per week	2022-07-19T15:39:12.464488+10:00	2022-07-21T12:17:43.855110+10:00	18 Blackham Street	HOLT	ACT	2615	0.0	0.0	House	232	Ray White Canberra	Lauren Everett	2	1	1		
61309	rental	Convenient Evatt Home!	$595 per week	2022-07-19T16:11:13.311196+10:00	2022-07-26T10:47:04.216963+10:00	7 Willis Street	EVATT	ACT	2617	149.0703449	-35.2054418	House	232	Ray White Canberra	Lauren Everett	3	2	2		
61321	rental	Expansive home with views to the Brindabellas 	$850 per week	2022-07-20T09:45:44.438906+10:00	2022-07-20T10:31:37.777604+10:00	3 Willyama Place	FLYNN	ACT	2615	149.0484238	-35.2035248	House	2394	Carter and Co Agents	Chloe Stanojevic	5	3	2		
61324	rental	Top Floor Apartment With Great Views	$610 per week	2022-07-20T09:50:26.842688+10:00	2022-07-20T12:01:35.000211+10:00	72/566 Cotter Road	WRIGHT	ACT	2611	0.0	0.0	Apartment	233	LJ Hooker Gungahlin	LJ Hooker Gungahlin	2	2	2		
61326	rental	Elevated Home with Gorgeous Views	$600 per week	2022-07-20T10:04:14.527942+10:00	2022-07-21T12:17:41.873093+10:00	26 Darcy Close	GORDON	ACT	2906	149.0828669	-35.4592984	Townhouse	232	Ray White Canberra	Helen West	3	1	2		
61334	rental	Great opportunity for families!	$650	2022-07-20T11:07:46.234786+10:00	2022-07-26T09:31:27.685578+10:00	30 Twamley Crescent	RICHARDSON	ACT	2905	149.1260845	-35.4285945	House	413	Luton Tuggeranong	Ky Cuschieri	3	1	3	3.0	
61340	rental	effortlessly.cool	$690 per week	2022-07-20T12:00:32.187335+10:00	2022-07-20T12:46:36.554489+10:00	16 Legge Street	DOWNER	ACT	2602	149.1401243	-35.2467147	House	618	home.by holly	Jamye Dudok	3	1	1	0.0	
61346	rental	Ground floor apartment in convenient location	$430 per week	2022-07-20T12:56:11.491207+10:00	2022-07-20T13:31:54.165144+10:00	1/33-35 Carinya Street	QUEANBEYAN	NSW	2620	149.2353417	-35.3471286	Unit	232	Ray White Canberra	Geniveve Condell	2	1	1		
61350	rental	Outstanding, Modern Townhouse	$675 pw	2022-07-20T13:19:20.229969+10:00	2022-07-21T11:31:28.991135+10:00	9/75 Bellhouse Crescent	MONCRIEFF	ACT	2914	149.1161724	-35.1573823	Townhouse	631	Maria Selleck Properties	Property Management Team	3	2	2		
61351	rental	Fully Furnished In The City 	$675 Per Week	2022-07-20T13:19:37.554452+10:00	2022-07-21T10:16:28.480606+10:00	505/222 City Walk	CITY	ACT	2601	149.1321402	-35.2803658	Apartment	410	McGrath Canberra	Nina Sikoulabot	2	2	1		
61352	rental	Beautiful family home	$550 Per Week	2022-07-20T14:01:33.659910+10:00	2022-07-20T14:02:09.902136+10:00	44 Tay Street	WATSON	ACT	2602	149.1683881	-35.2251768	Apartment	440	LJ Hooker Canberra City	Grace Bowman	3	1	1		
61353	rental	City Lifestyle, Modern Luxury	$520 Per Week	2022-07-20T14:01:37.785620+10:00	2022-07-20T14:02:16.748164+10:00	113/43 Currong Street North	BRADDON	ACT	2612	149.1367819	-35.2785418	Apartment	440	LJ Hooker Canberra City	Grace Bowman	1	1	1		
61357	rental	Stylish And Perfectly Positioned Apartment	$525 per week	2022-07-20T14:05:19.429831+10:00	2022-07-22T12:31:59.832130+10:00	44/10 Lonsdale Street	BRADDON	ACT	2612	149.1328465	-35.2745136	Apartment	232	Ray White Canberra	Matthew Dowler	1	1	1		
61361	rental	Warm and Cosy	$580	2022-07-20T14:33:18.359754+10:00	2022-07-26T13:46:35.000320+10:00	4 Phoenix Place	GIRALANG	ACT	2617	149.0935256	-35.2084463	House	439	LJ Hooker Kaleen	Maddy Eveleigh	3	1	2	0.0	752.0
61364	rental	FURNISHED APARTMENT IN THE HEART OF KINGSTON!	$650 per week	2022-07-20T15:00:20.371021+10:00	2022-07-26T11:31:32.192071+10:00	 23/4 Jardine Street	KINGSTON	ACT	2604	149.1401764	-35.3140392	Apartment	629	Badenoch Real Estate	Jayne Spice	2	2	1		0.0
61365	rental	Wonderfully Positioned	$810 per week	2022-07-20T15:01:24.691062+10:00	2022-07-20T15:01:31.005456+10:00	12 Dennes Place	LYONS	ACT	2606	0.0	0.0	House	413	Luton Tuggeranong	Maggie Schirmer	4	2	2		
61366	rental	Easy Care Lifestyle	$490 Per Week	2022-07-20T14:52:42.089607+10:00	2022-07-24T11:01:25.175342+10:00	2/29 Moonlight Avenue	HARRISON	ACT	2914	149.153739	-35.1902145	Apartment	2086	Real Estate Australia	Leasing Team	2	1	1		
61368	rental	Updated & Fully Furnished 1 bedroom unit!	$510.00 Per week	2022-07-20T15:03:34.167493+10:00	2022-07-22T15:31:29.572936+10:00	30/17 Medley Street	CHIFLEY	ACT	2606	149.0851063	-35.354705	Unit	436	LJ Hooker Dickson	Helena Kime	1	1	1		
61369	rental	Bright Two-Bedroom Townhouse	$550 per week	2022-07-20T15:32:09.935169+10:00	2022-07-20T15:32:55.416168+10:00	3/4 Bindaga Street	ARANDA	ACT	2614	149.0763527	-35.2562674	Townhouse	437	LJ Hooker Belconnen	Leasing Team	2	1	1		
61372	rental	A COMPLETE PACKAGE TO CALL HOME!	$600 pw	2022-07-20T15:32:09.698990+10:00	2022-07-27T11:46:22.737681+10:00	6 Gouldsmith Street	DUNLOP	ACT	2615	149.0305178	-35.1944059	House	411	Luton Kippax	Emma Flenely	3	2	2	4.5	
61373	rental	Spacious Three Bedroom Apartment 	$620 per week	2022-07-20T15:46:56.175773+10:00	2022-07-20T15:48:06.661832+10:00	35/13 Chandler Street	BELCONNEN	ACT	2617	149.0694467	-35.2374908	Apartment	437	LJ Hooker Belconnen	Leasing Team	3	2	2		
61375	rental	Ideal Three Bedroom Family Home	$690 - $800 pw	2022-07-20T16:05:51.318219+10:00	2022-07-21T15:01:50.581527+10:00	22 Laycock Place	HOLT	ACT	2615	149.0167146	-35.2205609	House	513	One Agency Sandy Morris	Dakota Conrad	3	1	3		
61377	rental	Exceptional Two Bedroom Apartment	$630 per week	2022-07-20T16:37:10.344105+10:00	2022-07-27T15:46:46.185884+10:00	706/17 Dooring St	BRADDON	ACT	2612	149.1339014	-35.2611514	Apartment	433	Maloney's Property	Northside Team	2	2	2		
61382	rental	Upper Class Living 	630.00 per week 	2022-07-20T22:22:42.560480+10:00	2022-07-20T23:01:26.235413+10:00	823/15 Bowes Street Street	PHILLIP	ACT	2606	149.0868669	-35.3441316	Apartment	2615	Waratah Estate Agents	Rental Team	3	2	1	5.0	
61391	rental	Spacious Fully Furnished One Bedroom Apartment 	$550 per week	2022-07-21T09:46:22.583161+10:00	2022-07-21T09:47:56.784543+10:00	2/8 Baudinette Circuit	BRUCE	ACT	2617	0.0	0.0	Apartment	1069	Crowthers	Emily Marchant	1	1	1		100.0
61393	rental	The Ultimate Family Home	$730 p/w	2022-07-21T09:44:49.209309+10:00	2022-07-26T11:46:59.728023+10:00	3 McDermott Street	KAMBAH	ACT	2902	149.0755008	-35.3918925	House	435	LJ Hooker Tuggeranong	Amy Altmann	4	2	1	1.0	
61396	rental	Stunning brand new, modern family home	$670 p/w	2022-07-21T09:46:27.574743+10:00	2022-07-27T11:01:51.382404+10:00	3A McDermott Street	KAMBAH	ACT	2902	149.0755008	-35.3918925	House	435	LJ Hooker Tuggeranong	Amy Altmann	3	1	1	7.0	
61419	rental	Fabulous in Forde!	$660 per week	2022-07-21T13:12:24.188309+10:00	2022-07-22T09:16:27.155905+10:00	 2/14 Aida Ball Circuit	FORDE	ACT	2914	149.1504196	-35.1741159	House	629	Badenoch Real Estate	Paul Hunter	4	2	2		0.0
61420	rental	Charm & Convenience in Dickson	$550 per week	2022-07-21T13:06:19.239237+10:00	2022-07-26T11:31:34.709091+10:00	11 Eady Street	DICKSON	ACT	2602	149.1508458	-35.25140409999999	House	629	Badenoch Real Estate	Paul Hunter	3	1	1		0.0
61421	rental	Belconnen Apartment Living - High Society	$520 per week	2022-07-21T13:12:24.408225+10:00	2022-07-26T11:16:30.582273+10:00	 1802/1 Grazier Lane	BELCONNEN	ACT	2617	149.0720581	-35.2402321	Apartment	629	Badenoch Real Estate	Paul Hunter	2	2	2		0.0
61423	rental	Fully Furnished and Equipped	$400 Per Week	2022-07-21T13:20:38.727955+10:00	2022-07-25T15:46:28.689411+10:00	27A Longstaff Street	LYNEHAM	ACT	2602	149.1235279	-35.2491091	Unit	410	McGrath Canberra	Nina Sikoulabot	1	1	0		
61431	rental	Beautiful Apartment With A View!	$500 per week	2022-07-21T14:37:48.417309+10:00	2022-07-28T15:16:38.921188+10:00	54/2 McMichael Terrace	DENMAN PROSPECT	ACT	2611	149.0310014	-35.2994766	Apartment	34	McIntyre Property	Ellie Brault	1	1	1		
61433	rental	Exclusive living in the heart of Canberra	$630 per week	2022-07-21T15:01:39.609760+10:00	2022-07-21T15:02:36.025654+10:00	520/20 Anzac Park	CAMPBELL	ACT	2612	0.0	0.0	Apartment	34	McIntyre Property	Laura Grimes	2	2	2		
61435	rental	Three Bedroom family home	$700 per week	2022-07-21T14:50:10.298729+10:00	2022-07-25T11:32:46.612660+10:00	22 Park Street	QUEANBEYAN	NSW	2620	149.2267308	-35.3541866	House	623	Ray White Queanbeyan | Jerrabomberra	Ray White Rentals	4	1	0		
61440	rental	Close to nature in Conder	$630 per week	2022-07-21T16:54:30.207115+10:00	2022-07-28T15:31:37.063100+10:00	8 May Vale Lane	CONDER	ACT	2906	149.1123154	-35.4667116	House	629	Badenoch Real Estate	Paul Hunter	4	2	2		0.0
61443	rental	Your fully-furnished Cul de sac cottage awaits you!	$550	2022-07-21T17:00:49.018510+10:00	2022-07-26T18:46:26.219314+10:00	17 Cleeve Place	GORDON	ACT	2906	149.0854544	-35.4631433	House	413	Luton Tuggeranong	Ky Cuschieri	2	1	1		
61460	rental	Spacious Four Bedroom Family Home	$750 Per Week	2022-07-22T10:25:45.820712+10:00	2022-07-25T15:46:29.076541+10:00	17 Ayrton Street	GUNGAHLIN	ACT	2912	149.1438475	-35.1836396	House	410	McGrath Canberra	Nina Sikoulabot	4	2	2		
61463	rental	Well Presented Two Bedroom Apartment	$420 per week	2022-07-22T11:15:13.957783+10:00	2022-07-25T20:31:24.479764+10:00	8/10 Irvine Street	WATSON	ACT	2602	149.1563027	-35.2388245	House	232	Ray White Canberra	Matthew Dowler	2	1	1		
61467	rental	Fantastic 1 Bedroom apartment at Southport on offer!	$440 p/w	2022-07-22T11:46:20.566758+10:00	2022-07-26T11:31:50.241841+10:00	237/325 Anketell Street	GREENWAY	ACT	2900	149.0725965	-35.4215659	Apartment	435	LJ Hooker Tuggeranong	Amy Altmann	1	1	1		
61474	rental	Large home with great views and leafy surrounds	$780 per week	2022-07-22T12:59:47.011609+10:00	2022-07-28T10:46:32.649907+10:00	10 Mitta Place	KALEEN	ACT	2617	149.1007003	-35.2186283	House	1784	Sadil Quinlan	Cara Horneman	4	2	2	1.0	1014.0
61476	rental	Great location on a quiet Street	$650pw	2022-07-22T13:16:29.020617+10:00	2022-07-22T13:17:02.905893+10:00	14 Leibnitz Place	ISABELLA PLAINS	ACT	2905	149.0890415	-35.4301405	House	438	LJ Hooker Woden/Weston	Sarah Miller	3	2	2		
61479	rental	Comfortable living	$470 per week	2022-07-22T13:47:19.204663+10:00	2022-07-22T13:49:06.862105+10:00	20/13 Thurlow Place	BELCONNEN	ACT	2617	0.0	0.0	Unit	437	LJ Hooker Belconnen	Leasing Team	2	1	1		
61480	rental	Luxury Living in the City	$850 Per Week	2022-07-22T13:48:42.221976+10:00	2022-07-26T15:31:30.577043+10:00	137/5 Donaldson Street	BRADDON	ACT	2612	149.1346273	-35.2758058	Townhouse	440	LJ Hooker Canberra City	Tara Munro	2	2	2		
61481	rental	Uptown Funky 1 Bedroom Apartment 	$480 per week	2022-07-22T14:02:04.574639+10:00	2022-07-22T14:03:49.006278+10:00	47/2 Hinder Street	GUNGAHLIN	ACT	2912	149.1370419	-35.1846636	Apartment	437	LJ Hooker Belconnen	Leasing Team	1	1	1		
61482	rental	Family Friendly Home	$650 per week	2022-07-22T13:53:22.361362+10:00	2022-07-26T11:03:18.557662+10:00	39 Jimmy Clements Cresent	BONNER	ACT	2914	149.1449242	-35.15633529999999	House	232	Ray White Canberra	Helen West	3	2	1		
61483	rental	Freshly painted 3 bedroom family home	$675.00	2022-07-22T14:03:40.157067+10:00	2022-07-25T11:17:07.424080+10:00	22 Mulleun Close	NGUNNAWAL	ACT	2913	149.1182803	-35.1759373	House	233	LJ Hooker Gungahlin	LJ Hooker Gungahlin	3	2	2	0.0	
61486	rental	Fantastic views	$640 per week	2022-07-22T14:31:22.065991+10:00	2022-07-22T14:31:29.863523+10:00	8/219A Northbourne Avenue	TURNER	ACT	2612	149.1314894	-35.2614318	Apartment	34	McIntyre Property	Miki Sant	2	2	2		
61490	rental	metropolitan.manhattan	$740.00 - $750.00 per week	2022-07-22T15:01:25.951763+10:00	2022-07-22T15:02:18.517998+10:00	1205/240 Bunda Street 	CITY	ACT	2601	149.134405	-35.2816321	Apartment	618	home.by holly	Jackie Houghton	2	2	1		
61492	rental	Fully Furnished Two Bedroom Apartment!	$780 Per Week	2022-07-22T15:05:42.274308+10:00	2022-07-27T15:31:28.374048+10:00	13/50 Lowanna Street	BRADDON	ACT	2612	149.1352573	-35.2614835	Apartment	2853	Bastion Property Group	Stephanie Traycevska	2	2	2		
61495	rental	Don't miss out on living in Denman Prospect	$490 Per Week	2022-07-22T15:31:32.201842+10:00	2022-07-22T15:32:09.845992+10:00	48/14 Hoolihan Street	DENMAN PROSPECT	ACT	2611	149.0317646	-35.3035436	Apartment	440	LJ Hooker Canberra City	Mel Kenyon	1	1	1		
61498	rental	Sophisticated Two Bedroom Kingsborough 	$690 pw	2022-07-22T15:55:35.671278+10:00	2022-07-29T13:31:28.574523+10:00	312/10 Parbery Street	KINGSTON	ACT	2604	149.1494321	-35.3168992	Apartment	412	Luton Manuka	Kesha Brahmbhatt	2	2	2		
61500	rental	Spacious living near the heart of Gunghalin 	$620 pw	2022-07-22T16:46:26.717455+10:00	2022-07-22T16:46:42.667318+10:00	20 Eckley Street	GUNGAHLIN	ACT	2912	149.1340059	-35.1818465	Townhouse	273	Luton Dickson	Jess Tutt	3	2	2		
61505	rental	Light Filled Townhouse 	$670 per week	2022-07-22T19:46:21.674460+10:00	2022-07-22T19:46:28.673731+10:00	2/45 Stockdale Street	DICKSON	ACT	2602	0.0	0.0	Townhouse	34	McIntyre Property	Amanda Gordon	2	2	2		
61518	rental	Leafy Watson 3 Bedroom Home	$695 per week	2022-07-25T09:31:22.526453+10:00	2022-07-25T09:31:58.713628+10:00	7 Rooth Place	WATSON	ACT	2602	149.1600877	-35.2383086	House	1784	Sadil Quinlan	Cara Horneman	3	1	1		
61519	rental	SPACIOUS FOUR BEDROOM HOME	$870 per week	2022-07-25T09:22:43.357059+10:00	2022-07-25T16:01:28.370977+10:00	1 Xenica Street	WRIGHT	ACT	2611	149.0319877	-35.3253013	House	414	Luton Weston Creek & Molonglo Valley	Luton Weston Creek & Molonglo Valley	4	2	2	0.0	
61522	rental	Prestigious Location with Spectacular Views	$1000 per week	2022-07-25T10:03:46.601842+10:00	2022-07-25T10:46:32.692109+10:00	49 Curlewis Crescent	GARRAN	ACT	2605	149.1131899	-35.3424486	House	599	Cream Residential	Annetta Fiorese	4	2	2	0.0	
61524	rental	Central Location! - Two bedroom townhouse 	$480 per week	2022-07-25T10:29:13.388384+10:00	2022-07-25T11:32:39.552634+10:00	16/94 Collett Street	QUEANBEYAN	NSW	2620	149.2334419	-35.3474338	Unit	623	Ray White Queanbeyan | Jerrabomberra	Ray White Rentals	2	1	1		
61532	rental	Quiet Serenity close to City	$600 per week	2022-07-25T11:47:20.802566+10:00	2022-07-25T15:17:00.112209+10:00	14 Avonley Road	MAJURA	ACT	2609	149.2068988	-35.2645378	House	623	Ray White Queanbeyan | Jerrabomberra	Ray White Rentals	2	1	2		
61533	rental	3 Bedroom Family home in Queanbeyan	$600 per week	2022-07-25T12:16:56.211561+10:00	2022-07-25T12:18:46.229356+10:00	42 Uriarra Road	QUEANBEYAN	NSW	2620	0.0	0.0	House	623	Ray White Queanbeyan | Jerrabomberra	Ray White Rentals	3	1	3		
61534	rental	Great 2 Bedroom Apartment - Available Now!	$550 p/w	2022-07-25T12:25:37.905725+10:00	2022-07-28T20:01:29.696778+10:00	210/325 Anketell Street	GREENWAY	ACT	2900	149.0717123	-35.41979329999999	Apartment	435	LJ Hooker Tuggeranong	Amy Altmann	2	2	1		
61544	rental	Magnificent Mayfair	$980 Per Week	2022-07-25T13:12:37.375843+10:00	2022-07-28T21:46:43.499164+10:00	152/45 West Row	CITY	ACT	2601	149.1274077	-35.2785727	Apartment	440	LJ Hooker Canberra City	Tara Munro	3	2	2		
61546	rental	Fully renovated 3 bedroom home - Lifestyle location with views!	$680 per week	2022-07-25T13:28:30.505128+10:00	2022-07-28T11:16:26.386930+10:00	3/3 Heard Street	MAWSON	ACT	2607	149.0970512	-35.3683974	Townhouse	599	Cream Residential	Annetta Fiorese	3	2	1	0.0	
61551	rental	Fantastic Family Home in Great Location	$600 pw	2022-07-25T13:46:45.652636+10:00	2022-07-25T19:46:28.474878+10:00	26 John Russell Circuit	CONDER	ACT	2906	149.1021802	-35.4633811	House	34	McIntyre Property	Amanda Gordon	3	1	3		
61556	rental	Executive Living within the Parliamentary Triangle	$550 per week	2022-07-25T14:58:56.575714+10:00	2022-07-29T09:16:25.858590+10:00	4/29-31 State Circle	DEAKIN	ACT	2600	149.1202313	-35.3111786	Apartment	1818	Knight Property Solutions	Samantha Knight	1	1	1		
61558	rental	Architect designed energy efficient home	$900 per week	2022-07-25T15:24:15.031044+10:00	2022-07-28T15:16:32.576217+10:00	95 Hannan Place	AINSLIE	ACT	2602	149.1541337	-35.2524024	House	629	Badenoch Real Estate	Jayne Spice	3	2	1		0.0
61560	rental	North-facing boutique living with sweeping views	$600 per week	2022-07-25T16:01:25.501552+10:00	2022-07-25T16:01:51.647474+10:00	5 Peg Minty Crescent	WESTON	ACT	2611	149.0555511	-35.3256393	Townhouse	414	Luton Weston Creek & Molonglo Valley	Luton Weston Creek & Molonglo Valley	2	1	2	4.0	
61561	rental	LOFT APARTMENT ON TOP FLOOR IN THE ALBEMARLE TOWER	$600 per week	2022-07-25T16:01:25.657205+10:00	2022-07-25T16:01:34.584129+10:00	801/45 Furzer Street	PHILLIP	ACT	2606	149.0851006	-35.3437809	Apartment	414	Luton Weston Creek & Molonglo Valley	Luton Weston Creek & Molonglo Valley	2	2	2	6.0	
61563	rental	One bedroom - Ground floor unit in prime position!	$465 P/week	2022-07-25T15:55:46.973291+10:00	2022-07-29T12:16:46.717160+10:00	25/329 Flemington Road	FRANKLIN	ACT	2913	149.1477471	-35.1881123	Apartment	436	LJ Hooker Dickson	Abby Langham	1	1	1		
61565	rental	Two Storey Townhouse In Lawson	$600 per week	2022-07-25T16:31:21.884941+10:00	2022-07-25T16:31:54.991531+10:00	47/88 Narrambla Terrace	LAWSON	ACT	2617	149.0855441	-35.2284933	Townhouse	34	McIntyre Property	Ellie Brault	2	2	1		
61566	rental	LOVELY NORTH FACING GARDEN	$610.00 pw	2022-07-25T16:31:33.240774+10:00	2022-07-25T16:32:24.497386+10:00	47 Bonython Street	DOWNER	ACT	2602	149.1480644	-35.2470469	House	273	Luton Dickson	Marleah Stratford	3	1	1		
61567	rental	CONVENIENTLY LOCATED	$700.00 pw	2022-07-25T16:31:38.381463+10:00	2022-07-25T16:32:38.529824+10:00	20 Holroyd Street	WATSON	ACT	2602	149.1552424	-35.2346137	House	273	Luton Dickson	Marleah Stratford	3	1	0	0.0	
61574	rental	Executive Furnished Apartment in the Heart of the City	$820 per week	2022-07-25T17:46:23.963916+10:00	2022-07-25T17:46:44.285365+10:00	1003/240 Bunda St	CANBERRA	ACT	2601	149.134405	-35.2816321	Apartment	433	Maloney's Property	Ned Hibbert	2	2	2		
61575	rental	Three Bedroom Property in Quiet Cul de Sac	$620 per week	2022-07-25T17:59:40.380275+10:00	2022-07-25T18:16:32.650067+10:00	6 Kelsall Pl	SPENCE	ACT	2615	149.0646626	-35.1976316	House	433	Maloney's Property	Ned Hibbert	3	1	2		
61579	rental	Don't Delay - Your New Home is on MacLeay!	$650 / Wk	2022-07-26T09:32:41.146951+10:00	2022-07-29T10:02:10.949031+10:00	5/16 Macleay	TURNER	ACT	2612	149.1281702	-35.270827	Apartment	436	LJ Hooker Dickson	Helena Kime	2	2	2		
61584	rental	Furnished One Bed Retreat	$460	2022-07-26T10:06:41.003568+10:00	2022-07-26T10:32:43.859638+10:00	17/39 Brigalow Street	O'CONNOR	ACT	2602	149.122398	-35.2526562	Apartment	436	LJ Hooker Dickson	Baily Stanley	1	1	1	6.0	
61585	rental	Fabulous spaces, Complimented with oversized living	$620 per week	2022-07-26T10:29:44.457271+10:00	2022-07-26T10:46:29.156491+10:00	19/2 Archibald Street	LYNEHAM	ACT	2602	149.1264657	-35.2451009	Townhouse	410	McGrath Canberra	Nina Sikoulabot	2	2	2		
61593	rental	Fabulous in Forde!	$700 per week	2022-07-26T11:48:27.479051+10:00	2022-07-28T15:31:33.688604+10:00	 6/21 Francis Forde Boulevard	FORDE	ACT	2914	149.1415571	-35.1710483	Townhouse	629	Badenoch Real Estate	Paul Hunter	4	2	2		0.0
61594	rental	Luxury living	$850 per week	2022-07-26T12:02:14.740484+10:00	2022-07-26T12:03:35.110744+10:00	50 Chewings Street	PAGE	ACT	2614	149.0441992	-35.2364383	House	437	LJ Hooker Belconnen	Leasing Team	4	2	2		
61597	rental	Quiet suburban bliss	$700 pw	2022-07-26T12:41:42.322036+10:00	2022-07-28T17:01:30.296097+10:00	57 Limb Circuit	MONCRIEFF	ACT	2914	149.1186391	-35.1584656	House	413	Luton Tuggeranong	Ky Cuschieri	3	2	1	6.0	
61604	rental	THREE BEDROOM OASIS	$700 pw	2022-07-26T13:47:57.677194+10:00	2022-07-28T15:32:21.000142+10:00	3 Wenlock Street	AMAROO	ACT	2914	149.1304802	-35.1675144	House	411	Luton Kippax	Emma Flenely	3	2	2		
61605	rental	HOME SWEET HOME!	$560 per week	2022-07-26T13:48:29.764374+10:00	2022-07-28T15:31:57.314389+10:00	 1/42 Liffey Circuit	KALEEN	ACT	2617	149.1020319	-35.2332407	House	629	Badenoch Real Estate	Paul Hunter	3	1	1		0.0
61611	rental	Luxurious Two Bedroom Apartment	$640 per week	2022-07-26T14:22:13.705548+10:00	2022-07-28T11:18:13.619841+10:00	G07/63 Dooring St	DICKSON	ACT	2602	149.1337097	-35.2574159	Apartment	232	Ray White Canberra	Lauren Everett	2	1	1		
61614	rental	One Bedroom + Study Delight - Ideally Located in the Heart of Braddon	$595 per week	2022-07-26T15:01:59.313220+10:00	2022-07-26T15:04:20.460683+10:00	104/104 Northbourne Avenue	BRADDON	ACT	2612	149.131036	-35.2710478	Apartment	232	Ray White Canberra	Amanda Howell	1	1	1		
61616	rental	Neat and tidy apartment in great location	$490 pw	2022-07-26T15:16:32.528233+10:00	2022-07-26T15:17:32.128129+10:00	2/141 Carruthers Street	CURTIN	ACT	2605	149.0808362	-35.323787	Unit	414	Luton Weston Creek & Molonglo Valley	Pooja Poudel	2	1	1		
61618	rental	Well Kept Three Bedroom Home	$630 / Pw	2022-07-26T15:07:54.776065+10:00	2022-07-29T10:01:52.445140+10:00	6 Stralia Place	MELBA	ACT	2615	149.0501272	-35.2101431	House	436	LJ Hooker Dickson	Helena Kime	3	1	1	1.0	787.8
61620	rental	GREAT POSITION	$490pw	2022-07-26T15:26:35.749416+10:00	2022-08-02T16:01:38.595933+10:00	11/28 Watson Street	TURNER	ACT	2612	149.12669	-35.2716913	Apartment	273	Luton Dickson	Jess Tutt	1	1	0		
61625	rental	Wanting an amazing home in a great location?	$480 Per Week	2022-07-26T16:32:29.242370+10:00	2022-07-28T21:46:44.686662+10:00	54/60 Kingsland Parade	CASEY	ACT	2913	149.0967766	-35.1722308	Apartment	440	LJ Hooker Canberra City	Grace Bowman	1	1	1		
61627	rental	Luxury apartment - The Estate in Forrest	$710 per week	2022-07-26T17:16:24.919908+10:00	2022-07-26T17:16:44.305400+10:00	 43/7 State Circle	FORREST	ACT	2603	149.1262863	-35.3129252	Apartment	629	Badenoch Real Estate	Paul Hunter	2	2	2	8.5	0.0
61661	rental	Fantastic Family Home	$715 per week	2022-07-27T10:01:12.336303+10:00	2022-08-02T09:31:44.234976+10:00	47 Hurtle Avenue	BONYTHON	ACT	2905	149.0824503	-35.4333136	House	232	Ray White Canberra	Christine Pfeiffer	5	2	2		
61662	rental	1-Bedroom Natural Bushland Living	$320 p/w	2022-07-27T10:05:10.679315+10:00	2022-07-29T13:31:29.637873+10:00	10A Brooke Place	WANNIASSA	ACT	2903	149.094243	-35.3860645	DuplexSemi-detached	443	LJ Hooker Manuka	Leasing Consultant	1	1	0		
61666	rental	Modern living, great location	$750	2022-07-27T10:41:18.338923+10:00	2022-07-27T17:16:35.286298+10:00	14 Sargeant Place	WANNIASSA	ACT	2903	149.0952744	-35.3966692	House	684	McCann Properties	Amber Jarvis	4	2	2		
61667	rental	STYLISH, SPACIOUS & SOUGHT AFTER!	$695 per week	2022-07-27T10:48:15.653191+10:00	2022-07-29T13:31:55.609599+10:00	38 Mcintosh Street	SCULLIN	ACT	2614	149.0401764	-35.2354855	House	232	Ray White Canberra	Amanda Howell	3	1	2		664.2
61671	rental	Amazing Apartment in Ideal Location!	$680 per week	2022-07-27T11:02:17.163364+10:00	2022-07-28T11:18:21.949968+10:00	103/165 Northbourne Avenue	TURNER	ACT	2612	149.1308063	-35.2648923	Apartment	232	Ray White Canberra	Lauren Everett	2	2	2		
61672	rental	Feature Packed Townhouse 	$590 per week pw	2022-07-27T11:25:56.255748+10:00	2022-07-27T17:01:30.445118+10:00	8/39 Wiburd Street	BANKS	ACT	2906	149.1000725	-35.4696805	Townhouse	34	McIntyre Property	Amanda Gordon	3	1	2		
61677	rental	Fantastic Townhouse in Great Location	$595 per week	2022-07-27T11:25:56.379710+10:00	2022-07-27T16:46:27.467271+10:00	12/3 Riddle Place	GORDON	ACT	2906	149.0781122	-35.4591069	Townhouse	34	McIntyre Property	Amanda Gordon	3	1	1		
61679	rental	Make the move to Macgregor	$800 per week	2022-07-27T11:29:10.656881+10:00	2022-07-29T14:32:10.753250+10:00	20 John James Loop	MACGREGOR	ACT	2615	149.005848	-35.2107107	House	437	LJ Hooker Belconnen	Leasing Team	4	2	2		
61684	rental	Family Home in Excellent Location	$840 per week	2022-07-27T11:37:49.065121+10:00	2022-08-02T10:02:18.667306+10:00	3 Sprent St	NARRABUNDAH	ACT	2604	149.1385542	-35.34132	House	433	Maloney's Property	Angela Cross	3	2	0		
61685	rental	4 Bedroom Family Home in Taylor	$795	2022-07-27T11:46:40.180478+10:00	2022-07-27T11:47:31.396869+10:00	10 Feilman Street	TAYLOR	ACT	2913	149.1065662	-35.1532422	House	233	LJ Hooker Gungahlin	LJ Hooker Gungahlin	4	2	2	6.0	
61688	rental	MODERN HOME	$800 pw	2022-07-27T12:09:40.244423+10:00	2022-07-27T13:16:35.532034+10:00	3 Laird Crescent	FORDE	ACT	2914	149.151429	-35.1585535	House	409	Luton Gungahlin	Sheree Plucinski	4	2	2	5.0	
61698	rental	VERY SPACIOUS APARTMENT	$595 per week	2022-07-27T12:53:39.702823+10:00	2022-07-27T13:16:28.427802+10:00	12/10 Burke Crescent	KINGSTON	ACT	2604	149.1462924	-35.320661	Apartment	412	Luton Manuka	Harley Williamson	2	2	1		
61704	rental	Who doesnt love a new home!	$720 Per Week	2022-07-27T14:41:33.168864+10:00	2022-08-02T10:46:45.774941+10:00	88 Tredwell Street	STRATHNAIRN	ACT	2615	148.9962145	-35.2299964	Apartment	440	LJ Hooker Canberra City	Taylor Sandford	3	2	2		
61706	rental	One Bedroom with Study in Kingston	$495 per week	2022-07-27T14:55:08.755733+10:00	2022-07-27T15:16:34.570561+10:00	23/77 Leichhardt Street	KINGSTON	ACT	2604	149.1473691	-35.3206539	Apartment	412	Luton Manuka	Luton Properties	1	1	1		
61711	rental	Spacious Oracle Apartment	$550	2022-07-27T15:25:04.141854+10:00	2022-08-01T11:32:20.335484+10:00	78/64 College Street	BELCONNEN	ACT	2617	149.0695944	-35.2427786	Apartment	443	LJ Hooker Manuka	William Taylor	2	2	2		
61719	rental	Do not miss out on this hidden gem!	$520 / Wk	2022-07-27T16:15:38.857269+10:00	2022-07-27T16:46:25.930400+10:00	321/45 Ainslie Avenue	BRADDON	ACT	2612	149.1359974	-35.2787607	Apartment	436	LJ Hooker Dickson	Eleni Edwards	1	1	1		
61721	rental	More than meets the eye!	$560 per week	2022-07-27T16:16:42.655737+10:00	2022-07-27T16:17:56.498021+10:00	2/36 Templeton Street	COOK	ACT	2614	149.0598098	-35.2589713	Townhouse	437	LJ Hooker Belconnen	Leasing Team	3	1	1		
61724	rental	Perfectly Pearce	$600 / Wk	2022-07-27T16:26:33.037625+10:00	2022-07-27T16:46:40.063529+10:00	21/26 Marr Street	PEARCE	ACT	2607	149.087343	-35.3610551	Townhouse	436	LJ Hooker Dickson	Eleni Edwards	3	2	1	0.0	
61726	rental	Ideal Family Home!	$690 per week	2022-07-27T16:51:16.030226+10:00	2022-08-01T16:17:11.905506+10:00	24 Mortlock Circuit	KALEEN	ACT	2617	149.0945569	-35.2318128	House	232	Ray White Canberra	Helen West	4	1	1		
61727	rental	Apartment Living!	$460 per week	2022-07-27T17:32:50.192289+10:00	2022-07-27T18:01:29.581522+10:00	1327/15 Bowes Street Street	PHILLIP	ACT	2606	149.0868669	-35.3441316	Apartment	2615	Waratah Estate Agents	Rental Team	1	1	1	0.0	
61733	rental	Two storey home	$520 per week	2022-07-28T09:14:42.761317+10:00	2022-07-28T09:31:30.187785+10:00	2 Andersch Street	CASEY	ACT	2913	149.0999274	-35.1608961	Townhouse	34	McIntyre Property	Miki Sant	1	1	1		
61735	rental	Perfect Family Home	$580 Per Week	2022-07-28T09:14:42.480648+10:00	2022-08-09T16:01:31.962509+10:00	108 Mainwaring Rich Circuit	PALMERSTON	ACT	2913	149.1239652	-35.1933489	House	410	McGrath Canberra	Nina Sikoulabot	3	1	1		
61736	rental	Convenience In Cook!	$540 per week	2022-07-28T09:07:17.276034+10:00	2022-08-01T17:16:26.168505+10:00	38 Dexter Street	COOK	ACT	2614	149.0682397	-35.2570419	Townhouse	232	Ray White Canberra	Amanda Howell	3	1	1		
61743	rental	Delightful Melba Home	$675 per week	2022-07-28T10:12:21.290238+10:00	2022-08-01T17:01:36.618862+10:00	4 Laver Place	MELBA	ACT	2615	149.0552597	-35.205747	House	629	Badenoch Real Estate	Jayne Spice	4	2	2		0.0
61746	rental	Absolute Convenience!	$410 per week	2022-07-28T10:18:16.167743+10:00	2022-07-28T15:31:50.642569+10:00	 4/27 Mackennal Street	LYNEHAM	ACT	2602	149.1222496	-35.2476418	Apartment	629	Badenoch Real Estate	Paul Hunter	2	1	1		0.0
61750	rental	Three Bedroom Dual Occupancy in Perfect Location	$720 per week	2022-07-28T11:15:33.460287+10:00	2022-07-28T11:32:30.764850+10:00	1/4 Hutchins St	YARRALUMLA	ACT	2600	149.0972219	-35.3090154	Townhouse	433	Maloney's Property	Ned Hibbert	3	2	2		
61756	rental	Fantastic Family Home 	$820 Per Week	2022-07-28T11:38:16.862884+10:00	2022-07-28T12:01:55.236426+10:00	18 Wallaman Street	HARRISON	ACT	2914	149.1601326	-35.1931188	House	410	McGrath Canberra	Nina Sikoulabot	4	2	2		
61770	rental	This 2 Bedroom Home Is Sure To Surprise and Delight!	$540 per week	2022-07-28T12:50:19.386175+10:00	2022-08-02T10:46:42.742751+10:00	14/9 Redcliffe Street	PALMERSTON	ACT	2913	149.1236926	-35.1956428	Townhouse	233	LJ Hooker Gungahlin	LJ Hooker Gungahlin	2	1	1		
61779	rental	Stylish Apartment in Campbell 5 Precinct	$620 per week	2022-07-28T14:33:41.807529+10:00	2022-08-04T14:31:56.432083+10:00	216/12 Provan Street	CAMPBELL	ACT	2612	149.1434854	-35.2891833	Apartment	412	Luton Manuka	Kim Paxton	1	1	1		
61788	rental	Brand New in Belconnen!	$520 per week	2022-07-28T15:02:14.209494+10:00	2022-07-28T15:03:37.700927+10:00	905/2 Grazier Lane	BELCONNEN	ACT	2617	149.0719814	-35.2401725	Apartment	437	LJ Hooker Belconnen	Leasing Team	2	1	1		
