id	type	DescriptionTitle	PriceLabel	ListingDate	ReListingDate	Address	Suburb	State	PostCode	Property.lat	Property.lon	PropertyType	Agency.Id	Agency.Name	Agent.Name	Beds	Baths	Cars	EER	PlotSize
67011	residential	ELEVATED AND IMMACULATE IN LEAFY SURROUNDS	AUCTION	2022-10-04T09:24:17.240840+11:00	2022-10-04T12:08:48.286466+11:00	83 Lucy Gullett Circuit	CHISHOLM	ACT	2905	149.1276095	-35.4201868	House	1083	Michael Potter Real Estate	Michael Potter	4	2	2	1.0	953.0
67532	residential	Peaceful perfection!	Auction	2022-10-04T11:33:46.938953+11:00	2022-10-05T10:32:54.248318+11:00	3 Timbs Street	CASEY	ACT	2913	149.0861719	-35.1759071	House	409	Luton Gungahlin	Luke McAuliffe	4	2	2	5.0	536.0
67533	residential	An entertainers home in a blue-chip location	Auction	2022-10-04T10:50:57.531404+11:00	2022-10-04T12:47:36.466887+11:00	37 Cobby Street	CAMPBELL	ACT	2612	149.1551975	-35.2807902	House	440	LJ Hooker Canberra City	Kaylene King	4	2	2	1.5	
67550	residential	good.bones	Auction 2:30pm Saturday 22 October	2022-10-04T15:16:27.271794+11:00	2022-10-04T15:17:08.754074+11:00	68 Doyle Terrace	CHAPMAN	ACT	2611	149.0417003	-35.3605008	House	618	home.by holly	Bianca Way	4	2	2	1.0	871.0
67553	residential	CHARMING, UNIQUE AND QUITE SPECIAL	Auction 26/10/2022	2022-10-04T15:18:34.901784+11:00	2022-10-05T14:16:32.077681+11:00	92 Dexter Street	COOK	ACT	2614	149.0697621	-35.2581723	House	2853	Bastion Property Group	Rob Cappuccio	2	1	1	1.5	256.0
67571	residential	Contemporary style in a diamond position.	Auction on Saturday 29th October 2022 at 11:00am	2022-10-05T07:19:24.848089+11:00	2022-10-05T07:46:39.410026+11:00	54 Harold White Avenue	COOMBS	ACT	2611	149.0475497	-35.321029	House	2542	Hugo. Canberra	Hugo Mendez	4	2	2	6.0	532.0
67572	residential	Entertain and enjoy	Auction Saturday 29th October at 9am	2022-10-05T08:16:20.886337+11:00	2022-10-05T08:46:37.681141+11:00	41 Cuthbert Circuit	WANNIASSA	ACT	2903	149.083078	-35.398416	House	684	McCann Properties	Mark McCann	3	1	3	5.0	663.0
67573	residential	Townhouse living at its finest	Auction 29/10/2022	2022-10-05T09:09:36.814547+11:00	2022-10-07T15:16:33.669570+11:00	50/11 Gustin Street	COOMBS	ACT	2611	149.040123	-35.320683	Townhouse	1072	Independent Gungahlin	Andrew Potts	4	2	2	6.0	
67577	residential	Your Forever Home	Auction	2022-10-05T09:51:12.862582+11:00	2022-10-11T16:17:35.355639+11:00	30 Alexandria Street	HAWKER	ACT	2614	149.0337447	-35.2427713	House	437	LJ Hooker Belconnen	Kathy Komar	4	2	2	1.0	802.0
67578	residential	80m2 1 Bedroom + Study Apartment in 'Quayside'	$665,000	2022-10-05T10:11:44.660573+11:00	2022-10-05T10:32:38.305600+11:00	319/50 Eastlake Parade 	KINGSTON	ACT	2604	149.146427	-35.3135952	Apartment	626	Berkely Residential	Simon Richards	1	1	1	6.0	
67580	residential	This Stunning Property Will Tick all the Boxes!	AUCTION	2022-10-05T10:28:45.850039+11:00	2022-10-05T12:16:40.116819+11:00	38 Tewksbury Circuit	THEODORE	ACT	2905	149.1245146	-35.4452825	House	34	McIntyre Property	Betty Wark	4	2	4	4.0	1010.0
67581	residential	First Home, Investment or Downsizer	$550,000	2022-10-05T10:28:46.089935+11:00	2022-10-05T16:46:34.525743+11:00	5/7 Nernst Place	BANKS	ACT	2906	149.0949311	-35.4660264	Townhouse	34	McIntyre Property	Colin McIntyre	3	1	2	2.5	266.67
67582	residential	Modern Living Close to Everything	$370,000 - $390,000	2022-10-05T10:26:12.463273+11:00	2022-10-07T09:16:52.754069+11:00	23/6 High Street	QUEANBEYAN	NSW	2620	149.2431488	-35.3484517	Apartment	623	Ray White Queanbeyan | Jerrabomberra	Ben Mills	1	1	1		
67585	residential	Superb 1 Bedroom Apartment in Desirable Element Apartment Complex	$510,000	2022-10-05T10:44:49.801288+11:00	2022-10-05T13:31:37.967384+11:00	7/39 Eastlake Parade	KINGSTON	ACT	2604	149.1466316	-35.3131039	Apartment	626	Berkely Residential	Simon Richards	1	1	1	6.0	4938.0
67589	residential	Elara in Bruce	$285,000+	2022-10-05T11:06:10.474177+11:00	2022-10-06T12:01:31.409477+11:00	110/10 Thynne Street	BRUCE	ACT	2617	149.0917544	-35.2414508	Apartment	2862	Stone Gungahlin	Kris Hellier	1	1	1	4.0	
67590	residential	RISE to purchase your dream home!	$995,000+	2022-10-05T11:13:50.949327+11:00	2022-10-10T09:46:44.199346+11:00	27 Thynne Street	BRUCE	ACT	2617	149.093689	-35.2424106	Townhouse	436	LJ Hooker Dickson	Ryan Hedley	4	3	2	7.5	
67591	residential	The Lookout	Auction	2022-10-05T11:13:06.307491+11:00	2022-10-10T11:32:43.537915+11:00	29 Crawford Crescent	FLYNN	ACT	2615	149.0450172	-35.2010864	House	2647	Timothy Road	Tim McInnes	4	2	2	3.5	732.0
67594	residential	Move-in Ready Family Home	AUCTION	2022-10-05T11:34:39.242241+11:00	2022-10-11T12:16:46.494895+11:00	13 Brittlebank Circuit	BANKS	ACT	2906	149.1037049	-35.4679574	House	34	McIntyre Property	Colin McIntyre	4	2	2	4.0	752.0
67599	residential	Low Maintenance Lifestyle Awaits	Auction 29/10/2022	2022-10-05T12:24:20.829344+11:00	2022-10-05T14:47:20.188832+11:00	87 Eccles Circuit	MACGREGOR	ACT	2615	149.0035998	-35.2116301	Townhouse	232	Ray White Canberra	Leonie Taylor	2	1	1	6.0	
67604	residential	Reserve side living in Springbank Rise	Auction 29/10/2022	2022-10-05T13:30:16.017967+11:00	2022-10-10T15:47:10.571383+11:00	35 Spratt Court	CASEY	ACT	2913	149.1026802	-35.1571883	House	232	Ray White Canberra	Vince Pinneri	2	2	1	6.0	115.0
67605	residential	Modern Family Home	Auction 29/10/2022	2022-10-05T13:27:09.815180+11:00	2022-10-10T10:02:38.793575+11:00	42 Lionel Rose Street	HOLT	ACT	2615	148.99931	-35.2287881	House	232	Ray White Canberra	Vince Pinneri	3	2	2	4.5	250.0
67606	residential	Classic Family Living	Auction 29/10/2022	2022-10-05T13:26:22.201283+11:00	2022-10-10T15:47:28.493136+11:00	16 Grampians Street	PALMERSTON	ACT	2913	149.1149839	-35.1977275	House	232	Ray White Canberra	Vince Pinneri	4	2	2	5.0	715.0
67611	residential	Peaceful Living with Tranquil Surrounds...and plenty of yard	Auction	2022-10-05T14:30:41.391142+11:00	2022-10-10T14:46:40.574351+11:00	10 Karrugang Circuit	NGUNNAWAL	ACT	2913	149.1006107	-35.1710374	House	409	Luton Gungahlin	Adrian Giampietro	3	1	1	2.5	
67612	residential	Townhouse living with a quiet, peaceful, and easy lifestyle.	Auction	2022-10-05T14:27:21.114962+11:00	2022-10-10T17:16:53.640647+11:00	18/141 Macfarlane Burnet Avenue	MACGREGOR	ACT	2615	149.0019057	-35.2056607	Townhouse	441	LJ Hooker Kippax	Sarah Turnbull	2	1	1	6.0	203.0
67613	residential	Very Neat Home in a Great Street!	Auction 29/10/2022	2022-10-05T14:22:18.031927+11:00	2022-10-11T16:03:14.127710+11:00	5 Narryer Close	PALMERSTON	ACT	2913	149.1280132	-35.1977245	House	232	Ray White Canberra	Mark Johnstone	3	2	2	2.0	987.9
67616	residential	Looking For Certainty?	Auction	2022-10-05T14:34:15.492827+11:00	2022-10-07T13:31:35.447901+11:00	6 Moy Place	MACQUARIE	ACT	2614	149.0633064	-35.2491661	House	437	LJ Hooker Belconnen	Michael Wellsmore	3	2	2	1.5	956.0
67617	residential	Home Sweet Hawker Home	Auction	2022-10-05T14:58:59.187245+11:00	2022-10-07T11:01:56.189817+11:00	30 Kulgera Street	HAWKER	ACT	2614	149.0364563	-35.249963	House	629	Badenoch Real Estate	Symon Badenoch	4	2	2	1.0	
67619	residential	Understated Elegance !	$1,750,000 - $1,850,000	2022-10-05T15:03:41.761926+11:00	2022-10-11T12:31:44.521730+11:00	4 Camphorwood Close	JERRABOMBERRA	NSW	2619	149.1942126	-35.4033084	House	624	Ian McNamee & Partners - Queanbeyan	Lucy MacGregor	4	3	4		1173.0
67624	residential	Your Dual Occupancy Dream Home Awaits	Auction 29/10/2022	2022-10-05T15:36:16.609360+11:00	2022-10-10T11:02:52.163029+11:00	6 Nullagine Street	FISHER	ACT	2611	149.0555511	-35.3640335	House	232	Ray White Canberra	Cameron Whitnall	5	3	1	3.5	813.0
67625	residential	Home Sweet Home - Freshly Updated !	Auction 22/10/2022	2022-10-05T15:47:56.978239+11:00	2022-10-09T09:16:51.013810+11:00	59 Armstrong Crescent	HOLT	ACT	2615	149.0100153	-35.2223344	House	636	Impact Properties	Raj Sahu	3	1	4	1.5	882.0
67629	residential	A slice of luxury in a secluded setting backing Cooleman Ridge!	Auction	2022-10-05T16:05:52.308564+11:00	2022-10-10T14:17:21.739945+11:00	9 Lincoln Close	CHAPMAN	ACT	2611	149.0439863	-35.3642884	House	703	Bertram Ellis	Tom Ellis	4	2	2	1.5	
67630	residential	Easy Living in Dickson.	Offers Over $590,000	2022-10-05T16:08:10.533648+11:00	2022-10-06T14:16:51.100500+11:00	210/6 Cape Street	DICKSON	ACT	2602	149.1370319	-35.2515734	Unit	623	Ray White Queanbeyan | Jerrabomberra	Brad O'Mara	2	2	1	6.0	
67636	residential	marsden.welcome	Auction Saturday 29 October 11:30am	2022-10-05T16:51:54.611360+11:00	2022-10-10T15:31:48.742059+11:00	52 Marsden Street	DICKSON	ACT	2602	149.1455971	-35.251791	House	618	home.by holly	Holly Komorowski	4	2	2	0.0	695.0
67644	residential	The very best in townhouse living	Auction	2022-10-06T07:11:36.113694+11:00	2022-10-10T11:31:32.588514+11:00	1/2 Bellette Street	WESTON	ACT	2611	149.0621162	-35.3334824	Townhouse	414	Luton Weston Creek & Molonglo Valley	Tim and Justine Burke	2	2	2	6.0	
67645	residential	A perfect first home	$599,000+	2022-10-06T07:11:36.268115+11:00	2022-10-06T13:31:33.718927+11:00	19/5 Skuta Place	DENMAN PROSPECT	ACT	2611	149.0244742	-35.29980219999999	Apartment	414	Luton Weston Creek & Molonglo Valley	Tim and Justine Burke	2	2	2	6.0	
67646	residential	two.knox	$330,000+	2022-10-06T08:04:23.927172+11:00	2022-10-06T10:31:34.274225+11:00	2/156 Knox Street	WATSON	ACT	2602	149.1595942	-35.2435707	Apartment	618	home.by holly	Holly Komorowski	2	1	1	5.0	
67647	residential	This must be the one you've been waiting for!	Auction	2022-10-06T08:17:26.989502+11:00	2022-10-10T11:16:51.411003+11:00	15/50 Peter Cullen Way	WRIGHT	ACT	2611	149.0354254	-35.3231642	Townhouse	414	Luton Weston Creek & Molonglo Valley	Luke Metcalfe	3	2	2	5.5	
67648	residential	Spacious home with stunning views	Auction Saturday 29th October at 11:15am	2022-10-06T08:17:15.248570+11:00	2022-10-09T18:16:40.570695+11:00	40 Halfrey Circuit	WANNIASSA	ACT	2903	149.0913956	-35.3993527	House	684	McCann Properties	Mark McCann	4	2	2	1.5	897.0
67649	residential	Brand New, Just For You!	By Negotiation	2022-10-06T08:39:11.991764+11:00	2022-10-11T13:32:04.584409+11:00	1008/2 Grazier Lane	BELCONNEN	ACT	2617	149.0719813	-35.2401725	Apartment	232	Ray White Canberra	Samuel Fitzsimmons	2	2	1	6.0	
67650	residential	North-East Facing Three Bedroom Apartment	$670,000+	2022-10-06T08:54:17.585352+11:00	2022-10-10T15:16:35.947706+11:00	809/2 Gribble Street	GUNGAHLIN	ACT	2912	149.1308614	-35.1815983	Apartment	2300	VERV Property	Jason Roses	3	2	2	6.0	
67652	residential	Elevated, flexible living in the central and desirable suburb of Hughes.	Auction Saturday 29th October 10:00am OnSite	2022-10-06T08:59:04.506500+11:00	2022-10-10T10:31:44.019581+11:00	49 Kitchener Street	HUGHES	ACT	2605	149.0999828	-35.3348209	House	599	Cream Residential	Chris Wilson	4	2	1	0.5	724.0
67653	residential	Your Large Family Entertainment Home !	Auction - 29/10/22	2022-10-06T08:50:38.973511+11:00	2022-10-06T10:01:43.141388+11:00	55 Halloran Drive	JERRABOMBERRA	NSW	2619	149.2033904	-35.3792953	House	624	Ian McNamee & Partners - Queanbeyan	Lucy MacGregor	4	2	3		875.0
67654	residential	My spacious single-level opportunity	$695,000+	2022-10-06T09:02:40.074836+11:00	2022-10-06T10:01:36.265702+11:00	6/15 Wyselaskie Circuit	KAMBAH	ACT	2902	149.0622528	-35.3780362	Townhouse	513	My Morris	Zac Morris	3	1	2	1.5	
67656	residential	secret.beauty	Auction 9:00am Saturday 22 October	2022-10-06T09:21:51.251398+11:00	2022-10-09T19:31:35.142958+11:00	16 Mcgowen Close	SPENCE	ACT	2615	149.0622642	-35.1960998	House	618	home.by holly	Cris O'Brien	3	2	2	1.5	558.0
67657	residential	opportunity.awaits	Auction 1:30pm Saturday 22 October	2022-10-06T09:21:51.395672+11:00	2022-10-08T17:16:38.250318+11:00	19 Embley Street	HOLDER	ACT	2611	149.0429778	-35.3336987	House	618	home.by holly	Bianca Way	4	3	3	2.5	717.0
67659	residential	Award Winning Architectural Masterpiece	Auction	2022-10-06T09:34:44.685527+11:00	2022-10-11T11:31:36.427899+11:00	40 Ivo Whitton Circuit	KAMBAH	ACT	2902	149.0374199	-35.3946212	House	413	Luton Tuggeranong	Kelsey White	5	2	5	2.0	920.0
67661	residential	sanctuary.home	$680,000+	2022-10-06T09:32:18.535443+11:00	2022-10-06T10:32:24.241101+11:00	75 Jim Pike Avenue	GORDON	ACT	2906	149.077821	-35.4588815	Townhouse	618	home.by holly	Sally Strang	3	1	2	3.0	187.0
67663	residential	High-End Contemporary Abode	Auction 29/10/2022	2022-10-06T09:50:42.177629+11:00	2022-10-11T13:16:38.009204+11:00	2 Jutland Street	CRACE	ACT	2911	149.1112521	-35.2042512	House	2853	Bastion Property Group	Theo Koutsikamanis	4	2	2	5.0	
67666	residential	Modern Bright & Brand New 3rd Floor Apartment	Auction	2022-10-06T10:04:17.600487+11:00	2022-10-07T15:47:28.429887+11:00	312/335 Anketell Street	GREENWAY	ACT	2900	149.0732758	-35.4224284	Apartment	437	LJ Hooker Belconnen	Happy Singh	2	2	1	6.5	
67669	residential	Blue Chip Location!	345,000+	2022-10-06T10:23:56.501774+11:00	2022-10-11T19:46:27.985257+11:00	214/38 Gozzard street 	GUNGAHLIN	ACT	2912	149.1324339	-35.1855613	Apartment	2086	Real Estate Australia	Peter Tolhurst	1	1	1	6.0	
67670	residential	Entertainers delight	Auction: Saturday 22nd October On Site at  9:00am	2022-10-06T10:28:25.899755+11:00	2022-10-10T11:47:29.031951+11:00	15 Campaspe Circuit	KALEEN	ACT	2617	149.1094452	-35.2282032	House	443	LJ Hooker Manuka	Samuel Thompson	4	2	3	4.0	808.0
67674	residential	Designer apartment with stunning water views.	By Negotiation	2022-10-06T10:45:45.489725+11:00	2022-10-06T11:01:53.184088+11:00	1302/19 Marcus Clarke Street 	CITY	ACT	2601	149.1248959	-35.2851644	Apartment	626	Berkely Residential	Michael Lyristakis	2	2	2	4.5	
67675	residential	Four-bedroom family home in Fraser	Auction 29/10/2022	2022-10-06T10:41:19.230581+11:00	2022-10-11T09:01:54.281338+11:00	50 Kerrigan Street	FRASER	ACT	2615	149.0356943	-35.1935578	House	232	Ray White Canberra	Jake Battenally	4	2	2	1.5	1169.0
67677	residential	Hidden emerald in Amaroo. 	$549,000+	2022-10-06T10:51:39.189118+11:00	2022-10-07T08:46:35.836054+11:00	40/815 Horse Park Drive	AMAROO	ACT	2914	149.1318657	-35.1642971	Unit	409	Luton Gungahlin	Peter White	2	1	2	6.0	
67679	residential	Remarkable Family Residence	Auction Saturday 29 October 2022, 12pm On Site	2022-10-06T10:55:53.395287+11:00	2022-10-11T16:02:13.794312+11:00	4 Howarth Place	CHAPMAN	ACT	2611	149.0388318	-35.3580602	House	620	Morrissey Property	Trenton Morrissey	5	3	2	0.0	904.0
67685	residential	Nest or Invest	$365,000+	2022-10-06T11:07:16.077886+11:00	2022-10-07T13:31:32.186469+11:00	22/153 Murranji Street	HAWKER	ACT	2614	149.041879	-35.2467654	Unit	232	Ray White Canberra	Vince Pinneri	2	1	1	0.0	
67686	residential	Future Proofing your Family 	Auction	2022-10-06T11:07:16.300861+11:00	2022-10-11T12:04:03.576468+11:00	8 Bavay Place	PAGE	ACT	2614	149.0563132	-35.2374445	House	437	LJ Hooker Belconnen	George Vlandis	5	2	3	1.5	779.0
67692	residential	Your Perfect Jerrabomberra Home	$599,000 - $629,000	2022-10-06T11:57:40.941203+11:00	2022-10-11T11:31:39.529955+11:00	9/23 Elm Way	JERRABOMBERRA	NSW	2619	149.2015727	-35.3875339	Townhouse	624	Ian McNamee & Partners - Queanbeyan	Lucy MacGregor	2	1	1		
67693	residential	Now This is Just a Bit Different!	Auction 29/10/22	2022-10-06T11:49:12.262908+11:00	2022-10-07T11:02:16.409453+11:00	12 Bonython Street	DOWNER	ACT	2602	149.144027	-35.2472699	House	436	LJ Hooker Dickson	Stephen Bunday	3	1	2	4.0	706.0
67699	residential	SPECTACULAR VIEWS	offers above $850,000	2022-10-06T12:55:52.475839+11:00	2022-10-11T16:46:39.425414+11:00	18/34 Leahy Close	NARRABUNDAH	ACT	2604	149.1412457	-35.3439415	Apartment	433	Maloney's Property	Philip Kouvelis	3	2	2	4.0	
67700	residential	easy.living 	$570,000+	2022-10-06T12:50:20.043992+11:00	2022-10-07T09:16:37.134193+11:00	32/16 Wakefield Avenue	BRADDON	ACT	2612	149.1339669	-35.2608997	Apartment	618	home.by holly	Jenny Michael And Mark McReynolds	2	2	1	6.0	
67702	residential	A Private Townhouse Haven	Auction	2022-10-06T13:02:10.007869+11:00	2022-10-10T17:02:25.849087+11:00	5/23 Chave Street	HOLT	ACT	2615	149.0254701	-35.223272	Townhouse	441	LJ Hooker Kippax	Sandra Masters	2	2	1	1.0	
67704	residential	Beautifully renovated home opposite parklands	Auction 29/10/22	2022-10-06T13:23:15.934993+11:00	2022-10-07T10:17:03.560223+11:00	139 Wattle Street	O'CONNOR	ACT	2602	149.1203434	-35.2490662	House	232	Ray White Canberra	Maree Van Arkel	3	1	2	1.5	749.0
67705	residential	An abundance of space and style	Auction 29/10/2022	2022-10-06T13:27:07.012857+11:00	2022-10-07T15:32:39.958121+11:00	9 Oakover Circuit	KALEEN	ACT	2617	149.1111942	-35.2325033	House	232	Ray White Canberra	Sebastian Gutierrez	3	1	3	1.0	709.0
67706	residential	Auction: Price Guide $605,000+	Auction: Price Guide $605,000+	2022-10-06T13:41:42.152781+11:00	2022-10-08T13:16:29.654698+11:00	7/18 Zamia Place	PALMERSTON	ACT	2913	149.1195055	-35.1980421	Townhouse	2853	Bastion Property Group	Richard King	3	1	2	2.5	
67707	residential	A lot Of Shine in Shean Place	Offers Over $739,000	2022-10-06T13:47:37.809800+11:00	2022-10-10T11:01:30.661649+11:00	10 Shean Place	GORDON	ACT	2906	149.0868893	-35.4705603	House	413	Luton Tuggeranong	Michael Martin	3	1	2	0.0	
67714	residential	Spacious and Stylish 	Auction 29/10/2022	2022-10-06T14:41:20.789098+11:00	2022-10-10T12:47:19.562891+11:00	4 Simons Close	MCKELLAR	ACT	2617	149.0752542	-35.2189279	House	232	Ray White Canberra	Treston Bamber	3	1	1	1.0	381.0
67721	residential	European Inspired Home in Tranquil Setting	Forthcoming Sale	2022-10-06T15:32:52.382377+11:00	2022-10-11T09:17:24.729390+11:00	18 Gatton Street	FARRER	ACT	2607	149.1027183	-35.3734523	House	443	LJ Hooker Manuka	Stephen Thompson	7	3	4	0.0	985.0
67722	residential	Immaculate home ready to enjoy, offering three living areas and close to shops, schools and light rail.	Auction	2022-10-06T15:59:41.756354+11:00	2022-10-12T09:46:38.329580+11:00	51 A'Beckett Street	WATSON	ACT	2602	149.1467634	-35.2370453	House	273	Luton Dickson	Aniko and Peter Carey	3	2	1	1.5	752.0
67723	residential	ELEGANT SOPHISTICATION IN ESTEEMED ELEVATED SETTING	Auction	2022-10-06T15:47:26.009395+11:00	2022-10-11T15:48:20.351260+11:00	16 Collingridge Street	WESTON	ACT	2611	149.0611098	-35.33857649999999	House	438	LJ Hooker Woden/Weston	Jane Kusetic	5	2	2	2.0	769.0
67725	residential	Modern-living at its Finest!	Auction	2022-10-06T16:12:53.268230+11:00	2022-10-10T15:01:59.685190+11:00	70 Tredwell Street	STRATHNAIRN	ACT	2615	148.9960149	-35.2298609	House	436	LJ Hooker Dickson	Andrew Grenfell	3	2	1	6.0	161.0
67728	residential	Large 3 Bedroom Townhouse	$990,000	2022-10-06T16:13:14.504884+11:00	2022-10-10T18:01:30.674843+11:00	Hakea Type 3	DENMAN PROSPECT	ACT	2611	149.0239442	-35.298635	Townhouse	232	Ray White Canberra	Samuel Fitzsimmons	3	2	2	6.5	0.0
67731	residential	Great location, yet tucked away from the hustle & bustle.	Auction	2022-10-06T16:24:58.686859+11:00	2022-10-13T12:01:45.865895+11:00	7 Rochford Street	FRASER	ACT	2615	149.04811	-35.1889853	House	436	LJ Hooker Dickson	Ryan Hedley	4	2	2	3.0	898.0
67734	residential	Brilliant Apartment across from the Parkland !	$500,000+	2022-10-06T16:41:25.517769+11:00	2022-10-12T18:01:48.315249+11:00	92/75 ELIZABETH JOLLEY CRESCENT	FRANKLIN	ACT	2913	149.1447449	-35.1879671	Apartment	636	Impact Properties	Shaun Iqbal	2	2	1	4.5	
67736	residential	Convenience at your fingertips. 	Auction	2022-10-06T16:43:41.405229+11:00	2022-10-07T11:16:43.916523+11:00	1 Annie Douglas Street	CASEY	ACT	2913	149.1011627	-35.1587923	House	409	Luton Gungahlin	Nick Paine	3	2	1	5.5	
67737	residential	North Facing Family Living	Auction	2022-10-06T16:45:16.645643+11:00	2022-10-11T12:03:51.585025+11:00	11 Lapsley Street	DUNLOP	ACT	2615	149.0235264	-35.1902543	House	437	LJ Hooker Belconnen	George Vlandis	4	2	2	4.0	502.0
67739	residential	Classic Family Home with Lake Views	Auction 29/10/2022	2022-10-06T17:03:19.557171+11:00	2022-10-12T13:47:55.727608+11:00	8 Mudge Place	MCKELLAR	ACT	2617	149.07814609999997	-35.2227156	House	232	Ray White Canberra	Treston Bamber	4	2	2	4.0	1090.0
67740	residential	GEM ON JENKS! SPACIOUS FAMILY HOME IN A GREAT LOCATION	$1,295,000	2022-10-06T17:31:24.393640+11:00	2022-10-06T17:32:00.489793+11:00	2 Jenks Place	EVATT	ACT	2617	149.0671843	-35.2095802	House	1099	The Real Estate Shop	Natalie Roberts	6	3	1	2.0	882.0
67741	residential	Close to everywhere yet perfectly peaceful	Auction 29/10/2022	2022-10-06T17:35:18.360191+11:00	2022-10-13T09:49:06.284314+11:00	45/120 Thynne Street	BRUCE	ACT	2617	149.0983895	-35.2438103	Apartment	232	Ray White Canberra	Harry McCormack	1	1	1	6.0	
67743	residential	Inner North in a tranquil tree-lined street 	Auction	2022-10-06T18:33:45.095496+11:00	2022-10-13T11:01:32.393153+11:00	110 Lewin Street	LYNEHAM	ACT	2602	149.1270937	-35.2465986	House	412	Luton Manuka	Sharon Peart	4	1	1	2.0	605.0
67744	residential	A Resort-Esc Family Home	Auction	2022-10-06T20:24:45.650335+11:00	2022-10-10T13:46:58.899194+11:00	23 Longworth Place	HOLT	ACT	2615	149.0085366	-35.2289429	House	441	LJ Hooker Kippax	Sandra Masters	4	3	3	3.5	1129.0
67747	residential	Perfect Positioned Carmina	$840,000 Plus	2022-10-07T00:03:25.515101+11:00	2022-10-12T11:31:59.205831+11:00	19/34 Gosse Street	KINGSTON	ACT	2604	149.1426363	-35.3136334	Apartment	433	Maloney's Property	Moira Maloney	3	2	2	6.0	
67750	residential	home.in.the.city	$650,000+	2022-10-07T08:28:06.068133+11:00	2022-10-10T10:01:38.588378+11:00	1a/52 Forbes Street	TURNER	ACT	2612	149.1304547	-35.2632417	Apartment	618	home.by holly	Ash Costello	2	1	1	3.5	
67751	residential	A great place to start	$420,000+	2022-10-07T08:40:35.016716+11:00	2022-10-10T11:31:38.821911+11:00	50/60 John Gorton Drive	COOMBS	ACT	2611	149.0403109	-35.3212112	Apartment	414	Luton Weston Creek & Molonglo Valley	Tim and Justine Burke	2	1	2	6.0	
67752	residential	newton.harmony	Auction Saturday 29 October 12.45pm	2022-10-07T08:38:21.314962+11:00	2022-10-11T11:16:44.314187+11:00	3 Newton Street	HACKETT	ACT	2602	149.1568126	-35.2475668	House	618	home.by holly	Holly Komorowski	3	3	1	1.0	730.0
67753	residential	torrens.tantalising 	Auction 2.30pm Saturday 29th October	2022-10-07T08:49:21.643121+11:00	2022-10-11T09:16:36.136351+11:00	4/1 Batchelor Street	TORRENS	ACT	2607	149.0902409	-35.3649906	Townhouse	618	home.by holly	Jenny Michael And Mark McReynolds	2	1	1	3.0	
67754	residential	Single Level Townhouse!	$399,000 - $429,000	2022-10-07T09:24:47.976496+11:00	2022-10-12T10:31:59.605503+11:00	6/63 Macquoid Street	QUEANBEYAN EAST	NSW	2620	149.2433983	-35.3509126	Townhouse	624	Ian McNamee & Partners - Queanbeyan	Michael Edwards	2	1	1		
67755	residential	HIgh tech, high end living with a classic timeless design.	Auction	2022-10-07T09:26:58.220177+11:00	2022-10-12T11:31:51.842599+11:00	31 Tyrrell Circuit	KALEEN	ACT	2617	149.1070237	-35.2235708	House	439	LJ Hooker Kaleen	Tim Russell	3	2	2	0.5	865.0
67756	residential	The perfect start	Auction 29/10/2022	2022-10-07T09:36:06.453916+11:00	2022-10-11T09:02:08.254548+11:00	16/2 Newchurch Street	COOMBS	ACT	2611	149.0416667	-35.3222446	House	232	Ray White Canberra	Jake Battenally	3	2	2	6.0	
67757	residential	charismatic. tocumwal	Auction Saturday 29 October 10:15am	2022-10-07T10:06:57.580882+11:00	2022-10-10T11:09:56.915647+11:00	1 Lang Street	AINSLIE	ACT	2602	149.1503523	-35.2582965	House	618	home.by holly	Holly Komorowski	4	2	1	6.0	807.0
67758	residential	natural.gallery	Auction Saturday 22 October 12:15pm	2022-10-07T10:06:57.721088+11:00	2022-10-11T09:32:01.961628+11:00	35/40 Mort Street	BRADDON	ACT	2612	149.1320068	-35.2727337	Apartment	618	home.by holly	Holly Komorowski	2	2	2	6.0	
67768	residential	A space for everybody in this expansive suburban oasis	Auction 29/10/2022	2022-10-07T11:01:09.692726+11:00	2022-10-12T18:01:59.142376+11:00	26 Stapylton Street	HOLDER	ACT	2611	149.0461826	-35.3379604	House	232	Ray White Canberra	Alexandra Rogers	4	3	2	2.0	764.8
67772	residential	Fantastic home in sought after central location	Auction 29/10/2022	2022-10-07T11:17:16.662005+11:00	2022-10-13T11:48:03.772004+11:00	12 Fernyhough Crescent	LYNEHAM	ACT	2602	149.1194464	-35.2384031	House	232	Ray White Canberra	Megan Van Arkel	3	2	2	2.0	572.0
67773	residential	Expansive ground floor apartment	$459,000+	2022-10-07T11:36:08.548318+11:00	2022-10-13T11:01:37.167733+11:00	10/16 David Miller Crescent	CASEY	ACT	2913	149.0972698	-35.1709317	Apartment	410	MARQ Property	Sam Taylor	2	2	2	6.0	
67775	residential	The Craftsman	Auction	2022-10-07T11:43:58.476983+11:00	2022-10-10T11:32:52.501957+11:00	1 Binney Close	DUNLOP	ACT	2615	149.021873	-35.1879461	House	2647	Timothy Road	Tim McInnes	4	2	4	6.0	629.0
67776	residential	large one-bedroom unit near everything you need!	Auction	2022-10-07T11:31:34.610882+11:00	2022-10-12T12:02:12.292951+11:00	7/21 Wiseman Street	MACQUARIE	ACT	2614	149.0743575	-35.2526173	Apartment	436	LJ Hooker Dickson	Ryan Hedley	1	1	1	6.0	
67777	residential	Ground Floor . High Ceilings . Open Plan	Offers Over $399,000	2022-10-07T11:58:45.046679+11:00	2022-10-10T12:16:32.183150+11:00	6/116 Easty Street	PHILLIP	ACT	2606	149.0906558	-35.34654039999999	Unit	413	Luton Tuggeranong	Michael Martin	1	1	1	6.0	
67778	residential	Inviting home with generous, light filled living areas and fresh updating, in quiet street, steps to caf!	Auction	2022-10-07T11:47:39.138114+11:00	2022-10-07T14:16:34.730331+11:00	24 Gardiner Street	DOWNER	ACT	2602	149.1477055	-35.2462465	House	273	Luton Dickson	Aniko and Peter Carey	3	1	1	0.0	769.0
67779	residential	forever.home	Auction Saturday 29th October 2:15pm	2022-10-07T11:46:20.699896+11:00	2022-10-13T08:31:36.510254+11:00	43 Holmes Crescent	CAMPBELL	ACT	2612	149.161344	-35.2893947	House	618	home.by holly	Holly Komorowski	3	2	2	2.0	944.0
67790	residential	Love at first sight	Auction 29/10/2022	2022-10-07T13:23:18.892366+11:00	2022-10-13T09:48:51.962643+11:00	6/51 Ainsworth Street	MAWSON	ACT	2607	149.09666449999995	-35.3582453	Townhouse	232	Ray White Canberra	Lisa Silberberg	2	1	2	5.0	
67795	residential	Two bedroom in Resort Style Trilogy! 	$549,000+	2022-10-07T14:37:47.152767+11:00	2022-10-12T10:31:32.657314+11:00	35/7 Irving Street	PHILLIP	ACT	2606	149.0845284	-35.3388475	Apartment	2853	Bastion Property Group	Rob Cappuccio	2	2	1	6.0	
67800	residential	One Bedroom Plus Study Top Floor Apartment - Offers over $370,000	Auction 26/10/2022	2022-10-07T15:26:11.498506+11:00	2022-10-14T15:01:43.411564+11:00	58/20 Bindubi Street	MACQUARIE	ACT	2614	149.0735953	-35.2531398	House	232	Ray White Canberra	Peter Walker	1	1	1	6.0	
67804	residential	elevated.calm	Auction 3:45pm Saturday 29 October	2022-10-07T16:42:54.577297+11:00	2022-10-12T15:01:40.228371+11:00	9 Yarrow Place	O'CONNOR	ACT	2602	149.1172936	-35.2485561	House	618	home.by holly	Holly Komorowski	6	2	2	0.50	1535.00
67811	residential	awesome.feel 	$498,000+	2022-10-07T18:43:21.118339+11:00	2022-10-12T15:01:33.774846+11:00	72/20 Federal Highway	WATSON	ACT	2602	149.1566107	-35.2283344	Apartment	618	home.by holly	Jenny Michael And Mark McReynolds	2	2	2	6.0	
67824	residential	Why wait to build? You can own this now!	Auction 29/10/2022	2022-10-10T10:12:51.754298+11:00	2022-10-11T00:42:31.123985+11:00	23 Patkins Street	WHITLAM	ACT	2611	149.041277	-35.2751651	House	1744	Reliance Residential	Shelly Gupta	4	3	2	5.5	420.0
67830	residential	Style, Location & Convenience!	Offers Over $1429,000	2022-10-10T12:08:15.491243+11:00	2022-10-10T13:01:33.710483+11:00	73 Mcmichael Terrace	DENMAN PROSPECT	ACT	2611	149.0249381	-35.3004901	House	2880	Confidence Real Estate	Anish Sebastian	4	2	2	6.0	
67833	residential	Renovated Bottom Floor Unit	$240,000 - $260,000	2022-10-10T13:09:18.665669+11:00	2022-10-11T14:32:49.866816+11:00	18/10 Arthur Street	QUEANBEYAN	NSW	2620	149.2166535	-35.3462102	Apartment	623	Ray White Queanbeyan | Jerrabomberra	Ben Mills	1	1	1		
67859	residential	Extensive Family Home 	AUCTION	2022-10-10T16:14:39.740338+11:00	2022-10-12T16:32:11.243465+11:00	3 Dartnell Street	GOWRIE	ACT	2904	149.1096021	-35.4061261	House	34	McIntyre Property	Colin McIntyre	6	2	3	2.5	753.0
67863	residential	Your New Home Awaits!	Auction	2022-10-10T16:23:10.870751+11:00	2022-10-13T09:32:31.578939+11:00	21 Macfarlan Place	LATHAM	ACT	2615	149.0304505	-35.2166603	House	441	LJ Hooker Kippax	Sandra Masters	2	1	1	1.00	365.00
67866	residential	Spacious and light-filled	Offers over $399,000	2022-10-10T17:01:43.614606+11:00	2022-10-10T17:02:38.718326+11:00	24/1 Cowlishaw Street	GREENWAY	ACT	2900	149.0625219	-35.4147507	Apartment	412	Luton Manuka	Kate Yates	1	1	1	6.00	
67870	residential	Live here or invest, you will win in any case.	$349,999+	2022-10-10T17:13:51.784715+11:00	2022-10-11T19:01:31.784779+11:00	215/38 Gozzard Street	GUNGAHLIN	ACT	2912	149.1324339	-35.1855613	Apartment	1832	One Agency Gungahlin	Yubi Baral	1	1	1	6.00	
67873	residential	Modern Sophistication - Home Sweet Home	By Negotiation	2022-10-10T18:49:49.615013+11:00	2022-10-11T19:01:43.574667+11:00	6/2  ROUSEABOUT STREET 	LAWSON	ACT	2617	149.0902225	-35.2277576	Townhouse	636	Impact Properties	Lameh Mourad	3	2	2	6.0	
67879	residential	An Exciting Development Opportunity Presenting Enormous Appeal R3 zoning	BY NEGOTIATION	2022-10-11T10:00:39.729438+11:00	2022-10-12T09:16:30.453056+11:00	18 Waterloo St	QUEANBEYAN	NSW	2620	149.2421737	-35.3422951	House	3720	Ward Estate Agents	Greg Ward	3	1	1		765.1
67882	residential	Peaceful, Private and Leafy Home Sanctuary	Auction 29/10/2022	2022-10-11T10:20:18.753228+11:00	2022-10-14T15:47:33.153490+11:00	18 Mcmahon Court	KAMBAH	ACT	2902	149.0764423	-35.3875067	House	232	Ray White Canberra	Alec Brown	3	1	2	2.50	875.00
67884	residential	Immense Family Appeal in a Fantastic Location	Auction 05/11/2022	2022-10-11T10:46:51.771844+11:00	2022-10-11T10:48:47.925679+11:00	8 Towers Place	GORDON	ACT	2906	149.0903419	-35.4526331	House	232	Ray White Canberra	Cameron Whitnall	4	2	2	4.0	1040.0
67886	residential	Single level residence of grand proportions!	Auction 29/10/2022	2022-10-11T10:50:19.957755+11:00	2022-10-13T16:47:16.685078+11:00	24 Ballantyne Crescent	FRANKLIN	ACT	2913	149.1441616	-35.2018039	House	232	Ray White Canberra	Gerard Northey	5	2	2	6.00	590.99
67889	residential	Penthouse living in the heart of Tuggeranong	$675,000+	2022-10-11T11:20:38.497820+11:00	2022-10-11T12:48:04.950139+11:00	37/1 Cowlishaw Street	GREENWAY	ACT	2900	149.0625219	-35.4147507	Apartment	435	LJ Hooker Tuggeranong	Andrew Curren	3	2	2	5.50	
67894	residential	Contemporary Entertainer!	$1,000,000+	2022-10-11T12:57:38.105347+11:00	2022-10-14T10:31:38.464904+11:00	11 Muntz Street	CHISHOLM	ACT	2905	149.1238419	-35.4258292	House	34	McIntyre Property	Colin McIntyre	4	2	2	3.0	802.84
67897	residential	Functional Practical Family Home !	$839,000 - $859,000	2022-10-11T13:08:54.860702+11:00	2022-10-11T13:31:35.455662+11:00	49 Crest Park Parade	QUEANBEYAN WEST	NSW	2620	149.211963	-35.3597399	House	624	Ian McNamee & Partners - Queanbeyan	Michael Edwards	4	1	1		
67918	residential	Modern, Timeless & Neat as a Pin	$720,000+	2022-10-11T15:31:38.614229+11:00	2022-10-12T13:01:33.984901+11:00	32 Tregear Close	THEODORE	ACT	2905	149.1202986	-35.444789	House	34	McIntyre Property	Daryl Gough	3	1	2	2.0	420.0
67919	residential	Two-bedroom Townhouse with Great Views and Location! Bidding Guide from $600,000	Auction 29/10/22	2022-10-11T15:31:39.576993+11:00	2022-10-13T10:01:47.716429+11:00	83/47 Mowatt Stret 	QUEANBEYAN	NSW	2620	149.2458974	-35.3513956	Townhouse	624	Ian McNamee & Partners - Queanbeyan	Catherine McGeachy	2	2	2		
67989	residential	Outstanding Residence, Quiet Cul-de-Sac with Views!	Onsite AUCTION	2022-10-11T17:03:40.450434+11:00	2022-10-11T17:09:25.834694+11:00	10 Myrtle Close	JERRABOMBERRA	NSW	2619	149.1972867	-35.4054347	House	623	Ray White Queanbeyan | Jerrabomberra	Brad O'Mara	6	3	2		888.0
68025	residential	Exceptional family residence set amongst nature 	Auction Onsite	2022-10-12T07:17:13.145182+11:00	2022-10-13T15:01:42.525049+11:00	170 Kingsford Smith Drive	SPENCE	ACT	2615	149.0606615	-35.2038735	House	410	MARQ Property	Jason Anasson	4	2	2	1.00	807.00
68026	residential	Stunning, updated home	Auction Saturday 5th November at 1:30pm	2022-10-12T08:23:17.949755+11:00	2022-10-12T09:01:41.850451+11:00	12 Truganini Place	CHISHOLM	ACT	2905	149.1194016	-35.4201172	House	684	McCann Properties	Mark McCann	3	2	2	4.5	814.0
68029	residential	STYLISH TOP FLOOR LIVING IN THE HEART OF BRADDON	By Negotiation	2022-10-12T08:32:08.661432+11:00	2022-10-12T21:16:40.472241+11:00	434/24 Lonsdale Street	BRADDON	ACT	2612	149.1332414	-35.2726992	Apartment	1099	The Real Estate Shop	Natalie Roberts	1	1	1	6.00	
68032	residential	Beautifully Presented And Opportunity To Update	Auction 30/10/2022	2022-10-12T09:36:15.941609+11:00	2022-10-13T10:47:14.792710+11:00	4 Goodparla Street	HAWKER	ACT	2614	149.0379802	-35.2525678	House	232	Ray White Canberra	Mark Johnstone	4	2	2	1.5	1163.0
68034	residential	An abundance of satisfaction!	Auction 29/10/22	2022-10-12T10:32:39.826238+11:00	2022-10-12T10:35:00.726510+11:00	12 Huelin Circuit	FLYNN	ACT	2615	149.046093	-35.202206	House	232	Ray White Canberra	Jake Battenally	4	2	2	2.5	725.0
68035	residential	Life on Livingston	$790,000+	2022-10-12T10:46:26.007978+11:00	2022-10-14T15:46:47.719669+11:00	73  Livingston Avenue	KAMBAH	ACT	2902	149.080074	-35.3889214	House	413	Luton Tuggeranong	Kelsey White	3	1	2	1.00	686.00
68036	residential	peaceful.lifestyle 	$740,000+	2022-10-12T11:06:19.085597+11:00	2022-10-12T15:16:35.991441+11:00	2 Stenhouse Close	EVATT	ACT	2617	149.0662653	-35.210894	House	618	home.by holly	Jenny Michael And Mark McReynolds	3	2	2	4.0	488.0
68038	residential	position.perfect 	$360,000+	2022-10-12T11:18:06.655380+11:00	2022-10-12T15:01:32.203189+11:00	9B/109 Knox Street	WATSON	ACT	2602	149.1558705	-35.2393755	Apartment	618	home.by holly	Jenny Michael And Mark McReynolds	2	1	1	3.50	
68039	residential	Large 97m2 Updated 2 Bedroom unit	EOI: Closes 5.00pm Wednesday 9th November 2022	2022-10-12T11:24:45.583727+11:00	2022-10-12T16:01:32.962254+11:00	48/53 Dawes Street	KINGSTON	ACT	2604	149.1461354	-35.3162498	Apartment	626	Berkely Residential	Simon Richards	2	2	2	6.0	
68040	residential	Large Family Living Has Never Looked So Appealing	Auction 05/11/2022	2022-10-12T11:23:20.739686+11:00	2022-10-12T13:02:30.632403+11:00	34 Burdekin Street	DUFFY	ACT	2611	149.0353358	-35.3412114	House	232	Ray White Canberra	Cameron Whitnall	5	2	2	3.00	903.50
68057	residential	My potential is endless	By Negotiation	2022-10-12T12:04:05.393770+11:00	2022-10-13T11:01:44.226452+11:00	14 Dale Circuit	KAMBAH	ACT	2902	149.0612891	-35.398725	House	513	My Morris	Zac Morris	3	2	2	0.50	1710.00
68058	residential	My beautiful new start	$860,000+	2022-10-12T12:15:09.935675+11:00	2022-10-13T11:01:40.012601+11:00	9 Chirnside Place	KAMBAH	ACT	2902	149.0573442	-35.3852047	House	513	My Morris	Zac Morris	3	1	2	3.0	971.0
68060	residential	How wonderful to be a City dweller	Auction	2022-10-12T12:16:34.351951+11:00	2022-10-12T12:17:30.127454+11:00	706/2 Batman Street	BRADDON	ACT	2612	149.1356385	-35.2781547	Apartment	440	LJ Hooker Canberra City	Kaylene King	2	2	2	6.0	
68100	residential	A Stylish and Easy-Care Lifestyle to Enjoy	Auction 29/10/2022	2022-10-12T13:47:27.297456+11:00	2022-10-12T13:50:22.208095+11:00	73 Outtrim Avenue	CALWELL	ACT	2905	0	0	House	232	Ray White Canberra	Kaine Walters	4	3	2	2.00	1048.00
68102	residential	Picture Perfect Home in Queanbeyan !	Auction 5/11/22	2022-10-12T14:01:27.192591+11:00	2022-10-12T14:01:44.050455+11:00	5 Tennyson Drive	QUEANBEYAN EAST	NSW	2620	149.2491776	-35.353115	House	624	Ian McNamee & Partners - Queanbeyan	Michael Edwards	3	2	2		529.00
68107	residential	Single Level Courtyard Home	Auction	2022-10-12T14:13:11.499658+11:00	2022-10-13T13:46:50.233900+11:00	14 Phillipa Weeks Street	WATSON	ACT	2602	149.1682535	-35.2253721	House	436	LJ Hooker Dickson	Andrew Browne	2	1	1	6.00	200.00
68110	residential	Bring Your Tools and Tradie Mates	Auction 29/10/2022	2022-10-12T14:10:11.972198+11:00	2022-10-13T09:32:54.853775+11:00	13/28 Springvale Drive	HAWKER	ACT	2614	149.0431571	-35.2458985	House	232	Ray White Canberra	Treston Bamber	2	1	1	2.00	
68111	residential	caldwell.cosy 	Auction 10.00am Saturday 5 November	2022-10-12T14:36:08.018816+11:00	2022-10-13T14:16:42.988049+11:00	21 Caldwell Street	HACKETT	ACT	2602	149.1592802	-35.2483778	House	618	home.by holly	Jenny Michael And Mark McReynolds	2	2	0	0.5	808.0
68153	residential	Landmark first-class residence with a list of features to match.	Auction - 2/11/22	2022-10-12T15:53:00.023651+11:00	2022-10-12T16:32:18.068089+11:00	45 Castlereagh Crescent	MACQUARIE	ACT	2614	149.0570528	-35.2520777	House	1072	Independent Gungahlin	Michael Wang	6	4	4	5.5	
68202	residential	Stunning home, quiet street	Auction	2022-10-12T16:28:07.932546+11:00	2022-10-14T09:46:34.768511+11:00	4 Clendinnen Street	DUNLOP	ACT	2615	149.015796	-35.1928264	House	411	Luton Kippax	Ben Oostermeyer	3	2	2	5.50	496.00
68204	residential	Ground Floor Luxury	$530,000+	2022-10-12T16:27:40.772713+11:00	2022-10-13T14:16:36.357064+11:00	3/58 Eileen Good Street	GREENWAY	ACT	2900	149.0621633	-35.4124015	Apartment	34	McIntyre Property	Colin McIntyre	2	2	1	5.00	
68225	residential	Modern and charming	Auction	2022-10-12T16:39:06.114720+11:00	2022-10-13T10:16:33.408627+11:00	58 Macfarlane Burnet Avenue	MACGREGOR	ACT	2615	149.0045262	-35.2125304	House	411	Luton Kippax	Ben Oostermeyer	3	2	2	4.5	600.0
68228	residential	An Entry Level Opportunity	Auction	2022-10-12T16:46:27.840537+11:00	2022-10-12T16:47:07.311874+11:00	4 Tuart Place	RIVETT	ACT	2611	149.0370389	-35.3499918	House	440	LJ Hooker Canberra City	Andy Greenberger	3	1	0	1.5	540.8
68243	residential	Waterfront paradise	By Negotiation	2022-10-12T19:57:08.410219+11:00	2022-10-13T14:01:36.255760+11:00	125 Mortimer Lewis Drive	GREENWAY	ACT	2900	149.0722625	-35.4071948	House	513	My Morris	Sandy Morris	3	2	2	6.0	
68244	residential	Freestanding, light-filled, single-level townhouse in a quiet, convenient location	Auction	2022-10-13T07:29:27.867061+11:00	2022-10-14T12:16:47.366926+11:00	1/61 Ashby Circuit	KAMBAH	ACT	2902	149.0647689	-35.3953853	Townhouse	414	Luton Weston Creek & Molonglo Valley	Tim and Justine Burke	3	2	2	2.50	458.00
68246	residential	North facing, one bedroom + study apartment 	$649,000	2022-10-13T08:35:27.444736+11:00	2022-10-13T10:31:32.933398+11:00	11/3 Tench Street	KINGSTON	ACT	2604	149.1400121	-35.3143106	Apartment	412	Luton Manuka	Sophie Luton	1	1	1	6.00	
68247	residential	Perfect entry level home	$800,000+	2022-10-13T08:36:07.147152+11:00	2022-10-13T10:16:42.719387+11:00	1 Cheyne Place	KAMBAH	ACT	2902	149.0472584	-35.3875438	House	513	My Morris	Sandy Morris	3	1	2	1.0	1042.0
68248	residential	Beautifully renovated terrace with dual zoning for commercial and residential use.	Auction	2022-10-13T08:35:27.244713+11:00	2022-10-13T10:16:33.760757+11:00	17 Murray Crescent	GRIFFITH	ACT	2603	149.132239	-35.3217968	DuplexSemi-detached	412	Luton Manuka	Sophie Luton	7	2	9	0.5	619.0
68249	land	Nearly ready to build on.	$480,000 - $490,000	2022-10-13T09:01:25.531205+11:00	2022-10-13T09:01:38.008604+11:00	Lot 641 South Jerrabomberra, 2 Hyssop Street	TRALEE	NSW	2620	149.2107365	-35.3829753	Land	409	Luton Gungahlin	Stuart James	0	0	0		433.0
68250	residential	Modern Refreshed - Ready To Move In	Auction	2022-10-13T08:57:49.535382+11:00	2022-10-13T09:32:05.242979+11:00	13A Blackman Crescent	MACQUARIE	ACT	2614	149.0648823	-35.2489909	House	408	Luton Belconnen	Charles Blackney	4	2	2	4.00	
68252	residential	Something Special in Springbank Rise 	Auction	2022-10-13T09:30:36.293527+11:00	2022-10-14T16:46:36.724663+11:00	27 Patrick Shaw Street	CASEY	ACT	2913	149.1005192	-35.1576765	House	409	Luton Gungahlin	Adrian Giampietro	3	2	2	5.00	
68254	residential	Solid Family Home In Kambah!	Auction 12/11/22	2022-10-13T09:30:42.033546+11:00	2022-10-14T10:16:41.535699+11:00	7 Tiernan Place	KAMBAH	ACT	2902	149.0761733	-35.3930131	House	624	Ian McNamee & Partners - Queanbeyan	Lucy MacGregor	4	1	2	1.50	702.00
68255	residential	Sleek, Stylish and Offering a Pristine Easy-care Lifestyle	By Negotiation	2022-10-13T09:32:57.013443+11:00	2022-10-13T09:35:05.047544+11:00	2/1 Greenough Circuit	KALEEN	ACT	2617	149.1114725	-35.2267213	Townhouse	232	Ray White Canberra	Alec Brown	4	2	2	6.0	308.0
68258	residential	Sensational starter	By Negotiation	2022-10-13T09:47:50.662872+11:00	2022-10-13T09:48:47.068066+11:00	19/68 Hardwick Crescent	HOLT	ACT	2615	149.019269	-35.2203905	Apartment	411	Luton Kippax	Ben Oostermeyer	1	1	1	5.0	
68260	residential	generous.dryandra	By Negotiation	2022-10-13T10:01:16.593911+11:00	2022-10-14T13:32:00.242985+11:00	82 Dryandra Street	O'CONNOR	ACT	2602	149.1119342	-35.2612791	House	618	home.by holly	Ash Costello	4	3	1	2.5	
68261	residential	Design your Dream in Convenient Curtin	Auction: Saturday 5th November, on site at 10:00am	2022-10-13T10:17:05.702071+11:00	2022-10-13T10:18:18.491733+11:00	53 Carruthers Street	CURTIN	ACT	2605	149.0758146	-35.3287693	House	443	LJ Hooker Manuka	Stephen Thompson	3	1	1	0.5	1267.0
68264	residential	The Hamptons Meets French Provincial 	Auction	2022-10-13T10:25:34.845011+11:00	2022-10-13T11:46:38.062261+11:00	75 Weatherstone Circuit	GOOGONG	NSW	2620	149.237163	-35.4301761	House	412	Luton Manuka	Sophie Luton	5	3	2		430.0
68265	residential	Modern Lifestyle & Perfect Location	$649,000+	2022-10-13T10:17:23.543025+11:00	2022-10-13T13:01:50.263015+11:00	107/253 Northbourne Avenue	LYNEHAM	ACT	2602	149.1320501	-35.2578029	Apartment	443	LJ Hooker Manuka	Samuel Thompson	2	2	2	6.00	
68266	residential	Ready and waiting for you to move in	Auction	2022-10-13T10:17:11.547252+11:00	2022-10-13T12:02:32.301621+11:00	45 Tallara Parkway	NARRABUNDAH	ACT	2604	149.1542034	-35.3357471	House	232	Ray White Canberra	Chris Dixon	2	1	0	5.00	461.75
68269	land	An Unmissable Opportunity in a Prime Investment Pocket R3 zoning	BY NEGOTIATION	2022-10-13T11:15:38.909014+11:00	2022-10-13T12:46:27.742056+11:00	19 Gilmore Place	QUEANBEYAN	NSW	2620	149.2192344	-35.3579415	Land	3720	Ward Estate Agents	Greg Ward	0	0	0		929.10
68270	residential	Where Luxury Lives	Auction: Saturday 5th November, On Site at 3:00pm	2022-10-13T11:04:52.728844+11:00	2022-10-13T12:46:37.319985+11:00	28 Luffman Crescent	GILMORE	ACT	2905	149.133463	-35.418137	House	443	LJ Hooker Manuka	Samuel Thompson	4	3	2	0.0	1250.0
68271	residential	elimatta.harmony	Auction Saturday 12 November 1pm	2022-10-13T11:18:20.926891+11:00	2022-10-13T15:31:39.607070+11:00	69 Elimatta Street	BRADDON	ACT	2612	149.1384197	-35.2752491	House	618	home.by holly	Holly Komorowski	4	3	2	1.0	846.0
68274	residential	You will know, as soon as you step inside	$1,000,000+	2022-10-13T11:30:35.807446+11:00	2022-10-14T12:32:13.958738+11:00	10 Clarendon Street	AMAROO	ACT	2914	149.1344274	-35.1710748	House	233	LJ Hooker Gungahlin	Jeff Shortland	4	2	2	5.50	522.00
68275	residential	Large block on a quiet street, minutes to Tuggeranong	Auction 03/11/2022	2022-10-13T11:32:03.260574+11:00	2022-10-13T11:33:20.669100+11:00	10 Farrelly Close	OXLEY	ACT	2903	0.0	0.0	House	232	Ray White Canberra	Kate Coultas	4	2	2	2.0	847.0
68277	residential	Tranquility & Peace with Inner South Convenience	Auction 5 November @ 11.00am	2022-10-13T11:37:03.232784+11:00	2022-10-13T16:46:37.170839+11:00	28/10 Ovens Street	GRIFFITH	ACT	2603	149.1393517	-35.31868	Apartment	433	Maloney's Property	Moira Maloney	2	2	1	6.0	
68279	residential	Expansive family home on huge block	Auction 05/11/2022	2022-10-13T11:38:16.766897+11:00	2022-10-14T08:31:40.105563+11:00	2 Hurry Place	CHISHOLM	ACT	2905	149.1198277	-35.4219626	House	232	Ray White Canberra	Dan Cooper	4	2	6	3.00	1025.00
68281	residential	MODERN LIVING - SUPERB LOCATION	$849,000+	2022-10-13T11:58:17.249708+11:00	2022-10-13T13:16:34.429245+11:00	79 Plimsoll Drive	CASEY	ACT	2913	149.0969672	-35.1656667	Townhouse	1083	Michael Potter Real Estate	Alisa Lawrence	4	2	2	5.00	210.00
68282	residential	Stunning Designer Family Home	By Negotiation	2022-10-13T11:58:57.226928+11:00	2022-10-14T14:31:33.911589+11:00	19 Glenelg Street	KALEEN	ACT	2617	149.1139299	-35.2170737	House	2853	Bastion Property Group	Theo Koutsikamanis	4	3	3	6.0	839.0
68283	residential	Where Nature Is Your Neighbour	Auction 29/10/2022	2022-10-13T11:58:17.220627+11:00	2022-10-13T12:32:27.365031+11:00	4 Crofts Place	SPENCE	ACT	2615	149.0616926	-35.1965504	House	232	Ray White Canberra	Peter Walker	4	2	4	3.00	1166.00
68288	residential	The Dream Opportunity for a Perfect Family Lifestyle!	Auction	2022-10-13T11:01:13.534855+11:00	2022-10-13T16:47:50.852931+11:00	67 Turbayne Crescent	FORDE	ACT	2914	149.1503972	-35.1605967	House	1534	New Door Properties	Varun Dhand	4	2	2	6.00	388.00
68289	residential	Complete Family Setting with Self-Contained Studio Accommodation!	Auction	2022-10-12T14:37:11.672878+11:00	2022-10-13T14:17:19.716982+11:00	10 Verreaux Crescent	THROSBY	ACT	2914	149.1652461	-35.1978383	House	1534	New Door Properties	Yash Sethi	6	4	2	4.5	653.0
68290	residential	No Need To Wait. Start Living The Dream.	Contact Agent	2022-10-13T12:32:55.732820+11:00	2022-10-14T10:02:12.005227+11:00	9/5 Blakey Close	MONASH	ACT	2904	149.0801118	-35.4148938	Terrace	1069	Crowthers	Cameron Cleary	3	2	2	4.0	255.0
68291	residential	THE CITY AT YOUR DOORSTEP	$460,000	2022-10-13T12:37:36.857425+11:00	2022-10-14T11:46:30.801216+11:00	903/222 City Walk	CITY	ACT	2601	149.1321402	-35.2803658	Apartment	412	Luton Manuka	Shane Hughes	1	1	1	6.00	
68293	residential	You'll want to live here!	Auction	2022-10-13T12:44:45.568876+11:00	2022-10-14T12:47:16.811573+11:00	24 Wyselaskie Circuit	KAMBAH	ACT	2902	149.0620512	-35.3792875	House	438	LJ Hooker Woden/Weston	Brian McPherson	3	2	2	4.00	554.00
68296	residential	Plenty of Options on Paterson!	Auction 04/11/2022	2022-10-13T13:06:58.585645+11:00	2022-10-14T14:46:45.691424+11:00	70 Paterson Street	AINSLIE	ACT	2602	149.1419186	-35.2658652	House	436	LJ Hooker Dickson	Stephen Bunday	4	2	1	2.50	838.80
68297	residential	Excitingly Different	Auction 29/10/2022	2022-10-13T13:09:14.295297+11:00	2022-10-14T09:16:50.920961+11:00	9 O'Sullivan Street	HIGGINS	ACT	2615	149.0307194	-35.23770349999999	House	232	Ray White Canberra	Peter Walker	4	2	2	1.50	921.00
68298	residential	OWN YOUR PIECE AT THE GALLERY	$649,000	2022-10-13T13:46:28.344562+11:00	2022-10-13T13:46:45.895739+11:00	21/50 Moore Street	TURNER	ACT	2612	0	0	Apartment	1099	The Real Estate Shop	Natalie Roberts	2	2	1	6.00	
68299	residential	happy.home	Auction 9:00am Saturday 29 October	2022-10-13T14:15:01.134397+11:00	2022-10-14T20:01:35.944501+11:00	73 Ashkanasy Crescent	EVATT	ACT	2617	149.0723624	-35.2088859	House	618	home.by holly	Cris O'Brien	4	1	1	5.00	426.00
68301	residential	Stylishly renovated with space for the whole family	Auction 02/11/2022	2022-10-13T14:31:15.558882+11:00	2022-10-13T14:46:57.905900+11:00	148 Heagney Crescent	CHISHOLM	ACT	2905	149.1318707	-35.4263132	House	232	Ray White Canberra	Kate Coultas	3	2	2	2.0	776.0
68311	residential	Light and bright own-title townhouse in walkable location	Auction	2022-10-13T14:59:17.265637+11:00	2022-10-14T09:47:24.972252+11:00	218 Anthony Rolfe Avenue	GUNGAHLIN	ACT	2912	149.1459748	-35.1855417	House	232	Ray White Canberra	Phyllis Tidmarsh	3	2	2	6.0	231.0
68316	residential	 Expansive home offering flexible family living	Auction	2022-10-13T15:31:43.888861+11:00	2022-10-13T15:33:15.995686+11:00	32 Moroak Street	HAWKER	ACT	2614	149.0420589	-35.2525565	House	232	Ray White Canberra	Phyllis Tidmarsh	5	3	2	0.0	
68318	residential	Builders, Renovators, Entry Level Buy in Fadden!	AUCTION	2022-10-13T15:44:46.345616+11:00	2022-10-14T10:31:35.456800+11:00	3 Annear Place	FADDEN	ACT	2904	149.1209041	-35.4020293	House	34	McIntyre Property	Colin McIntyre	4	2	2	4.0	862.0
68321	residential	Charming home on Desirable RZ2 block 	Auction 11am Saturday 12th November	2022-10-13T16:03:26.722050+11:00	2022-10-13T16:04:44.682449+11:00	23 Mcnicoll Place	HUGHES	ACT	2605	149.0967093	-35.3347888	House	626	Berkely Residential	Bill Lyristakis	3	2	2	1.0	
68326	residential	Beautiful Sunlit Home In Prized Central Location	Auction	2022-10-13T16:46:37.586696+11:00	2022-10-13T16:47:56.582056+11:00	29/14 Marr Street	PEARCE	ACT	2607	149.0868522	-35.3592841	Townhouse	438	LJ Hooker Woden/Weston	Jane Kusetic	2	1	1	1.50	
68350	residential	Extended Tocumwal with Endless Options!	Auction 05/11/2022	2022-10-14T09:26:31.373138+11:00	2022-10-14T14:46:59.157455+11:00	14 Angas Street	AINSLIE	ACT	2602	149.1390252	-35.2639433	House	436	LJ Hooker Dickson	Stephen Bunday	4	2	1	1.50	1168.00
68353	residential	sanford.home	Auction Saturday 5 November 1:30pm	2022-10-14T09:51:20.206643+11:00	2022-10-14T10:16:34.653588+11:00	12 Sanford Place	KALEEN	ACT	2617	149.1160603	-35.2261633	House	618	home.by holly	Holly Komorowski	5	3	2	3.50	883.00
68355	residential	Fresh, modern and inviting.	Auction Sat, 5th Nov at 10:00am	2022-10-14T09:47:52.445249+11:00	2022-10-14T15:01:31.897473+11:00	78/100 Henry Kendall Street	FRANKLIN	ACT	2913	149.1495451	-35.189468	Unit	233	LJ Hooker Gungahlin	Jake Bunday	2	2	2	0.0	
68361	residential	Well kept home in central location 	Auction 5/11/22	2022-10-14T10:47:12.926185+11:00	2022-10-14T10:48:42.139877+11:00	36 Wattle Street	LYNEHAM	ACT	2602	0	0	House	232	Ray White Canberra	Maree Van Arkel	3	1	2	1.50	664.00
68363	residential	eady.elegance	Auction Saturday 5 November 12:00pm	2022-10-14T10:57:19.103012+11:00	2022-10-14T11:17:03.691395+11:00	12 Eady Street	DICKSON	ACT	2602	149.1508458	-35.2518314	House	618	home.by holly	Holly Komorowski	4	2	1	4.00	739.00
68364	residential	so.convenient 	$358,000	2022-10-14T11:09:05.204404+11:00	2022-10-14T12:16:38.187636+11:00	41/6 Gungahlin Place	GUNGAHLIN	ACT	2912	149.135661	-35.1806555	Apartment	618	home.by holly	Jenny Michael And Mark McReynolds	1	1	1	6.00	
68365	residential	Your Home on Hawdon!	Auction 05/11/2022	2022-10-14T11:29:55.038740+11:00	2022-10-14T17:31:35.981099+11:00	26A Hawdon Street	AINSLIE	ACT	2602	149.1513064	-35.257275	DuplexSemi-detached	436	LJ Hooker Dickson	Stephen Bunday	3	1	1	2.00	
68370	residential	Family Home with Convenience 	Auction	2022-10-13T11:35:18.147422+11:00	2022-10-14T12:23:45.282651+11:00	23 Hayward Street	MACGREGOR	ACT	2615	149.0206358	-35.2128363	House	437	LJ Hooker Belconnen	George Vlandis	4	2	2	1.0	699.0
68371	residential	More Space Than You think! 	Auction	2022-10-12T11:23:24.799614+11:00	2022-10-14T12:32:47.609459+11:00	114/15 John Cleland Crescent	FLOREY	ACT	2615	149.0587839	-35.2270172	Unit	437	LJ Hooker Belconnen	George Vlandis	3	1	1	6.00	
68373	residential	First time offered for sale in over 50 years!	Auction 03/11/2022	2022-10-14T12:14:38.064476+11:00	2022-10-14T18:01:39.251049+11:00	6 Charteris Crescent	CHIFLEY	ACT	2606	149.0802085	-35.3540219	House	1500	One Agency Scott Crossman	Scott Crossman	3	1	2	0.00	885.00
68376	residential	Modern Family Home with Great Location 	Auction	2022-10-14T12:24:36.116619+11:00	2022-10-14T12:24:46.979074+11:00	2/358 Southern Cross Drive	MACGREGOR	ACT	2615	149.0082005	-35.2175306	House	437	LJ Hooker Belconnen	Happy Singh	4	2	2	6.0	446.0
68377	residential	Separate Title, Ideal Location	Auction	2022-10-14T12:27:32.450912+11:00	2022-10-14T12:27:46.233289+11:00	3 Gorrie Close	HAWKER	ACT	2614	149.0420141	-35.2486618	Townhouse	437	LJ Hooker Belconnen	Kathy Komar	2	1	1	1.5	372.0
68378	residential	Easy-care Living!	Auction	2022-10-12T11:19:18.137352+11:00	2022-10-14T13:16:56.007358+11:00	41/2 Ranken Place	BELCONNEN	ACT	2617	149.0604502	-35.2356955	Apartment	437	LJ Hooker Belconnen	Sharon Schnyder	1	1	1	6.00	
68381	residential	bespoke.beauty	Auction 9:00am Saturday 5 November	2022-10-14T12:36:20.747114+11:00	2022-10-14T13:01:50.861931+11:00	26 Wybalena Grove	COOK	ACT	2614	149.0716003	-35.26350559999999	House	618	home.by holly	Sally Strang	1	1	1	0.50	
68385	residential	Exceptionally Renovated Family Home	Auction	2022-10-14T13:11:45.351167+11:00	2022-10-14T14:16:34.869575+11:00	7 Bednall Place	MCKELLAR	ACT	2617	149.0733488	-35.2160789	House	413	Luton Tuggeranong	Gabbi Kalthofen	3	2	4	3.50	889.00
68402	residential	If you love large blocks and have big dreams	Auction 30/10/2022	2022-10-14T15:47:04.913683+11:00	2022-10-14T15:48:50.269368+11:00	12 O'Rourke Street	WEETANGERA	ACT	2614	149.0447931	-35.250418	House	232	Ray White Canberra	Peter Walker	3	3	1	1.00	1037.00
68407	land	399 m2 Block of Land for Sale 	$699,000+	2022-10-14T16:46:40.285346+11:00	2022-10-14T16:47:12.777684+11:00	47 Sculthorpe Avenue	WHITLAM	ACT	2611	149.0438146	-35.2709372	Land	1534	New Door Properties	Gurjant Singh	0	0	0		399.00
