id	type	DescriptionTitle	PriceLabel	ListingDate	ReListingDate	Address	Suburb	State	PostCode	Property.lat	Property.lon	PropertyType	Agency.Id	Agency.Name	Agent.Name	Beds	Baths	Cars	EER	PlotSize
72906	rental	Light filled home, walking distance to light rail.	$650 per week	2023-01-04T09:40:36.891369+11:00	2023-01-04T22:05:17.272021+11:00	25 Swinden Street	DOWNER	ACT	2602	149.1380272	-35.2442108	DuplexSemi-detached	2207	Zango Private Listers	Dominic Aungles	3	1	2	0.0	590.0
72922	rental	BRAND NEW THREE-BEDROOM TOWNHOUSE	$800 pw	2023-01-04T11:59:37.338339+11:00	2023-01-11T10:31:44.823553+11:00	3/17 Thynne Street	BRUCE	ACT	2617	149.093689	-35.2424106	Townhouse	409	Luton Gungahlin	Baljeet Kaur	3	2	2		
72929	rental	Wanting An Amazing Home With Multipurpose Room?	$660 Per Week	2023-01-04T14:05:36.507073+11:00	2023-01-06T11:46:39.835042+11:00	43/60 Kingsland Parade	CASEY	ACT	2913	149.0967766	-35.1722308	Townhouse	440	LJ Hooker Canberra City	Grace Bowman	2	2	2		
72930	rental	High End Living!	$620 Per Week	2023-01-04T14:42:09.348020+11:00	2023-01-06T11:46:40.508041+11:00	406/32 Mort Street	BRADDON	ACT	2612	149.1317585	-35.2740906	Apartment	440	LJ Hooker Canberra City	Dannielle McSpeerin	1	1	1		
72932	rental	Fantastic Family Home In Peaceful Location	$735 per week	2023-01-04T15:11:32.606805+11:00	2023-01-06T14:01:41.808644+11:00	7 Spec Place	PALMERSTON	ACT	2913	149.1124724	-35.1970199	House	233	LJ Hooker Gungahlin	LJ Hooker Gungahlin	4	2	2	0.0	
72934	rental	Family Home With Great Yard and Views to Black Mountain	$750 - $780 per week	2023-01-04T15:02:12.087621+11:00	2023-01-06T14:01:42.273533+11:00	5 Essie Coffey Street	BONNER	ACT	2914	149.1467634	-35.1557636	House	233	LJ Hooker Gungahlin	LJ Hooker Gungahlin	4	2	2		
72936	rental	Spacious Three Bedroom Townhouse	$550 / Wk	2023-01-04T15:46:30.571049+11:00	2023-01-04T15:46:50.130367+11:00	4/61 Maynard Street	NGUNNAWAL	ACT	2913	149.1122263	-35.1616987	Townhouse	233	LJ Hooker Gungahlin	LJ Hooker Gungahlin	3	1	0	4.0	344.0
72937	rental	Spacious 2 Bedroom Apartment	$475 per week	2023-01-04T16:15:43.043716+11:00	2023-01-04T16:31:37.515389+11:00	46/289 Flemington Road	FRANKLIN	ACT	2913	149.1509078	-35.1918687	Apartment	233	LJ Hooker Gungahlin	LJ Hooker Gungahlin	2	1	1	6.0	
72938	rental	Handy Location - recently renovated	$400 per week	2023-01-04T17:01:01.142166+11:00	2023-01-06T15:46:37.965559+11:00	84/27 Coxen Street	HUGHES	ACT	2605	149.0923847	-35.3348571	Apartment	433	Maloney's Property	Ned Hibbert	1	1	1		
72939	rental	Modern Inner-City Apartment	$595 per week	2023-01-04T16:48:23.015327+11:00	2023-01-09T10:46:36.215413+11:00	72/20 Allara Street	CITY	ACT	2601	149.1333284	-35.2824159	Apartment	433	Maloney's Property	Ned Hibbert	1	1	1		
72940	rental	Large Family Home in Florey 	$700 Per Week	2023-01-04T17:01:47.794488+11:00	2023-01-04T17:02:01.854629+11:00	40 Lightfoot Crescent	FLOREY	ACT	2615	149.0562235	-35.233303	House	437	LJ Hooker Belconnen	Leasing Team	4	2	2		
72942	rental	"2 BEDROOM ""JADE"" APARTMENT"	$550 per week	2023-01-04T20:41:43.615474+11:00	2023-01-09T14:22:50.068116+11:00		GUNGAHLIN	ACT	2912	0.0	0.0	Apartment	2207	Zango Private Listers	Courtney Foster	2	1	1	7.7	2193.0
72944	rental	Weston Family Sanctuary	$760 per week	2023-01-05T08:24:15.970126+11:00	2023-01-10T11:31:33.647256+11:00	69 Hilder Street	WESTON	ACT	2611	149.0611546	-35.3366498	House	629	Badenoch Real Estate	Paul Hunter	4	2	3		0.0
72945	rental	Idyllic Location!	$700 per week	2023-01-05T08:30:17.576550+11:00	2023-01-10T11:46:38.334631+11:00	 3/14 Aida Ball Circuit	FORDE	ACT	2914	149.1504196	-35.1741159	House	629	Badenoch Real Estate	Paul Hunter	4	2	2		0.0
72952	rental	Recently updated throughout - 3 bedroom home - soon to be 4!	$850 / Wk	2023-01-05T10:40:47.021406+11:00	2023-01-06T12:31:42.862837+11:00	119 Limestone Avenue	BRADDON	ACT	2612	149.1362665	-35.2640788	House	436	LJ Hooker Dickson	Melanie Brill	3	1	1	1.0	
72958	rental	CONVENIENT LIFESTYLE LIVING	$520 pw	2023-01-05T12:44:43.443621+11:00	2023-01-09T15:31:30.197696+11:00	29/54 Ernest Cavanagh Street	GUNGAHLIN	ACT	2912	149.1354088	-35.1849611	Apartment	409	Luton Gungahlin	Luton Properties	2	2	2	4.5	
72961	rental	Gorgeous 2 Bedroom Apartment	$550	2023-01-05T13:45:15.810122+11:00	2023-01-09T13:01:32.514613+11:00	26/82 Henry Kendall Street	FRANKLIN	ACT	2913	149.1506439	-35.1917912	Apartment	1818	Knight Property Solutions	Samantha Gibbs	2	2	2		
72963	rental	One Bedroom Home 	$450 per week	2023-01-05T13:54:36.505611+11:00	2023-01-05T14:46:30.884935+11:00	5/34 Oakden Street	GREENWAY	ACT	2900	149.0734796	-35.4221407	Apartment	2615	Waratah Estate Agents	Rental Team	1	1	1		
72964	rental	One Bedroom Home 	$450 per week	2023-01-05T14:16:28.547580+11:00	2023-01-05T14:16:33.969767+11:00	208/34 Oakden Street	GREENWAY	ACT	2900	149.0734796	-35.4221407	Apartment	2615	Waratah Estate Agents	Rental Team	1	1	1		
72968	rental	NEW THREE BEDROOM GRANNY-FLAT	$620 pw	2023-01-05T14:45:41.543194+11:00	2023-01-12T12:01:32.587085+11:00	46A Marlock Street	RIVETT	ACT	2611	149.0458688	-35.3450849	DuplexSemi-detached	409	Luton Gungahlin	Baljeet Kaur	3	1	2		
72969	rental	One Bedroom Home 	$450 per week	2023-01-05T15:01:31.244189+11:00	2023-01-05T15:01:36.318154+11:00	209/34 Oakden Street	GREENWAY	ACT	2900	0.0	0.0	Apartment	2615	Waratah Estate Agents	Rental Team	1	1	1		
72974	rental	4 Bedroom Plus Study Family Home	$860 per week	2023-01-05T16:14:33.141646+11:00	2023-01-09T12:16:56.426899+11:00	1 Mavis Latham Street	FRANKLIN	ACT	2913	149.1474363	-35.2015205	House	233	LJ Hooker Gungahlin	LJ Hooker Gungahlin	4	2	2		
72975	rental	Fantastic One Bedroom Ground Floor Apartment	$450.00	2023-01-05T16:16:38.215984+11:00	2023-01-05T16:16:57.113966+11:00	82/75 Elizabeth Jolley Street	FRANKLIN	ACT	2913	149.1447449	-35.1879671	Apartment	233	LJ Hooker Gungahlin	LJ Hooker Gungahlin	1	1	1	4.0	
72976	rental	Private Nook in a Leafy Suburb 	$480 Per Week	2023-01-05T16:14:13.661631+11:00	2023-01-11T14:01:53.599140+11:00	22/153 Murranji Street	HAWKER	ACT	2614	149.041879	-35.2467654	Apartment	437	LJ Hooker Belconnen	Leasing Team	2	1	1		
72979	rental	Executive City Living	$520 - $550	2023-01-05T16:44:28.879306+11:00	2023-01-12T14:46:32.405761+11:00	1/1 Mouat Street	LYNEHAM	ACT	2602	149.1327576	-35.2485434	Apartment	2429	One Agency Gamarra & Co	Bryan Gamarra	1	1	1	0.0	
72980	rental	SUPERB VIEWS TO WAKE UP TO!	$730 per week	2023-01-05T16:43:57.000949+11:00	2023-01-09T15:46:42.329120+11:00	21/43 Blackall Street	BARTON	ACT	2600	149.1375898	-35.3071063	Apartment	433	Maloney's Property	Ned Hibbert	2	2	2		
72981	rental	Two Bedroom Apartment in Great Central Location	$590 per week	2023-01-05T16:35:07.090496+11:00	2023-01-10T15:16:39.991549+11:00	50/44 Jerrabomberra Ave	NARRABUNDAH	ACT	2604	149.1503299	-35.3390318	Apartment	433	Maloney's Property	Ned Hibbert	2	2	1		
72982	rental	Stunning Fully Renovated Single Level Townhouse	$695 per week	2023-01-05T16:31:29.606504+11:00	2023-01-12T11:02:18.210814+11:00	4/28 Rollston Street	AMAROO	ACT	2914	0.0	0.0	Townhouse	233	LJ Hooker Gungahlin	LJ Hooker Gungahlin	3	2	2		
72985	rental	Luxury Studio Living	$630	2023-01-05T17:01:30.222656+11:00	2023-01-05T17:02:00.047206+11:00	1016/25 Edinburgh Avenue	ACTON	ACT	2601	149.1225939	-35.284914	Apartment	2429	One Agency Gamarra & Co	Bryan Gamarra	1	1	1	0.0	
72986	rental	Beautiful Spacious Family Home 	$900 per week	2023-01-05T17:22:29.435926+11:00	2023-01-11T10:16:43.947487+11:00	11 Hillcrest Street	CRACE	ACT	2911	149.1089967	-35.2007233	House	1069	Crowthers	Emily Marchant	4	3	2		
72989	rental	Spacious Unit in Scullin 	$500 Per Week	2023-01-06T08:46:28.624794+11:00	2023-01-06T08:46:39.492019+11:00	8a/2 Keith Street	SCULLIN	ACT	2614	149.0421934	-35.2337261	Apartment	437	LJ Hooker Belconnen	Leasing Team	2	1	1		
72995	rental	Stand alone home in prime location!	$790 Per Week	2023-01-06T09:54:49.564561+11:00	2023-01-10T11:31:42.068143+11:00	15 Eggleston Crescent	CHIFLEY	ACT	2606	149.0772045	-35.3491779	House	2853	Bastion Property Group	Stephanie Traycevska	4	2	2		
72996	rental	Excellent Location	800	2023-01-06T09:50:02.918975+11:00	2023-01-06T12:31:48.431778+11:00	70 Wilshire Street	DICKSON	ACT	2602	149.1403934	-35.2542102	House	436	LJ Hooker Dickson	Judy Arnott	3	1	1	0.0	
73000	rental	Crace Townhouse Overlooking Reserve	$650 per week	2023-01-06T11:01:17.264482+11:00	2023-01-12T11:47:16.868290+11:00	62 Cocoparra Crescent	CRACE	ACT	2911	149.1091615	-35.2087772	Townhouse	232	Ray White Canberra	Amanda Howell	3	2	1		
73001	rental	In the Heart of Kingston	$580	2023-01-06T11:06:47.206408+11:00	2023-01-09T18:31:34.126627+11:00	2/27 Giles Street	KINGSTON	ACT	2604	149.1400122	-35.3156766	Apartment	412	Luton Manuka	Kim Paxton	2	2	1	0.0	
73002	rental	Quiet and affordable apartment	$300 per week	2023-01-06T11:04:19.902011+11:00	2023-01-09T11:31:48.248715+11:00	5/30 River Street	OAKS ESTATE	ACT	2620	149.2284861	-35.3391433	House	232	Ray White Canberra	Matthew McClellan	1	1	1		
73004	rental	atop.haig	$825 per week	2023-01-06T11:26:24.322623+11:00	2023-01-06T11:46:34.726747+11:00	34/19-25 Fawkner Street	BRADDON	ACT	2612	149.135146	-35.271175	Apartment	618	home.by holly	Tamara Davis	3	2	2	5.0	
73005	rental	FULLY RENOVATED INNER SOUTH HOME!	$770.00 per week	2023-01-06T11:28:39.511512+11:00	2023-01-09T18:31:31.909730+11:00	23 Dalrymple Street	NARRABUNDAH	ACT	2604	149.1378814	-35.340393	House	412	Luton Manuka	Kim Paxton	3	1	3		
73007	rental	Ultra Convenient Modern Living	$680 Per Week	2023-01-06T11:34:49.975381+11:00	2023-01-12T14:46:43.613326+11:00	16 Westerman Street	CASEY	ACT	2913	149.0925951	-35.1756095	Townhouse	440	LJ Hooker Canberra City	Grace Bowman	3	2	2		
73008	rental	Renovated with style in mind.	$950-$1050	2023-01-06T11:53:15.551553+11:00	2023-01-06T13:46:32.156124+11:00	21 Alpen Street	SPENCE	ACT	2615	149.0620064	-35.2053021	House	441	LJ Hooker Kippax	Jodie Cross	5	3	3	0.0	907.0
73009	rental	Sophisticated living	$820 per week 	2023-01-06T12:12:57.485521+11:00	2023-01-06T17:46:31.056852+11:00	24 Isherwood Street	WESTON	ACT	2611	149.0615133	-35.3305838	Townhouse	273	Luton Dickson	Caroline Phengrasmy	4	2	2		
73010	rental	Quiet location	$520	2023-01-06T12:04:04.778376+11:00	2023-01-06T13:01:34.778697+11:00	2/2 Kylie Tennant Street	FRANKLIN	ACT	2913	149.1357058	-35.2014645	Townhouse	439	LJ Hooker Kaleen	Maddy Eveleigh	2	1	2		
73015	rental	SPACIOUS TWO BEDROOM TOWNHOUSE	$530 per week	2023-01-06T15:14:38.327691+11:00	2023-01-09T15:16:52.194489+11:00	22/24 Damala Street	WARAMANGA	ACT	2611	149.0580832	-35.3509331	Townhouse	433	Maloney's Property	Ned Hibbert	2	1	1		
73018	rental	Secluded Inner North Opportunity	$700 per week	2023-01-06T15:35:12.098110+11:00	2023-01-06T16:46:43.207090+11:00	17 Jarrah Street	O'CONNOR	ACT	2602	149.124111	-35.2558376	House	232	Ray White Canberra	Shona Curtis	3	1	1		
73020	rental	Stunning Four Bedroom Family House with Large Yards!	$950 pw	2023-01-06T16:36:45.454417+11:00	2023-01-12T16:46:29.627863+11:00	6 Dalrymple Street	RED HILL	ACT	2603	149.1362217	-35.3393041	House	412	Luton Manuka	Caroline Phengrasmy	4	2	1		
73021	rental	Your New Lifestyle Awaits At 'Dawn'	$560 Per Week	2023-01-06T16:33:07.896833+11:00	2023-01-11T13:31:41.123820+11:00	315/55 Currong Street North	BRADDON	ACT	2612	149.1357551	-35.2773355	Apartment	440	LJ Hooker Canberra City	Grace Bowman	1	1	1	6.0	
73022	rental	A Beautiful Three Bedroom Home in an Ideal Location!	$800	2023-01-06T16:36:45.137584+11:00	2023-01-09T18:31:29.802082+11:00	151 Duffy Street	AINSLIE	ACT	2602	149.156195	-35.2558405	House	412	Luton Manuka	Caroline Phengrasmy	3	1	1		
73024	rental	Prime Location	$750 per week	2023-01-06T16:45:20.296467+11:00	2023-01-12T11:47:03.185183+11:00	16 Hobbs Street	O'CONNOR	ACT	2602	149.1130105	-35.2658543	House	232	Ray White Canberra	Helen West	3	1	2		792.0
73025	rental	Light Filled And Spacious	$580 Per Week	2023-01-06T16:50:11.867355+11:00	2023-01-13T14:01:42.928002+11:00	132/140 Thynne Street	BRUCE	ACT	2617	149.1000801	-35.2421051	Apartment	440	LJ Hooker Canberra City	Tara Munro	2	2	2	0.0	
73027	rental	Spacious Apartment With Large Balcony	$500 per week	2023-01-06T16:56:08.331975+11:00	2023-01-10T11:01:56.920899+11:00	10/48 Henty Street	BRADDON	ACT	2612	149.1343268	-35.2691405	Apartment	232	Ray White Canberra	Lauren Everett	1	1	1		
73028	rental	3 bedroom, 2 bathroom, 1 garage duplex apartment	$610 per week	2023-01-06T17:12:44.578640+11:00	2023-01-08T18:34:48.993043+11:00	32/13-15 sturt avenue	GRIFFITH	ACT	2603	149.1494072	-35.3247594	Apartment	2207	Zango Private Listers	RAVI KANTH PULLAGURA NAGAH	3	2	1	1.5	0.0
73030	rental	City Living at its Finest!	$560 per week	2023-01-06T17:08:13.956924+11:00	2023-01-09T17:31:31.775330+11:00	19/66 Allara Street	CANBERRA	ACT	2601	149.130996	-35.2851756	Apartment	232	Ray White Canberra	Helen West	1	1	1		
73031	rental	Expansive Monash Family Home	$800 per week	2023-01-06T20:58:16.369686+11:00	2023-01-06T21:16:31.793924+11:00	5 Punch Place	MONASH	ACT	2904	149.0879654	-35.4181709	House	232	Ray White Canberra	Hope Ashley	5	3	2		1076.5
73033	rental	Two bedrooms plus study in Hughes	$660 per week	2023-01-06T21:43:11.553078+11:00	2023-01-12T11:47:03.440934+11:00	61 Carroll Street	HUGHES	ACT	2605	149.0920096	-35.3339506	House	232	Ray White Canberra	Helen West	2	1	1		318.0
73034	rental	The Best of Barton - Stunning Sub Penthouse Apartment	$800 per week	2023-01-09T07:48:14.671628+11:00	2023-01-12T16:01:33.361695+11:00	 38/12 National Circuit	BARTON	ACT	2600	149.1337203	-35.3096299	Apartment	629	Badenoch Real Estate	Paul Hunter	2	2	2		0.0
73035	rental	Luxury Lakeside Apartment	$575 per week	2023-01-09T08:12:16.558460+11:00	2023-01-13T14:31:32.370580+11:00	 1014/161 Emu Bank	BELCONNEN	ACT	2617	149.0662877	-35.236437	Apartment	629	Badenoch Real Estate	Paul Hunter	2	2	1	7.0	0.0
73036	rental	Inner City Living!	$450 per week	2023-01-09T08:06:14.736090+11:00	2023-01-10T11:31:31.058098+11:00	 408/51 Mort Street	BRADDON	ACT	2612	149.131401	-35.2710501	Apartment	629	Badenoch Real Estate	Lalita Chaplin	1	1	1		0.0
73037	rental	Stunning One Bedroom Apartment	$510	2023-01-09T08:53:15.008622+11:00	2023-01-12T14:16:31.471572+11:00	285/7 Irving Street	PHILLIP	ACT	2606	149.0845284	-35.3388475	Apartment	1818	Knight Property Solutions	Samantha Gibbs	1	1	1		
73038	rental	Versatile Family Home In Great Location	$750 per week	2023-01-09T09:11:35.403675+11:00	2023-01-10T08:46:32.941634+11:00	6 Massie Place	NICHOLLS	ACT	2913	149.1086828	-35.183418	House	233	LJ Hooker Gungahlin	LJ Hooker Gungahlin	4	2	2	2.0	741.0
73039	rental	Well Presented Family Home	$750 per week	2023-01-09T09:16:29.725174+11:00	2023-01-09T09:16:51.567901+11:00	15 Triton Street	DUNLOP	ACT	2615	149.0300696	-35.1871319	House	233	LJ Hooker Gungahlin	LJ Hooker Gungahlin	4	2	2	4.0	491.0
73040	rental	love.braddon	$510 per week	2023-01-09T09:31:41.044394+11:00	2023-01-09T09:32:01.296784+11:00	13/48 Henty Street	BRADDON	ACT	2612	149.1343268	-35.2691405	Apartment	618	home.by holly	Jackie Houghton	1	1	1		
73041	rental	My brand new offering	$650 pw	2023-01-09T09:31:53.948711+11:00	2023-01-09T09:32:06.197433+11:00	86b Streeton Drive	RIVETT	ACT	2611	149.0428657	-35.3490046	House	513	My Morris	Dakota Conrad	3	2	2		
73043	rental	Inner City living	$490 per week	2023-01-09T10:01:26.132681+11:00	2023-01-09T10:01:46.246766+11:00	716/74 Northbourne Avenue	BRADDON	ACT	2612	149.1305026	-35.275523	Apartment	34	McIntyre Property	Chauntelle Macic	1	1	1		
73044	rental	Wonderful in Watson!	$850 per week	2023-01-09T09:52:51.038573+11:00	2023-01-13T11:31:33.161609+11:00	27 Phillip Avenue	WATSON	ACT	2602	149.1467186	-35.2381595	House	34	McIntyre Property	Amanda Gordon	4	2	1		
73045	rental	Easy & convenient living in the heart of Bruce	$570 per week	2023-01-09T09:52:50.918346+11:00	2023-01-09T10:16:35.897887+11:00	25 Paget Street	BRUCE	ACT	2617	149.1002276	-35.2418602	Townhouse	34	McIntyre Property	Amanda Gordon	2	2	2		
73047	rental	Prime Location, Impeccable Views!	$640 per week	2023-01-09T10:16:27.445772+11:00	2023-01-09T10:16:50.412077+11:00	185/15 Irving Street	PHILLIP	ACT	2606	149.0866191	-35.3381407	Apartment	34	McIntyre Property	Amanda Gordon	2	2	2		
73051	rental	Spectacular Family Home	$850 per week	2023-01-09T10:26:20.682594+11:00	2023-01-12T16:01:38.679132+11:00	2 Hooke Place	CHARNWOOD	ACT	2615	149.0398626	-35.1972994	House	232	Ray White Canberra	Matthew McClellan	5	2	1		
73052	rental	Renovated 3 Bedroom Townhouse	$620 per week	2023-01-09T10:31:52.359070+11:00	2023-01-13T10:46:54.850435+11:00	2 Saunders Street	NGUNNAWAL	ACT	2913	149.1148269	-35.1735653	House	233	LJ Hooker Gungahlin	LJ Hooker Gungahlin	3	2	1	4.5	
73053	rental	Luxury apartment living	$680 per week	2023-01-09T10:47:16.023152+11:00	2023-01-09T15:01:43.542760+11:00	84/1 Dunphy Street	WRIGHT	ACT	2611	149.0409213	-35.3232821	Apartment	684	McCann Properties	Amber Jarvis	3	2	2	6.5	
73054	rental	Spacious living with unique views 	$580 per week	2023-01-09T10:58:13.553116+11:00	2023-01-10T15:46:31.851229+11:00	9/51 Leahy Close	NARRABUNDAH	ACT	2604	149.1434039	-35.3447304	Apartment	684	McCann Properties	Amber Jarvis	3	2	2		
73056	rental	Two Bedroom In The Heart Of Braddon	$620 Per Week	2023-01-09T11:09:56.456444+11:00	2023-01-13T12:31:38.239662+11:00	16/38 Mort Street	BRADDON	ACT	2612	149.1318723	-35.2729677	Apartment	440	LJ Hooker Canberra City	Dannielle McSpeerin	2	1	1		
73058	rental	Modern And Stylish	$630 Per Week	2023-01-09T11:16:46.063379+11:00	2023-01-09T11:17:05.022746+11:00	41/1 Surprize Place	PHILLIP	ACT	2606	149.0908715	-35.34752539999999	Apartment	440	LJ Hooker Canberra City	Tara Munro	2	2	2		
73060	rental	Impressive Two Storey Home 	$700 per week	2023-01-09T11:20:58.175400+11:00	2023-01-12T10:46:31.008352+11:00	17 Opal Street	BANKS	ACT	2906	149.0951217	-35.4711415	Townhouse	34	McIntyre Property	Hannah White	4	2	2		
73063	rental	Great Location, Great Price!	$550 Per Week	2023-01-09T11:44:56.851029+11:00	2023-01-10T15:01:46.076632+11:00	65/14 Boolee Street	REID	ACT	2612	149.1382748	-35.2812281	Apartment	440	LJ Hooker Canberra City	Jess Meyer	2	2	1	0.0	
73064	rental	4 Bedroom Home	$750	2023-01-09T11:44:12.185740+11:00	2023-01-09T17:31:32.188699+11:00	34 Hilda Kincaid Crescent	MACGREGOR	ACT	2615	149.0029355	-35.2033241	House	441	LJ Hooker Kippax	Jodie Cross	4	2	2		
73067	rental	valonia. braddon	$620 per week	2023-01-09T12:14:21.411591+11:00	2023-01-09T15:01:33.858733+11:00	101/17 Dooring Street	BRADDON	ACT	2612	149.1339014	-35.2611514	Apartment	618	home.by holly	Jackie Houghton	2	1	1	6.0	
73073	rental	GREAT VIEWS OF MOUNTAIN 	$490 Per Week	2023-01-09T13:46:53.466943+11:00	2023-01-09T13:47:04.528648+11:00	16/3 Bonrook Street	HAWKER	ACT	2614	149.0422606	-35.2454898	Unit	437	LJ Hooker Belconnen	Leasing Team	2	1	1		
73074	rental	Inner City Living	$680 Per Week	2023-01-09T14:16:08.402537+11:00	2023-01-12T13:31:32.014835+11:00	610/240 Bunda Street	CITY	ACT	2601	149.134405	-35.2816321	Apartment	410	MARQ Property	Kayla Adele	2	2	2		
73075	rental	STUNNING NEW-BUILD	$1100-$1200 pw	2023-01-09T14:05:39.880252+11:00	2023-01-12T16:01:32.596606+11:00	3 Golgerth Street	DENMAN PROSPECT	ACT	2611	149.0193784	-35.3027495	House	409	Luton Gungahlin	Sheree Plucinski	4	3	2		
73077	rental	Modern Two Bedroom Home in Prime Location	$560 Per Week	2023-01-09T14:27:14.164590+11:00	2023-01-12T12:16:30.674995+11:00	25 Stowport Street	CRACE	ACT	2911	149.1043719	-35.2020214	Townhouse	410	MARQ Property	Kayla Adele	2	1	2		
73081	rental	Beautiful Home in Ainslie	$800 per week	2023-01-09T15:01:31.104644+11:00	2023-01-09T15:01:43.346397+11:00	78 Ebden Street	AINSLIE	ACT	2602	149.1476434	-35.2616371	House	34	McIntyre Property	Hannah White	4	2	1		
73083	rental	Everything to Offer	$660 per week	2023-01-09T15:16:30.900460+11:00	2023-01-09T15:17:18.346689+11:00	18 Wisdom Street	HUGHES	ACT	2605	149.0939614	-35.3352279	House	599	Cream Residential	Monica Keane	3	1	1	0.0	
73084	rental	Executive Courtyard Apartment in Amaya Griffith.	$570 per week	2023-01-09T15:01:45.230141+11:00	2023-01-09T19:16:30.813738+11:00	74/18 Austin Street	GRIFFITH	ACT	2603	149.1326556	-35.3268308	Apartment	412	Luton Manuka	Kim Paxton	1	1	2	6.0	
73085	rental	LIVING IN EVATT	$800 pw	2023-01-09T15:22:59.235059+11:00	2023-01-11T12:01:34.574181+11:00	151 Owen Dixon Drive	EVATT	ACT	2617	149.0734906	-35.2002817	House	408	Luton Belconnen	Kaitlyn Taylor	4	1	3		
73086	rental	4a farrer.home	$1200 per week	2023-01-09T15:32:22.009390+11:00	2023-01-13T18:31:32.265590+11:00	4A Farrer Street	BRADDON	ACT	2612	149.1363562	-35.2725707	House	618	home.by holly	Tamara Davis	4	2	2	0.0	
73087	rental	Convenient Comfortable Living	$460 per week	2023-01-09T15:34:04.263099+11:00	2023-01-16T09:01:31.106693+11:00	83/21 Battye Street	BRUCE	ACT	2617	149.0975389	-35.2461509	Apartment	412	Luton Manuka	Caroline Phengrasmy	1	1	1	0.0	
73089	rental	4b farrer.home	$950 per week	2023-01-09T15:32:22.135308+11:00	2023-01-13T18:31:32.226358+11:00	4B Farrer Street	BRADDON	ACT	2612	149.1363562	-35.2725707	House	618	home.by holly	Tamara Davis	3	2	3	0.0	
73093	rental	STUNNING FOUR BEDROOM HOME	$700 per week	2023-01-09T16:16:29.381004+11:00	2023-01-09T16:16:41.327887+11:00	53 Forsythe Street	BANKS	ACT	2906	149.0998932	-35.4761762	Other	2300	VERV Property	Charlie Evans	4	2	2		
73098	rental	Family Friendly 	$620 per week	2023-01-09T16:28:50.047842+11:00	2023-01-16T11:46:37.323807+11:00	63 Rohan Street	RICHARDSON	ACT	2905	149.1121024	-35.4294608	House	34	McIntyre Property	Tegan Ketels	3	1	0		
73099	rental	Exceptional home! Perfect for Pets, families or groups!	$650 per week	2023-01-09T16:46:30.894640+11:00	2023-01-09T16:46:49.012062+11:00	17 Rohan Street	RICHARDSON	ACT	2905	149.1128312	-35.4277385	House	34	McIntyre Property	Amanda Gordon	3	1	2		
73100	rental	Convenient Townhouse Living!	$630 per week	2023-01-09T16:46:30.951521+11:00	2023-01-09T16:46:46.732358+11:00	32/21 Cossington Smith Crescent	LYNEHAM	ACT	2602	149.1252776	-35.2415353	Townhouse	34	McIntyre Property	Tegan Ketels	3	1	2		
73102	rental	DESIGNER TOP FLOOR APARTMENT	$780 per week	2023-01-09T16:57:26.565342+11:00	2023-01-13T16:31:37.949388+11:00	813/45 Furzer Street	PHILLIP	ACT	2606	149.0851006	-35.3437809	Other	2300	VERV Property	Charlie Evans	3	2	2		
73104	rental	Perfect in Macgregor	$600 per week	2023-01-09T17:18:17.872987+11:00	2023-01-10T11:46:36.081416+11:00	177 Osburn Drive	MACGREGOR	ACT	2615	149.0133985	-35.2158952	House	629	Badenoch Real Estate	Paul Hunter	4	1	2		0.0
73108	rental	WHEN CONVENIENCE AND LIFESTYLE IS A MUST	$510 pw	2023-01-10T09:09:33.850193+11:00	2023-01-12T16:01:32.281793+11:00	74/43 Eastlake Parade	KINGSTON	ACT	2604	149.1468853	-35.313299	Apartment	409	Luton Gungahlin	Sheree Plucinski	1	1	1	0.0	
73109	rental	Spacious Gungahlin Convenience	$640 per week	2023-01-10T09:06:22.411933+11:00	2023-01-10T11:46:40.954764+11:00	42 Nellie Hamilton Street	GUNGAHLIN	ACT	2912	149.1361791	-35.1773848	House	629	Badenoch Real Estate	Paul Hunter	4	2	2		0.0
73111	rental	Modern Two Bedroom Apartment in Great Location!	$495 per week	2023-01-10T09:31:31.519432+11:00	2023-01-10T09:31:45.755394+11:00	1 Nimbera Street	HARRISON	ACT	2914	149.1587545	-35.1944568	Apartment	34	McIntyre Property	Lisa Konig	2	1	1		
73112	rental	Four-bedroom home in convenient location	$720 per week	2023-01-10T09:31:33.711318+11:00	2023-01-10T09:31:47.471955+11:00	7 McPhail Place	FADDEN	ACT	2904	149.117054	-35.3995305	House	34	McIntyre Property	Lisa Konig	4	2	2		
73115	rental	Cheerful, Sunny and Convenient	$390 - $410 pw	2023-01-10T09:54:10.763291+11:00	2023-01-13T09:16:31.970289+11:00	30/18 Glenmaggie Street	DUFFY	ACT	2611	149.0333409	-35.3360714	Apartment	513	My Morris	Dakota Conrad	2	1	1		
73116	rental	Fully Furnished One Bedroom Apartment in NewActon South	$795 per week	2023-01-10T10:01:29.435074+11:00	2023-01-10T10:02:18.265064+11:00	G07/19 Marcus Clarke Street	CITY	ACT	2601	149.1249008	-35.2851638	Apartment	1069	Crowthers	Emily Marchant	1	2	1		
73118	rental	YOUR NEW HOME	$530.00 pw	2023-01-10T09:57:40.742463+11:00	2023-01-10T10:31:29.989543+11:00	16/48 Sid Barnes Crescent	GORDON	ACT	2906	149.0906877	-35.4533215	BlockOfUnits	2615	Waratah Estate Agents	Rental Team	3	1	1	0.0	
73120	rental	Three bedroom home in great location	$605 per week	2023-01-10T10:04:39.842977+11:00	2023-01-12T14:31:44.590792+11:00	52 Alice Jackson Crescent	GILMORE	ACT	2905	149.1305319	-35.4174912	House	34	McIntyre Property	Laura Grimes	3	2	1		
73123	rental	Great Location - Family Suitable	$570 per week	2023-01-10T10:13:12.262145+11:00	2023-01-10T10:46:46.502541+11:00	8 Bendigo Street	FISHER	ACT	2611	149.0538925	-35.3561969	House	232	Ray White Canberra	Matthew McClellan	3	1	0		
73124	rental	3 Bedroom family home!	$580 per week	2023-01-10T10:26:15.593755+11:00	2023-01-10T10:46:30.632687+11:00	25 Karrugang Court	NGUNNAWAL	ACT	2913	149.1000625	-35.1696136	House	684	McCann Properties	Amber Jarvis	3	1	1		
73130	rental	the pictures tell the story 	$850 per week	2023-01-10T10:57:23.034333+11:00	2023-01-16T15:16:33.100886+11:00	84 William Webb Drive	EVATT	ACT	2617	149.0737971	-35.2128259	House	618	home.by holly	Tamara Davis	4	2	2	1.5	
73131	rental	Light filled three bedroom home!	$570 per week	2023-01-10T10:49:00.113840+11:00	2023-01-13T11:31:31.906839+11:00	4/30 William Hudson Circuit	MONASH	ACT	2904	149.0776856	-35.4205158	House	34	McIntyre Property	Miki Sant	3	1	2		
73133	rental	Kaleen is Calling	$625 per week	2023-01-10T11:18:25.706836+11:00	2023-01-16T16:16:46.228986+11:00	20 Diamantina Crescent	KALEEN	ACT	2617	149.1002743	-35.2295604	House	629	Badenoch Real Estate	Paul Hunter	4	2	3		0.0
73134	rental	Four Bedroom Family Home	$750 per week	2023-01-10T11:31:41.554320+11:00	2023-01-10T11:32:03.047335+11:00	26 Jenolan St	HARRISON	ACT	2914	149.1581137	-35.1968663	House	433	Maloney's Property	Ned Hibbert	4	2	2		
73143	rental	HIDDEN GEM	$650 PW	2023-01-10T12:38:53.525931+11:00	2023-01-13T17:16:29.552950+11:00	112 Majura Avenue	AINSLIE	ACT	2602	149.1444686	-35.2556668	Townhouse	273	Luton Dickson	Caroline Phengrasmy	3	1	1		
73146	rental	CLOSE TO SOUTHLANDS SHOPPING CENTRE	$320 per week	2023-01-10T13:31:29.745534+11:00	2023-01-10T13:31:39.062269+11:00	24a Aurora Close	MAWSON	ACT	2607	149.0950208	-35.3570941	Flat	629	Badenoch Real Estate	Lalita Chaplin	1	1	1		0.0
73147	rental	Large executive 1-bedroom apartment	$570 pw	2023-01-10T13:40:05.772816+11:00	2023-01-13T11:16:56.746221+11:00	42/45 Blackall Street	BARTON	ACT	2600	149.1374552	-35.30780590000001	Apartment	443	LJ Hooker Manuka	Leasing Consultant	1	1	1		
73148	rental	One Bedroom Plus Study Near The Foreshore!	$500 Per Week	2023-01-10T14:01:34.328693+11:00	2023-01-10T14:01:58.491372+11:00	83/5 Hely Street	GRIFFITH	ACT	2603	149.1476382	-35.3218943	Apartment	440	LJ Hooker Canberra City	Lagan Puri	1	1	1		
73153	rental	WANTED. Super great people to LIVE HERE	$495 Per Week	2023-01-10T14:39:11.491761+11:00	2023-01-12T13:16:31.123001+11:00	8/62 Knox Street	WATSON	ACT	2602	149.1522141	-35.2373557	Unit	410	MARQ Property	Kayla Adele	2	1	1	2.5	
73154	rental	beautiful. barton	$620 per week	2023-01-10T14:38:20.880516+11:00	2023-01-10T15:01:31.230499+11:00	14/21 Brisbane Avenue	BARTON	ACT	2600	149.1344096	-35.309658	Apartment	618	home.by holly	Jackie Houghton	2	1	1	5.0	
73156	rental	Stylish Family Home	$920 per week	2023-01-10T14:50:37.230050+11:00	2023-01-13T16:16:35.747026+11:00	38 Zanci Street	CRACE	ACT	2911	149.1036468	-35.204271	House	233	LJ Hooker Gungahlin	LJ Hooker Gungahlin	4	3	2	0.0	510.0
73157	rental	STUNNING FAMILY HOME	$975 per week	2023-01-10T15:31:29.042989+11:00	2023-01-10T15:31:41.309062+11:00	1 Forbes Street	TURNER	ACT	2612	149.1290475	-35.2685085	Other	2300	VERV Property	Charlie Evans	3	2	3		
73159	rental	Quiet culdesac pet friendly property	$650 per week	2023-01-10T15:34:53.767766+11:00	2023-01-11T14:46:24.052428+11:00	6 Weekes Close	CALWELL	ACT	2905	149.1126742	-35.4388368	House	1784	Sadil Quinlan	Cara Davis	3	1	1		
73160	rental	Modern Executive Apartment in the heart of City!	$700 pw	2023-01-10T15:34:50.747844+11:00	2023-01-13T16:46:37.944043+11:00	218/55 Currong Street	BRADDON	ACT	2612	149.1357551	-35.2773355	Apartment	412	Luton Manuka	Caroline Phengrasmy	2	2	2		
73161	rental	Lake Frontage	$610- $630	2023-01-10T15:46:36.310143+11:00	2023-01-12T16:01:40.195515+11:00	131/161 Mortimer Lewis Drive	GREENWAY	ACT	2900	149.0721695	-35.4077598	Apartment	513	My Morris	Sandy Morris	3	2	2	6.0	
73162	rental	Brand New Ground Floor Apartment With Courtyard	$570 Per Week	2023-01-10T16:01:09.613840+11:00	2023-01-10T16:16:58.435240+11:00	6/71 Constitution Avenue	CAMPBELL	ACT	2612	149.14521	-35.2913251	Apartment	437	LJ Hooker Belconnen	Leasing Team	1	1	1		
73163	rental	Two bedroom apartment in a prime location	$540 per week	2023-01-10T16:16:30.399210+11:00	2023-01-10T16:16:53.670965+11:00	23/2 Veryard Lane	BELCONNEN	ACT	2617	149.0726659	-35.242302	Apartment	34	McIntyre Property	Miki Sant	2	1	1		
73164	rental	Great Family Home in Florey!	$595 per week	2023-01-10T16:09:15.002163+11:00	2023-01-16T16:01:51.485947+11:00	11 Dalton Place	FLOREY	ACT	2615	149.0505952	-35.224854	House	232	Ray White Canberra	Matthew McClellan	3	1	2		
73168	rental	Ultra Convenient Location in Bruce!	$670 per week	2023-01-10T16:25:18.045604+11:00	2023-01-12T11:47:18.852260+11:00	91 Norman Fisher Circuit	BRUCE	ACT	2617	149.0992878	-35.2393036	House	232	Ray White Canberra	Matthew McClellan	3	2	2		
73171	rental	Spacious Townhouse in Yarralumla	$760 per week	2023-01-10T17:03:51.756375+11:00	2023-01-12T17:16:41.478241+11:00	1/53 Mueller Street	YARRALUMLA	ACT	2600	149.0990119	-35.3045752	Townhouse	433	Maloney's Property	Ned Hibbert	4	2	2		
73172	rental	EXCELLENT TWO-BEDROOM APARTMENT	$550 per week	2023-01-10T18:22:36.695178+11:00	2023-01-17T16:01:34.158819+11:00	35 Carver Lane	GUNGAHLIN	ACT	2912	149.1337269	-35.1820948	Other	2300	VERV Property	Charlie Evans	2	1	0		
73182	rental	Perfectly located 2 Bedroom Apartment!	$550	2023-01-11T09:32:56.569021+11:00	2023-01-16T17:01:30.108449+11:00	5/4-6 Jardine Street	KINGSTON	ACT	2604	149.1405056	-35.3142556	Apartment	412	Luton Manuka	Caroline Phengrasmy	2	2	1		
73192	rental	Stylish and Contemporary Living	$680-$690 per week	2023-01-11T11:06:55.899392+11:00	2023-01-13T12:16:31.368860+11:00	6/17 Billabong Street	LAWSON	ACT	2617	149.0940713	-35.22898	Townhouse	439	LJ Hooker Kaleen	Maddy Eveleigh	3	2	2		
73194	rental	Affordable Family Home	$600 per week	2023-01-11T11:06:20.803908+11:00	2023-01-16T16:02:01.554820+11:00	96 Ross Smith Crescent	SCULLIN	ACT	2614	149.0376744	-35.2337684	House	232	Ray White Canberra	Matthew McClellan	3	1	1		
73196	rental	The Mark in Braddon	$640 per week	2023-01-11T11:24:28.869235+11:00	2023-01-16T16:16:43.033709+11:00	 510/2 Batman Street	BRADDON	ACT	2612	149.1356385	-35.2781547	Apartment	629	Badenoch Real Estate	Lalita Chaplin	2	2	2		0.0
73197	rental	Designer home, prime location	$1750 per week	2023-01-11T11:22:15.631496+11:00	2023-01-11T11:46:32.875450+11:00	18 Pelsart Street	RED HILL	ACT	2603	149.1292467	-35.3354161	House	684	McCann Properties	Amber Jarvis	4	3	2		
73198	rental	MODERN HOME!	$650 per week	2023-01-11T11:30:29.688889+11:00	2023-01-16T16:16:40.990790+11:00	293 Anthony Rolfe Avenue	GUNGAHLIN	ACT	2912	149.1496074	-35.1855552	House	629	Badenoch Real Estate	Paul Hunter	4	2	2		0.0
73199	rental	Apartment living in Narrabundah	$490 per week	2023-01-11T11:24:29.012329+11:00	2023-01-12T15:01:42.020360+11:00	 74/39 McIntyre Street	NARRABUNDAH	ACT	2604	149.1449802	-35.332275	Apartment	629	Badenoch Real Estate	Lalita Chaplin	1	1	1		0.0
73200	rental	Top floor one bedroom apartment with water views	$620 pw	2023-01-11T11:27:51.988401+11:00	2023-01-11T11:46:32.321550+11:00	20/35 Eastlake Parade	KINGSTON	ACT	2604	149.1463839	-35.3125886	Apartment	626	Berkely Residential	The Asset Manager	1	1	1		5309.0
73201	rental	1 Bedroom, Fully Furnished	$600 pw	2023-01-11T11:38:45.431184+11:00	2023-01-11T15:31:30.506201+11:00	84/43 Eastlake Parade	KINGSTON	ACT	2604	149.1468853	-35.313299	Apartment	626	Berkely Residential	The Asset Manager	1	1	1		4938.0
73203	rental	Contemporary and Functional Home 	$680 pw	2023-01-11T11:33:35.111667+11:00	2023-01-16T08:46:29.641000+11:00	43 Angophora Street	RIVETT	ACT	2611	149.0336775	-35.3466748	House	414	Luton Weston Creek & Molonglo Valley	April Scholes	3	1	2	0.0	
73204	rental	Perfectly Positioned One Bedroom Apartment	$450 per week	2023-01-11T11:46:29.577990+11:00	2023-01-11T11:46:54.106100+11:00	37/1 Gungahlin Place	GUNGAHLIN	ACT	2912	149.136603	-35.1810373	Apartment	34	McIntyre Property	Ellie Brault	1	1	1		
73205	rental	Two Storey Townhouse In Lawson	$600 per week	2023-01-11T11:46:29.609332+11:00	2023-01-11T11:46:57.550127+11:00	47/88 Narrambla Terrace	LAWSON	ACT	2617	0.0	0.0	Townhouse	34	McIntyre Property	Ellie Brault	2	2	1		
73206	rental	Elegant and Character-filled 	$1350  pw	2023-01-11T11:33:34.972259+11:00	2023-01-11T15:31:33.087476+11:00	41 Mount Vernon Drive	KAMBAH	ACT	2902	149.0370613	-35.3879311	House	414	Luton Weston Creek & Molonglo Valley	April Scholes	4	3	6	4.0	
73208	rental	Light Filled Two Bedroom Apartment!	$450/ Wk	2023-01-11T11:53:17.553053+11:00	2023-01-11T14:46:58.267141+11:00	3/10 Walsh Place	CURTIN	ACT	2605	149.0851854	-35.3252873	Apartment	436	LJ Hooker Dickson	Helena Kime	2	1	1		
73214	rental	1 Bedroom Plus Study in the Mezzo Apartments	$450 per week	2023-01-11T12:37:54.991732+11:00	2023-01-13T10:46:40.043465+11:00	116/77 Gozzard Street	GUNGAHLIN	ACT	2912	149.1328776	-35.1819514	Unit	233	LJ Hooker Gungahlin	LJ Hooker Gungahlin	1	1	1		
73215	rental	Freshly painted Coombs property!	$1045	2023-01-11T12:39:46.116780+11:00	2023-01-12T11:01:49.561251+11:00	27 Ken Tribe Street	COOMBS	ACT	2611	149.0432243	-35.316605	House	233	LJ Hooker Gungahlin	LJ Hooker Gungahlin	4	2	2	0.0	
73217	rental	Find Your New Home In Iskia!	$680 Per Week	2023-01-11T12:46:22.505884+11:00	2023-01-13T12:31:47.601041+11:00	48/81 Constitution Avenue	CAMPBELL	ACT	2612	149.146012	-35.2920181	Apartment	440	LJ Hooker Canberra City	Dannielle McSpeerin	2	2	1		
73223	rental	Modern One Bedroom Townhouse	$500 Per Week	2023-01-11T13:31:31.896269+11:00	2023-01-11T13:32:02.190535+11:00	38/1 Calaby Street	COOMBS	ACT	2611	149.0330276	-35.3119544	Apartment	440	LJ Hooker Canberra City	Dannielle McSpeerin	1	1	1		
73224	rental	Central fully furnished apartment overlooking parkland	$610 Per Week	2023-01-11T13:23:03.679142+11:00	2023-01-13T12:31:46.085226+11:00	10/19 Fawkner Street	BRADDON	ACT	2612	149.135146	-35.271175	Apartment	440	LJ Hooker Canberra City	Jess Meyer	2	1	1	0.0	
73225	rental	SUPERB LOCATION	$550 Per Week	2023-01-11T13:31:49.835928+11:00	2023-01-11T13:32:06.708170+11:00	10 Lanley Square	NGUNNAWAL	ACT	2913	149.1188359	-35.175314	Townhouse	437	LJ Hooker Belconnen	Leasing Team	3	1	1		
73230	rental	The perfect location	$570 per week	2023-01-11T14:14:17.320754+11:00	2023-01-14T12:01:36.286502+11:00	38 Epenarra Close	HAWKER	ACT	2614	149.0427169	-35.2484906	Townhouse	232	Ray White Canberra	Matthew McClellan	3	1	1		
73231	rental	Contemporary living in the heart of Braddon Founders Lane	$530 per week	2023-01-11T14:31:23.293741+11:00	2023-01-11T14:31:35.410326+11:00	308/2 Batman Street	BRADDON	ACT	2612	149.1356385	-35.2781547	Apartment	34	McIntyre Property	Laura Grimes	1	1	1		
73233	rental	QUIET AND PEACEFUL	$600 per week	2023-01-11T14:46:22.679917+11:00	2023-01-11T14:46:33.416843+11:00	1/27 Gaunson Crescent	WANNIASSA	ACT	2903	149.099166	-35.3932439	Townhouse	34	McIntyre Property	Laura Grimes	3	2	2		
73235	rental	FULLY FURNISHED APARTMENT - JUST PACK YOUR BAGS AND JUST MOVE IN!!	$510 p/week	2023-01-11T14:46:46.701525+11:00	2023-01-11T14:46:57.743736+11:00	266/325 Anketell Street	GREENWAY	ACT	2900	149.0725965	-35.4215659	Apartment	435	LJ Hooker Tuggeranong	Chloe Walsh	1	1	1		
73236	rental	In The Heart Of The City!	$600 Per Week	2023-01-11T14:34:31.024763+11:00	2023-01-13T12:46:54.311734+11:00	30/1 Gordon Street	CITY	ACT	2601	149.1250223	-35.2824406	Apartment	440	LJ Hooker Canberra City	Lagan Puri	1	1	1		
73237	rental	A Very Rare Find!	$510 Per Week	2023-01-11T14:43:15.324400+11:00	2023-01-13T13:16:37.285042+11:00	29 Whitmore Crescent	WATSON	ACT	2602	149.167143	-35.2279455	House	440	LJ Hooker Canberra City	Selena Wang	1	1	1		
73239	rental	Three bedroom family home	$580 per week	2023-01-11T14:52:15.685573+11:00	2023-01-16T11:32:01.621513+11:00	8 Tweddle Place	CHISHOLM	ACT	2905	149.115679	-35.4253066	House	34	McIntyre Property	Laura Grimes	3	1	2		
73240	rental	Renovated Duplex 	$650 per week	2023-01-11T14:52:15.823759+11:00	2023-01-16T11:31:31.022302+11:00	3 Webster Street	HUGHES	ACT	2605	149.0897131	-35.3325228	DuplexSemi-detached	34	McIntyre Property	Laura Grimes	3	1	1		
73241	rental	Open Two Bedroom Home in Sought After Location! 	$550 per week	2023-01-11T14:52:15.543582+11:00	2023-01-16T11:16:36.514329+11:00	11 Peg Minty Crescent	WESTON	ACT	2611	149.0552821	-35.3256796	House	34	McIntyre Property	Laura Grimes	2	1	2		
73242	rental	Exclusive area	$600 per week	2023-01-11T15:13:38.432194+11:00	2023-01-16T11:31:30.533884+11:00	11/16 Darling Street	BARTON	ACT	2600	149.1348897	-35.3104231	Apartment	34	McIntyre Property	Laura Grimes	2	1	1		
73243	rental	Light filled two bedroom home in great location	$450 per week	2023-01-11T15:02:39.146766+11:00	2023-01-16T11:31:30.762771+11:00	8A Kaberry Place	CHISHOLM	ACT	2905	149.1323812	-35.4237623	DuplexSemi-detached	34	McIntyre Property	Laura Grimes	2	1	2		
73250	rental	LIGHT FILLED THREE BEDROOM TOWNHOUSE	$680 pw	2023-01-11T15:46:41.700663+11:00	2023-01-20T14:01:32.239922+11:00	25/33 Arthur Blakeley Way	COOMBS	ACT	2611	149.0378905	-35.316143	Townhouse	414	Luton Weston Creek & Molonglo Valley	Zoe White	3	2	2	6.0	
73254	rental	huge.in.higinbotham 	$900 per week	2023-01-11T16:06:19.857663+11:00	2023-01-16T14:31:30.933208+11:00	10 Higinbotham Street	WATSON	ACT	2602	149.1584116	-35.2436732	House	618	home.by holly	Jamye Dudok	5	2	2	1.5	
73258	rental	Inner City Living At Its Finest	$950	2023-01-11T16:46:28.260341+11:00	2023-01-11T16:46:45.128910+11:00	14A Pera Place	RED HILL	ACT	2603	149.1308614	-35.3433219	DuplexSemi-detached	443	LJ Hooker Manuka	Leasing Consultant	4	2	2	0.0	
73259	rental	Prime Position in Belconnen 	$520 Per Week	2023-01-11T16:43:04.439873+11:00	2023-01-12T11:16:59.442321+11:00	169/60 College Street	BELCONNEN	ACT	2617	149.0700535	-35.2425487	Unit	437	LJ Hooker Belconnen	Leasing Team	2	1	1		
73261	rental	Nightfall | Spacious with Uninterrupted Views	$590 per week	2023-01-11T17:01:38.219429+11:00	2023-01-11T17:01:52.916088+11:00	1106/2 Grazier Lane	BELCONNEN	ACT	2617	149.0719813	-35.2401725	Apartment	232	Ray White Canberra	Matthew Dowler	2	2	1	5.0	
73265	rental	Stylish, Modern Living in an Unbeatable Location	$700 Per Week	2023-01-11T17:44:04.362088+11:00	2023-01-17T12:46:43.458735+11:00	235/2 Anzac Park	CAMPBELL	ACT	2612	149.1421784	-35.2895677	Apartment	440	LJ Hooker Canberra City	Selena Wang	2	2	2		
73268	rental	Large 4 bedroom home	$680 per week	2023-01-11T18:46:26.723162+11:00	2023-01-11T18:46:34.958294+11:00	25 Handcock Crescent	MACGREGOR	ACT	2615	149.023728	-35.2088567	House	441	LJ Hooker Kippax	Jodie Cross	4	2	2	2.0	1059.0
73279	rental	in.your.element 	$650 per week pw	2023-01-12T08:47:19.354908+11:00	2023-01-12T16:31:33.841876+11:00	12/80 Henty Street	BRADDON	ACT	2612	149.1326593	-35.2674594	Apartment	618	home.by holly	Jackie Houghton	2	2	2	4.5	
73282	rental	Peaceful, Secluded, Private	$750 per week	2023-01-12T09:10:12.074878+11:00	2023-01-16T16:01:54.167554+11:00	23 Edlington Street	FRASER	ACT	2615	149.0442302	-35.1881296	House	232	Ray White Canberra	Matthew McClellan	4	2	3		1399.0
73284	rental	Modern Living 	$580 per week	2023-01-12T09:44:16.542612+11:00	2023-01-12T10:01:31.611257+11:00	12/2 Travers Street	GORDON	ACT	2906	149.0848632	-35.465099	Townhouse	684	McCann Properties	Amber Jarvis	2	2	2		
73299	rental	Make yourself at home	$530 Per Week	2023-01-12T11:01:29.530265+11:00	2023-01-12T11:01:44.150785+11:00	5/88 Eccles Circuit	MACGREGOR	ACT	2615	149.0029566	-35.2120284	Unit	410	MARQ Property	Kayla Adele	2	1	1		
73316	rental	Luxury 1 Bedroom Apartment	$500 per week	2023-01-12T12:01:39.781339+11:00	2023-01-12T12:01:49.305474+11:00	1328/15 Bowes Street	PHILLIP	ACT	2606	149.0868669	-35.3441316	Apartment	232	Ray White Canberra	Matthew McClellan	1	1	1		
73335	rental	BEAUTIFUL TWO-BEDROOM APARTMENT	$400 per week	2023-01-12T12:54:31.372009+11:00	2023-01-16T11:16:28.769797+11:00	18C  Briger Street	TAYLOR	ACT	2913	149.1053577	-35.150685	Other	2300	VERV Property	Charlie Evans	2	1	0		
73340	rental	Community Lifestyle With A Contemporary Twist	$630 Per Week	2023-01-12T13:31:29.972220+11:00	2023-01-12T13:32:01.507461+11:00	20 Carcoar Terrace	WATSON	ACT	2602	149.16132	-35.2323897	Townhouse	440	LJ Hooker Canberra City	Grace Bowman	2	2	1		
73342	rental	Community Lifestyle With A Contemporary Twist	$750 Per Week	2023-01-12T13:46:29.482614+11:00	2023-01-12T13:46:47.529801+11:00	16 Carcoar Terrace	WATSON	ACT	2602	0.0	0.0	Townhouse	440	LJ Hooker Canberra City	Grace Bowman	3	2	2		
73345	rental	Live the Elio lifestyle	$750 Per Week	2023-01-12T13:46:28.384878+11:00	2023-01-13T13:02:01.598718+11:00	14 Trinca Street	DENMAN PROSPECT	ACT	2611	149.0304598	-35.3010183	Townhouse	440	LJ Hooker Canberra City	Dannielle McSpeerin	3	2	2		
73348	rental	Versatile Floor Plan	$580 Per Week	2023-01-12T13:48:00.790010+11:00	2023-01-13T13:02:11.292009+11:00	109/100 Swain Street	GUNGAHLIN	ACT	2912	149.1321841	-35.1806058	Apartment	440	LJ Hooker Canberra City	Selena Wang	2	2	1		
73350	rental	3 Bedrooms & Spacious	$580 Per Week	2023-01-12T14:23:15.653247+11:00	2023-01-13T14:01:34.303492+11:00	3 Allitt Place	BANKS	ACT	2906	149.102225	-35.468856	House	599	Cream Residential	Annetta Fiorese	3	1	1	0.0	
73351	rental	Welcome To Woodberry	$480 Per Week	2023-01-12T14:18:01.190625+11:00	2023-01-17T13:16:38.657937+11:00	57/30 Pearlman Street	COOMBS	ACT	2611	149.0484853	-35.3243449	Apartment	440	LJ Hooker Canberra City	Lagan Puri	1	1	1		
73352	rental	Studio Apartment In An Excellent Location	$280 p/week	2023-01-12T14:24:54.279140+11:00	2023-01-12T16:01:39.802558+11:00	49/27 Coxen Street	HUGHES	ACT	2605	149.0923847	-35.3348571	Studio	435	LJ Hooker Tuggeranong	Chloe Walsh	0	1	0		
73353	rental	Welcome To Woodberry	$600 Per Week	2023-01-12T14:19:08.094087+11:00	2023-01-19T15:01:58.389578+11:00	123/2 Woodberry Avenue	COOMBS	ACT	2611	149.0467449	-35.32451229999999	Apartment	440	LJ Hooker Canberra City	Lagan Puri	2	2	2		
73354	rental	Welcome To Woodberry	$530 Per Week	2023-01-12T14:17:18.380323+11:00	2023-01-19T15:02:05.522989+11:00	46/30 Pearlman Street	COOMBS	ACT	2611	149.0484853	-35.3243449	Apartment	440	LJ Hooker Canberra City	Lagan Puri	1	1	1		
73355	rental	Natural Light	$520 Per Week	2023-01-12T14:16:25.609116+11:00	2023-01-13T12:46:55.184532+11:00	32/22 Cornelius Street	COOMBS	ACT	2611	149.0461067	-35.3247007	Apartment	440	LJ Hooker Canberra City	Tara Munro	1	1	1		
73358	rental	Partly Furnished - Inner North Apartment	$660 per week	2023-01-12T15:00:43.945070+11:00	2023-01-16T16:31:41.097747+11:00	 29/30 Hartley Street	TURNER	ACT	2612	149.127519	-35.2629378	Apartment	629	Badenoch Real Estate	Paul Hunter	2	2	2		0.0
73359	rental	Spacious 2/3 Bedroom ens Executive Apartment - 6 MONTH LEASE ONLY	$750 per week	2023-01-12T14:57:53.247198+11:00	2023-01-19T14:01:32.215897+11:00	502/51-53 Mort Street	BRADDON	ACT	2612	149.131401	-35.2710501	Apartment	626	Berkely Residential	The Asset Manager	3	2	2		2090.0
73363	rental	STUNNING TWO BEDROOM APARTMENT 	$570 pw	2023-01-12T15:04:05.468213+11:00	2023-01-16T11:01:29.131449+11:00	159/45 Catalano Street	WRIGHT	ACT	2611	149.033916	-35.3188539	Apartment	414	Luton Weston Creek & Molonglo Valley	Zoe White	2	2	2	0.0	
73365	rental	Prime position	$850 Per Week	2023-01-12T15:44:00.244986+11:00	2023-01-17T14:46:48.473529+11:00	2/5 Gooreen Street	REID	ACT	2612	149.1430215	-35.2800031	House	440	LJ Hooker Canberra City	Dannielle McSpeerin	3	2	1		
73369	rental	Quiet and Peaceful Townhouse	$480 per week	2023-01-12T15:47:38.356239+11:00	2023-01-17T10:16:43.604728+11:00	17/47 Ashby Circuit	KAMBAH	ACT	2902	149.0645393	-35.3963562	Townhouse	34	McIntyre Property	Miki Sant	2	1	1		
73371	rental	Affordable Property - Great Location	$450 per week	2023-01-12T16:20:49.206274+11:00	2023-01-15T09:01:53.222051+11:00	14/179 Melrose Dr	PHILLIP	ACT	2606	149.0824666	-35.3464403	Unit	433	Maloney's Property	Ned Hibbert	2	1	1		
73372	rental	Ideally situated!	$650 pw	2023-01-12T16:31:43.099207+11:00	2023-01-12T16:31:51.785305+11:00	21 Roughley Street	FLOREY	ACT	2615	149.0563455	-35.2256967	Townhouse	443	LJ Hooker Manuka	Leasing Consultant	3	2	2		
73374	rental	IMPRESSIVE TWO BEDROOM EXECUTIVE TOWNHOUSE 	$650 per week	2023-01-12T16:53:41.794956+11:00	2023-01-16T09:16:29.925711+11:00	10/2 Archibald Street	LYNEHAM	ACT	2602	149.1264581	-35.2450669	Townhouse	273	Luton Dickson	Caroline Phengrasmy	2	2	2		
73375	rental	Lovely, Bright and Spacious!	$695 per week	2023-01-12T16:56:37.256013+11:00	2023-01-18T11:01:54.009924+11:00	35 Charles Perkins Circuit	BONNER	ACT	2914	149.1471567	-35.159258	House	433	Maloney's Property	Ned Hibbert	3	2	1		
73377	rental	Live the Elio lifestyle	$750 Per Week	2023-01-12T17:01:21.449124+11:00	2023-01-13T13:02:04.338256+11:00	12 Trinca Street	DENMAN PROSPECT	ACT	2611	149.0304598	-35.3010183	Townhouse	440	LJ Hooker Canberra City	Dannielle McSpeerin	3	2	2		
73380	rental	Fabulous Central Apartment	$520 per week	2023-01-12T17:55:56.741898+11:00	2023-01-16T17:31:37.294252+11:00	24/47 Blackall St	BARTON	ACT	2600	149.1374104	-35.3083756	Apartment	433	Maloney's Property	Ned Hibbert	1	1	1		
73384	rental	Beautifully maintained four bedroom ensuite home designed with family in mind.	$830 - $850 pw	2023-01-13T08:51:06.542647+11:00	2023-01-13T09:31:37.611479+11:00	9 Crichton Crescent	KAMBAH	ACT	2902	149.0421633	-35.374601	House	513	My Morris	Abbey Morris	4	2	2		
73387	rental	Stunning home in highly sought after street	$920 / Wk	2023-01-13T09:32:10.869978+11:00	2023-01-18T14:46:47.342809+11:00	20 Couvreur Street	GARRAN	ACT	2605	149.1122257	-35.3370356	House	436	LJ Hooker Dickson	Sarah Lound	4	2	5		
73388	rental	Large Home on Corner Block - Ideal for Families/Groups	$1200 Per Week	2023-01-13T09:57:29.220301+11:00	2023-01-19T14:46:47.603818+11:00	22 Mindarie Street	NARRABUNDAH	ACT	2604	149.1507326	-35.3336955	House	440	LJ Hooker Canberra City	Jess Meyer	4	2	2	0.0	753.4
73389	rental	A Beautiful Home In A Prime Location	$800 Per Week	2023-01-13T10:29:58.545854+11:00	2023-01-16T10:01:39.191242+11:00	36 Wattle Street	LYNEHAM	ACT	2602	149.1294934	-35.2573544	House	440	LJ Hooker Canberra City	Grace Bowman	3	1	1		
73393	rental	Three Bedroom Apartment in the Heart of Kingston	$670 - $700 Per Week	2023-01-13T10:38:31.210719+11:00	2023-01-16T10:46:37.174337+11:00	121/8 Jardine Street	KINGSTON	ACT	2604	149.1409456	-35.3142158	Apartment	599	Cream Residential	Annetta Fiorese	3	2	1	0.0	
73396	rental	Inner South, sun drenched Gem!	$950 / Wk	2023-01-13T10:59:11.903122+11:00	2023-01-17T10:31:36.715915+11:00	4/31 Tallara Parkway	NARRABUNDAH	ACT	2604	149.152253	-35.3350881	Townhouse	436	LJ Hooker Dickson	Judy Arnott	4	2	1		
73398	rental	ALL IT NEEDS IS YOU	$800 Per Week	2023-01-13T11:13:12.582602+11:00	2023-01-17T09:46:27.387249+11:00	6 Rachel Makinson Street	STRATHNAIRN	ACT	2615	148.9948251	-35.2262872	House	410	MARQ Property	Kayla Adele	4	2	2		
73399	rental	Great location, 2 Bedroom Duplex	$600	2023-01-13T11:16:28.110562+11:00	2023-01-13T11:16:40.830026+11:00	5 Salomons Place	AINSLIE	ACT	2602	0.0	0.0	DuplexSemi-detached	1818	Knight Property Solutions	Samantha Gibbs	2	1	1		
73400	rental	WANTED. Super great people to LIVE HERE	$820 Per Week	2023-01-13T11:13:12.706850+11:00	2023-01-17T09:46:27.010758+11:00	8 Rachel Makinson Street	STRATHNAIRN	ACT	2615	148.9941748	-35.2263825	House	410	MARQ Property	Kayla Adele	4	3	2		
73406	rental	Modern one bedroom unit with Mountain Views!	$455.00	2023-01-13T11:38:40.937787+11:00	2023-01-17T10:31:49.986127+11:00	22/21 Christina Stead Street	FRANKLIN	ACT	2913	149.1479876	-35.2021339	Apartment	436	LJ Hooker Dickson	Justine Bailey	1	1	1		
73408	rental	DELIGHTFUL MONCRIEFF HOME	$850 pw	2023-01-13T12:30:32.164379+11:00	2023-01-18T14:16:34.881652+11:00	20 Lester Terrace	MONCRIEFF	ACT	2914	149.116922	-35.1602889	House	409	Luton Gungahlin	Baljeet Kaur	4	2	2		
73413	rental	Fully furnished apartment set on the top floor of the Monterey complex.	$490 per week	2023-01-13T13:01:32.718241+11:00	2023-01-13T13:01:59.018425+11:00	134/14 Boolee Street	REID	ACT	2612	149.1382748	-35.2812281	Apartment	1784	Sadil Quinlan	Cara Davis	1	1	1		
73414	rental	Love it like your own	$850 Per Week	2023-01-13T12:52:06.183467+11:00	2023-01-17T11:31:40.094797+11:00	13 Potts Place	FARRER	ACT	2607	149.0958573	-35.3739183	House	410	MARQ Property	Kayla Adele	5	3	1		
73416	rental	Top Floor Apartment in the Heart of Woden	$400 - $420 Per Week	2023-01-13T13:28:36.592229+11:00	2023-01-19T09:46:30.996196+11:00	49/17 Medley Street	CHIFLEY	ACT	2606	149.0851063	-35.354705	Apartment	599	Cream Residential	Tim Miosge	1	1	1	0.0	
73417	rental	PERFECTLY POSITIONED SURROUNDED BY LUSH GARDENS	$600 pw	2023-01-13T13:31:29.396595+11:00	2023-01-13T13:31:39.257321+11:00	1 Short Place	BELCONNEN	ACT	2617	149.0681482	-35.2464955	Townhouse	409	Luton Gungahlin	Baljeet Kaur	3	1	2		
73418	rental	Fantastic Location Powerhouse	$495 per week	2023-01-13T13:33:12.210493+11:00	2023-01-16T16:02:00.142434+11:00	UG02/17 The Causeway	KINGSTON	ACT	2604	149.1498813	-35.3163931	Apartment	232	Ray White Canberra	Matthew McClellan	1	1	1		
73419	rental	Central Apartment	$635 per week	2023-01-13T13:46:47.631527+11:00	2023-01-13T13:47:06.097596+11:00	403/8 Cape Street	DICKSON	ACT	2602	149.1375122	-35.2516175	Apartment	232	Ray White Canberra	Matthew McClellan	2	2	2		
73421	rental	Fantastic Light filled, functional family home	$850 per week	2023-01-13T13:55:17.900060+11:00	2023-01-16T16:02:03.411293+11:00	36/121 Thynne Street	BRUCE	ACT	2617	149.0950286	-35.2406475	House	232	Ray White Canberra	Matthew McClellan	4	3	2		
73422	rental	A PLACE TO CALL HOME	$730 per week	2023-01-13T14:20:39.097867+11:00	2023-01-13T17:16:29.841996+11:00	8 Verdon Street	O'CONNOR	ACT	2602	149.1283623	-35.2612501	House	273	Luton Dickson	Caroline Phengrasmy	3	1	0		
73424	rental	hot. location 	$1100 per week	2023-01-13T14:41:24.613059+11:00	2023-01-13T15:16:32.552310+11:00	48 Macleay Street	TURNER	ACT	2612	149.1287441	-35.2671399	House	618	home.by holly	Jamye Dudok	4	2	5		
73431	rental	In the Heart of Hawker	$480 Per Week	2023-01-13T16:01:34.253613+11:00	2023-01-13T16:01:47.154756+11:00	1/26 Springvale Drive	HAWKER	ACT	2614	149.0431571	-35.2455879	Apartment	437	LJ Hooker Belconnen	Leasing Team	2	1	1		
73432	rental	Perfectly located townhouse in Lawson	$700 per week	2023-01-13T15:49:09.124463+11:00	2023-01-19T11:32:18.928782+11:00	25 Overflow Street	LAWSON	ACT	2617	149.08927862	-35.22682344	House	232	Ray White Canberra	Matthew McClellan	3	2	2		
73435	rental	New Apartment with Views	$480 Per Week	2023-01-13T16:33:03.690406+11:00	2023-01-19T14:46:55.273615+11:00	19/22 Cornelius Street	COOMBS	ACT	2611	149.0461067	-35.3247007	Apartment	440	LJ Hooker Canberra City	Selena Wang	1	1	1		
73436	rental	Ideal location	$630 Per Week	2023-01-13T16:46:58.455441+11:00	2023-01-13T16:47:12.217171+11:00	23/10 Federal Highway	WATSON	ACT	2602	149.1536935	-35.230483	Townhouse	437	LJ Hooker Belconnen	Leasing Team	3	2	1		
73437	rental	Beautiful and Desirable Home 	$530 Per Week 	2023-01-13T16:54:06.268860+11:00	2023-01-17T15:01:34.239351+11:00	34 Rochelle Street	MONCRIEFF	ACT	2914	149.1064256	-35.1575954	Townhouse	410	MARQ Property	Kayla Adele	2	1	1	6.0	
73438	rental	Move In Ready	$600 Per Week	2023-01-13T17:01:09.328987+11:00	2023-01-13T20:31:34.987125+11:00	10 Rice Place	HOLT	ACT	2615	149.013421	-35.2255888	House	437	LJ Hooker Belconnen	Leasing Team	3	1	2		
73439	rental	Modern Apartment with lovely Views	$530 Per Week	2023-01-13T17:11:31.732662+11:00	2023-01-19T14:46:50.384679+11:00	59/2 Newchurch Street	COOMBS	ACT	2611	149.0416667	-35.3222446	Apartment	440	LJ Hooker Canberra City	Selena Wang	1	1	1		
73440	rental	Close to City Centre + Study Room	$550 Per Week	2023-01-13T17:11:47.179244+11:00	2023-01-19T13:31:56.820117+11:00	6/20 Moore Street	TURNER	ACT	2612	149.1286545	-35.2749625	Apartment	440	LJ Hooker Canberra City	Selena Wang	1	1	1		
73441	rental	Beautiful Family Home, Gardener Included!	$800 Per Week	2023-01-13T17:37:30.428505+11:00	2023-01-19T09:46:31.991840+11:00	29 Spafford Crescent	FARRER	ACT	2607	149.1044224	-35.3728865	House	599	Cream Residential	Tim Miosge	4	2	1	0.0	
73443	rental	Grand Living 	$470 per week	2023-01-13T19:21:41.705598+11:00	2023-01-13T20:01:28.503306+11:00	1228/15 Bowes Street Street	PHILLIP	ACT	2606	149.0868669	-35.3441316	Apartment	2615	Waratah Estate Agents	Rental Team	1	1	1	6.5	
73447	rental	devine. deakin	$1400 NEG per week	2023-01-14T15:14:23.943980+11:00	2023-01-21T13:16:32.518199+11:00	15 Lamington Street	DEAKIN	ACT	2600	149.1068273	-35.3193719	House	618	home.by holly	Tamara Davis	5	2	1	4.0	
73448	rental	azure.enticing 	$660 per week	2023-01-14T15:36:26.280750+11:00	2023-01-14T16:16:31.438258+11:00	18/5 Kerridge Street	KINGSTON	ACT	2604	149.1490738	-35.3132929	Apartment	618	home.by holly	Jackie Houghton	2	2	1	5.0	
73450	rental	Spacious, modern, single-level townhouse....a rare opportunity!!! BE QUICK TO INSPECT!!!	$640 per week	2023-01-14T20:53:50.587761+11:00	2023-01-16T09:47:52.044274+11:00	1/1 Evergood Close	WESTON	ACT	2611	149.0563393	-35.3439703	Townhouse	2207	Zango Private Listers	Kristina Hopkins	2	1	1	0.0	244.0
73451	rental	lyneham. location 	$660 per week 	2023-01-15T11:16:25.945844+11:00	2023-01-15T11:16:37.845263+11:00	35 Longstaff Street	LYNEHAM	ACT	2602	149.1232602	-35.248223	House	618	home.by holly	Jamye Dudok	3	1	1	2.5	
73453	rental	One Bedroom Home AVAILABLE NOW	$450 per week	2023-01-15T21:57:42.792540+11:00	2023-01-20T18:46:30.527663+11:00	413/34 Oakden Street	GREENWAY	ACT	2900	149.0735953	-35.42226369999999	Apartment	2615	Waratah Estate Agents	Rental Team	1	1	1		
73454	rental	One Bedroom Home 	$450 per week	2023-01-15T22:08:39.779642+11:00	2023-01-15T22:31:27.377891+11:00	214/34 Oakden Street	GREENWAY	ACT	2900	149.0735953	-35.42226369999999	Apartment	2615	Waratah Estate Agents	Rental Team	1	1	1		
73455	rental	One Bedroom Home 	$450 per week	2023-01-15T22:19:41.865804+11:00	2023-01-16T01:46:25.220321+11:00	307/34 Oakden Street	GREENWAY	ACT	2900	149.0735953	-35.42226369999999	Apartment	2615	Waratah Estate Agents	Rental Team	1	1	1		
73456	rental	Two Bedroom	$540 per week	2023-01-15T22:31:26.292721+11:00	2023-01-15T22:31:30.035203+11:00	217/34 Oakden Street	GREENWAY	ACT	2900	149.0735953	-35.42226369999999	Apartment	2615	Waratah Estate Agents	Rental Team	2	2	1		
73457	rental	Easy living	$650 per week	2023-01-16T08:45:20.923122+11:00	2023-01-16T17:02:01.112027+11:00	46 Lionel Rose Street	HOLT	ACT	2615	148.99928369999998	-35.2285669	House	441	LJ Hooker Kippax	Jodie Cross	3	2	2		
73458	rental	Fantastic Location, Convenience Plus!	$640 per week	2023-01-16T09:26:45.527168+11:00	2023-01-20T14:31:34.408658+11:00	50 Whitrod Avenue	CASEY	ACT	2913	149.0992437	-35.1593739	Townhouse	34	McIntyre Property	Amanda Gordon	2	2	1		
73460	rental	Make Founders Lane your home!	$550 Per Week	2023-01-16T10:12:05.124824+11:00	2023-01-19T14:31:53.699501+11:00	611/65 Cooyong Street	BRADDON	ACT	2612	149.1352697	-35.278174	Apartment	440	LJ Hooker Canberra City	Grace Bowman	1	1	1		
73462	rental	You'll love this one as much as we do	$580 Per Week	2023-01-16T11:16:06.226983+11:00	2023-01-17T11:31:32.191269+11:00	51/64 Kings Canyon Street	HARRISON	ACT	2914	149.1489168	-35.2066013	Townhouse	410	MARQ Property	Kayla Adele	2	2	1		
73468	rental	Spacious and Family Friendly, Six Bedroom Home with Swimming Pool	$895 per week	2023-01-16T11:38:14.051550+11:00	2023-01-17T17:31:33.898577+11:00	5 Bambridge Street	WEETANGERA	ACT	2614	149.0516512	-35.2443199	House	232	Ray White Canberra	Matthew McClellan	6	3	3		906.0
73469	rental	Your Lawson lifestyle awaits you!	$520 per week	2023-01-16T11:54:16.299053+11:00	2023-01-19T15:31:34.917052+11:00	 36/15 Wanderlight Avenue	LAWSON	ACT	2617	149.0894227	-35.2329474	Townhouse	629	Badenoch Real Estate	Lalita Chaplin	2	2	1		0.0
73470	rental	Fantastic 3 Bedroom Low Maintenance Townhouse	$610 p/w	2023-01-16T12:01:40.284842+11:00	2023-01-16T12:01:56.716631+11:00	19/11 Togo Place	GORDON	ACT	2906	149.0805649	-35.4573007	Townhouse	435	LJ Hooker Tuggeranong	Chloe Walsh	3	2	1		
73473	rental	Fully Furnished One Bedroom	$480 Per Week	2023-01-16T12:11:18.298278+11:00	2023-01-19T16:46:27.383254+11:00	10/16 Deburgh Street	LYNEHAM	ACT	2602	149.1315334	-35.2577317	Apartment	410	MARQ Property	Kayla Adele	1	1	1		
73474	rental	Make Founders Lane Your Home!	$550 Per Week	2023-01-16T12:22:21.842075+11:00	2023-01-19T12:46:54.316180+11:00	817/61 Cooyong Street	BRADDON	ACT	2612	149.1352573	-35.2774842	Apartment	440	LJ Hooker Canberra City	Grace Bowman	1	1	1		
73476	rental	3/9 Torpy Place Jerrabomberra - Semi Detached Townhouse - Available Late Feb	$650 per week	2023-01-16T12:48:45.075519+11:00	2023-01-16T13:04:23.832256+11:00	3/9 Torpy Place	JERRABOMBERRA	NSW	2619	149.2070358	-35.3862062	DuplexSemi-detached	2207	Zango Private Listers	Rebecca Kennedy	3	1	2	0.0	2707.0
73479	rental	Great Location!	$595 per week	2023-01-16T13:06:15.961982+11:00	2023-01-19T16:01:33.434623+11:00	9 Wilshire Street	DICKSON	ACT	2602	149.1435757	-35.2549252	House	629	Badenoch Real Estate	Paul Hunter	3	1	2	2.5	0.0
73481	rental	2 Bedroom Townhouse in a Convenient Location	$420 Per Week	2023-01-16T13:27:37.962324+11:00	2023-01-20T14:46:34.243902+11:00	2/19 Devonport Street	LYONS	ACT	2606	149.0755776	-35.3386548	Apartment	599	Cream Residential	Tim Miosge	2	1	0	0.0	
73483	rental	Stunning Dickson Residence	$900 per week	2023-01-16T13:18:23.474682+11:00	2023-01-19T16:01:34.119945+11:00	122 Cowper Street	DICKSON	ACT	2602	149.1396644	-35.2531131	House	629	Badenoch Real Estate	Paul Hunter	4	2	1		0.0
73484	rental	Beautiful Energy Efficient Home	$800 per week	2023-01-16T13:22:20.077619+11:00	2023-01-19T22:31:29.881982+11:00	50 Kellway Street	EVATT	ACT	2617	149.0710042	-35.2061367	House	232	Ray White Canberra	Christine Pfeiffer	4	1	1		808.5
73488	rental	Cosy Three Bedroom Home	$570 p/ wk	2023-01-16T14:00:20.823079+11:00	2023-01-16T14:16:40.056482+11:00	16 William Webb Drive	EVATT	ACT	2617	149.0814191	-35.2106647	House	436	LJ Hooker Dickson	Helena Kime	3	1	1		
73489	rental	Sleek And Stylish 'Woodberry'	$480 Per Week	2023-01-16T14:11:57.806048+11:00	2023-01-19T15:01:52.451032+11:00	28/22 Cornelius Street	COOMBS	ACT	2611	149.0461067	-35.3247007	Apartment	440	LJ Hooker Canberra City	Jess Meyer	1	1	1		
73491	rental	Sleek And Stylish 'Woodberry'	$600 Per Week	2023-01-16T14:10:51.000040+11:00	2023-01-19T15:01:53.716191+11:00	26/22 Cornelius Street	COOMBS	ACT	2611	149.0461067	-35.3247007	Apartment	440	LJ Hooker Canberra City	Jess Meyer	2	2	2		
73492	rental	Sleek And Stylish - 'Woodberry'	$600 Per Week	2023-01-16T14:09:52.577569+11:00	2023-01-19T15:02:02.568548+11:00	25/22 Cornelius Street	COOMBS	ACT	2611	149.0461067	-35.3247007	Apartment	440	LJ Hooker Canberra City	Jess Meyer	2	2	2		
73495	rental	Convenience luxury and space!	$660pw	2023-01-16T14:42:14.164265+11:00	2023-01-23T13:01:36.268167+11:00	6/20  New South Wales	FORREST	ACT	2603	149.1330078	-35.3147448	House	2086	Real Estate Australia	Leasing Team	2	2	1		
73498	rental	Comfortable, light filled house in Ainslie	$860 per week	2023-01-16T14:56:36.272514+11:00	2023-01-20T14:01:11.192753+11:00	73 Sherbrooke Street	AINSLIE	ACT	2602	149.1438388	-35.2566851	House	2207	Zango Private Listers	Karen Abel	3	2	2	0.0	615.0
73501	rental	Furnished Two Bedroom Apartment	$550 / Wk	2023-01-16T15:05:30.796022+11:00	2023-01-18T14:16:38.653459+11:00	3/3 Billabong Street	LAWSON	ACT	2617	149.0931126	-35.2285448	Apartment	436	LJ Hooker Dickson	Helena Kime	2	1	1		
73503	rental	FULLY FURNISHED Well presented Two Bedroom Apartment	550/ Week	2023-01-16T15:13:45.009015+11:00	2023-01-18T14:16:38.978487+11:00	11/3 Billabong Street	LAWSON	ACT	2617	149.0931126	-35.2285448	Apartment	436	LJ Hooker Dickson	Helena Kime	2	1	1		
73505	rental	Executive townhouse living in Greenway	$740 - $760 pw	2023-01-16T15:30:07.077523+11:00	2023-01-25T15:46:36.407551+11:00	45 Cynthea Teague Crescent	GREENWAY	ACT	2900	149.074475	-35.422273	Townhouse	513	My Morris	Abbey Morris	3	2	2		
73507	rental	LOCATED IN A PRIME POSITION	$420	2023-01-16T15:40:30.988165+11:00	2023-01-18T14:31:36.828761+11:00	2/11 Grocott Lane	GUNGAHLIN	ACT	2912	149.134522	-35.1805956	Apartment	409	Luton Gungahlin	Baljeet Kaur	1	1	1	4.0	
73508	rental	MODERN, LIGHT FILLED & SPACIOUS APARTMENT	$500 Per Week	2023-01-16T15:46:48.467315+11:00	2023-01-16T15:46:56.667586+11:00	4/139 Port Jackson Circuit	PHILLIP	ACT	2606	0.0	0.0	Unit	437	LJ Hooker Belconnen	Leasing Team	2	1	1		
73509	rental	Family Home in Prime Location	$860 Per Week	2023-01-16T16:02:10.005582+11:00	2023-01-23T15:31:30.293399+11:00	55 Digby Circuit	CRACE	ACT	2911	149.0989831	-35.2019401	House	410	MARQ Property	Kayla Adele	4	2	2		
73510	rental	Spacious Griffith Home	$1300 per week	2023-01-16T16:07:12.404436+11:00	2023-01-23T09:46:53.778491+11:00	2 Hovell Street	GRIFFITH	ACT	2603	149.1391144	-35.3286006	House	443	LJ Hooker Manuka	William Taylor	4	2	2	0.0	1261.0
73514	rental	Updated home with quality fixtures and fittings	$895pw	2023-01-16T16:34:10.172912+11:00	2023-01-19T13:31:57.397207+11:00	57 Kalgoorlie Crescent	FISHER	ACT	2611	149.0581959	-35.363037	House	438	LJ Hooker Woden/Weston	Sarah Miller	4	2	1	0.0	886.0
73515	rental	The Mark - Chic Apartment in the heart of the City	$650 per week	2023-01-16T17:01:28.672001+11:00	2023-01-16T17:01:53.755938+11:00	 428/45 Ainslie Avenue	BRADDON	ACT	2612	149.1359974	-35.2787607	Apartment	629	Badenoch Real Estate	Lalita Chaplin	2	2	2		0.0
73516	rental	Apartment with Altitude	$495 per week	2023-01-16T16:54:37.893764+11:00	2023-01-17T08:31:32.949106+11:00	 31/35 Chandler Street	BELCONNEN	ACT	2617	149.0704363	-35.2385461	Apartment	629	Badenoch Real Estate	Lalita Chaplin	1	1	1		0.0
73520	rental	Peaceful Paradise	$820 Per Week	2023-01-16T17:31:30.633468+11:00	2023-01-16T17:31:52.112107+11:00	50/121 Streeton Drive	STIRLING	ACT	2611	149.0421407	-35.3532937	Townhouse	440	LJ Hooker Canberra City	Tara Munro	4	2	2		
73521	rental	Lovely Family Home	$580 Per Week	2023-01-16T17:18:54.201037+11:00	2023-01-19T13:17:01.693399+11:00	34 James Harrison Street	DUNLOP	ACT	2615	149.0176445	-35.1922325	Terrace	440	LJ Hooker Canberra City	Lagan Puri	3	1	1		
73527	rental	'HIGHGATE' FURNISHED APARTMENT	$575 per week	2023-01-17T09:30:38.061027+11:00	2023-01-18T09:31:34.150894+11:00	 50/260 City Walk	CITY	ACT	2601	149.1332144	-35.2819498	Apartment	629	Badenoch Real Estate	Paul Hunter	1	1	1		0.0
73528	rental	3 bedroom townhouse in great location!	$690.00	2023-01-17T09:25:51.780017+11:00	2023-01-18T14:16:41.045689+11:00	9/3 Noble Place	FLYNN	ACT	2615	149.0416463	-35.2086187	Townhouse	436	LJ Hooker Dickson	Judy Arnott	3	1	2		
73531	rental	3 Bedroom Family Townhouse	$650 - $680 Per Week	2023-01-17T10:16:06.302754+11:00	2023-01-19T09:46:33.447982+11:00	2/73 Lorraway Street	HOLT	ACT	2615	148.9972869	-35.2262383	Townhouse	599	Cream Residential	Tim Miosge	3	2	2	0.0	
73536	rental	Opportunity at it's finest	$540-$560 pw	2023-01-17T10:23:06.325657+11:00	2023-01-20T16:31:38.021245+11:00	19/100 Chewings Street	PAGE	ACT	2614	149.0494972	-35.2326053	Townhouse	513	My Morris	Rachelle White	2	1	2		
73539	rental	Ideal family home	$630	2023-01-17T10:45:41.584735+11:00	2023-01-17T15:16:37.501112+11:00	34 Spica Street	GIRALANG	ACT	2617	149.1007052	-35.2126104	House	439	LJ Hooker Kaleen	Maddy Eveleigh	3	1	2	1.0	73150.0
73540	rental	Inner North Living.	$540-550 per week	2023-01-17T10:35:57.746798+11:00	2023-01-19T12:01:38.747460+11:00	907/17 Dooring Street	BRADDON	ACT	2612	149.1339014	-35.2611514	Apartment	439	LJ Hooker Kaleen	Maddy Eveleigh	1	1	1	5.5	
73542	rental	Modern Family Home	$820 per week	2023-01-17T10:35:18.950431+11:00	2023-01-23T14:01:53.538138+11:00	32 Lawrenson Circuit	JACKA	ACT	2914	149.1311081	-35.1617422	House	232	Ray White Canberra	Lauren Everett	4	2	2		
73543	rental	Luxury Apartment in Excellent Location	$700 per week	2023-01-17T10:59:06.509538+11:00	2023-01-20T10:46:34.982639+11:00	1305/39 London Circuit	CITY	ACT	2601	149.1268246	-35.2793791	Apartment	433	Maloney's Property	Ned Hibbert	2	2	2		
73544	rental	Three Bedroom Home in a Fantastic Location!	$580 - $600 Per Week	2023-01-17T10:48:09.815100+11:00	2023-01-19T10:01:34.857962+11:00	9 Harkness Street	MONASH	ACT	2904	149.0893554	-35.4170137	House	599	Cream Residential	Tim Miosge	3	2	1	0.0	
73547	rental	Family Home In The Heart Of McKellar	$900 per week	2023-01-17T10:51:20.346953+11:00	2023-01-19T11:32:13.752632+11:00	135 Dumas Street	MCKELLAR	ACT	2617	149.073701	-35.2169527	House	232	Ray White Canberra	Bree Bradley	4	2	2		
73548	rental	1 Bedroom Spacious Apartment in a Great Location	$470 Per Week	2023-01-17T11:16:43.808058+11:00	2023-01-17T11:16:52.775395+11:00	203/9 Watkin Street	BRUCE	ACT	2617	149.0951482	-35.245189	Apartment	437	LJ Hooker Belconnen	Leasing Team	1	1	1		
73551	rental	Light & Airy Apartment With Mountain Views!	$520 per week	2023-01-17T11:32:31.021425+11:00	2023-01-17T11:32:41.915930+11:00	97/41 Philip Hodgins Street	WRIGHT	ACT	2611	149.0330237	-35.3176022	Apartment	232	Ray White Canberra	Helen West	2	2	2		
73552	rental	Make Lowanna Street your home!	$699 Per Week	2023-01-17T11:44:43.257972+11:00	2023-01-17T12:01:30.495501+11:00	69 Lowanna Street	BRADDON	ACT	2612	149.1336985	-35.2620251	House	2853	Bastion Property Group	Stephanie Traycevska	3	1	1		429.0
73555	rental	the. grove 	$720 per week	2023-01-17T12:11:50.874339+11:00	2023-01-20T19:31:30.827594+11:00	49 Wybalena Grove	COOK	ACT	2614	149.0719463	-35.2645896	House	618	home.by holly	Jamye Dudok	3	2	1	4.0	
73558	rental	North Facing Townhouse In Prime Location	$700 Per Week	2023-01-17T12:40:34.547452+11:00	2023-01-19T13:16:57.555239+11:00	5/15 Stroud Place	FLOREY	ACT	2615	149.057206	-35.2320425	Townhouse	440	LJ Hooker Canberra City	Grace Bowman	3	2	1		
73560	rental	Spacious 1 bedroom apartment with large separate study.	$500 to $520 pw	2023-01-17T13:30:08.132245+11:00	2023-01-20T16:46:32.042767+11:00	1205/15 Bowes Street	PHILLIP	ACT	2606	149.0868669	-35.3441316	Apartment	513	My Morris	Rachelle White	1	1	1		
73565	rental	Boutique Apartment	$460 / Wk	2023-01-17T14:31:42.714343+11:00	2023-01-17T14:31:47.664809+11:00	8/9 Jevons Place	PAGE	ACT	2614	149.0562369	-35.2398068	Townhouse	436	LJ Hooker Dickson	Sarah Lound	1	1	1	0.0	
73571	rental	Home is where your heart is...	$650 Per Week 	2023-01-17T15:19:10.504930+11:00	2023-01-23T16:01:32.665955+11:00	25 Farran Street	GUNGAHLIN	ACT	2912	149.1503523	-35.1880354	Townhouse	410	MARQ Property	Kayla Adele	4	2	2		
73572	rental	Prime Location	$580 Per Week	2023-01-17T15:46:37.669806+11:00	2023-01-17T15:46:51.355894+11:00	66/140 Thynne Street	BRUCE	ACT	2617	149.1000801	-35.2421051	Apartment	437	LJ Hooker Belconnen	Leasing Team	2	2	2		
73573	rental	Charming Renovated Home in Charnwood 	$650 Per Week	2023-01-17T15:45:20.347860+11:00	2023-01-19T14:32:07.390827+11:00	5 Winder Place	CHARNWOOD	ACT	2615	149.0353358	-35.1943887	House	437	LJ Hooker Belconnen	Leasing Team	3	2	1		
73574	rental	Lovely Family 3 Bedroom, 2 Bathroom home in Richardson is a must to see!	$630 p/w	2023-01-17T15:55:36.134903+11:00	2023-01-24T14:01:43.855368+11:00	9 Cottrell Place	RICHARDSON	ACT	2905	149.1121809	-35.4265663	House	435	LJ Hooker Tuggeranong	Chloe Walsh	3	2	2		
73586	rental	BEAUTIFUL ONE-BEDROOM APARTMENT IN THE HEART OF BELCONNEN	$480 per week	2023-01-17T17:46:27.107148+11:00	2023-01-17T17:46:37.225931+11:00	704/6 Grazier Lane	BELCONNEN	ACT	2617	149.0718747	-35.2403748	Other	2300	VERV Property	Charlie Evans	1	1	1		
73588	rental	This unit is ready & waiting for you to move in!	$545pw	2023-01-17T19:43:44.816584+11:00	2023-01-20T17:01:37.659335+11:00	87/2 Hinder Street	GUNGAHLIN	ACT	2912	149.137066	-35.1845717	Unit	412	Luton Manuka	Kim Paxton	2	2	2		
73589	rental	1 Bedroom Townhouse Opposite Casey Market Town	$550 per week	2023-01-18T07:09:08.012886+11:00	2023-01-20T16:01:48.100288+11:00	44/60 Kingsland Parade	CASEY	ACT	2913	149.0967766	-35.1722308	Townhouse	233	LJ Hooker Gungahlin	LJ Hooker Gungahlin	1	1	1		
73592	rental	Refreshed Braddon Property - Excellent Location	$495 per week	2023-01-18T09:09:14.782274+11:00	2023-01-23T12:01:42.260396+11:00	18/38 Torrens St	BRADDON	ACT	2612	149.1346457	-35.2718858	Unit	433	Maloney's Property	Ned Hibbert	1	1	1		
73593	rental	Excellent Price, Excellent Location	$580 per week	2023-01-18T09:08:36.223727+11:00	2023-01-23T11:17:05.033380+11:00	24 Legge St	DOWNER	ACT	2602	149.14091	-35.2463957	House	433	Maloney's Property	Ned Hibbert	3	1	1		
73599	rental	Fantastic 2 bedroom apartment	$430 p/w	2023-01-18T10:11:17.495416+11:00	2023-01-18T11:16:33.808868+11:00	4/2 Velacia Place	QUEANBEYAN	NSW	2620	149.2256877	-35.3466198	Unit	435	LJ Hooker Tuggeranong	Briege O'Brien	2	1	1		
73601	rental	Warehouse Style Apartment in The Heart of Woden	$645 per week	2023-01-18T10:18:18.949129+11:00	2023-01-23T15:16:30.911800+11:00	 301/35 Furzer Street	PHILLIP	ACT	2606	149.084479	-35.3434916	Apartment	629	Badenoch Real Estate	Lalita Chaplin	2	2	2		0.0
73604	rental	Love it like your own	$600 Per Week	2023-01-18T10:34:07.371774+11:00	2023-01-19T17:01:33.239644+11:00	26/58 Lowanna Street	BRADDON	ACT	2612	149.1339949	-35.2614097	Apartment	410	MARQ Property	Kayla Adele	2	2	2		
73609	rental	Immaculate three bedroom Townhouse 	$630 Per Week	2023-01-18T11:01:13.157787+11:00	2023-01-18T11:16:39.137088+11:00	3/40 Siroset Close	DUNLOP	ACT	2615	149.026618	-35.1847916	Townhouse	437	LJ Hooker Belconnen	Leasing Team	3	2	2		
73611	rental	SPACIOUS THREE BEDROOM TOWNHOUSE	$700 Per Week	2023-01-18T11:16:32.952698+11:00	2023-01-18T11:16:48.736114+11:00	9/101 Kinloch Circuit	BRUCE	ACT	2617	0.0	0.0	Townhouse	437	LJ Hooker Belconnen	Leasing Team	3	2	2		
73612	rental	Westfield on your doorstep	$550 Per Week	2023-01-18T11:16:42.339404+11:00	2023-01-18T11:16:55.253936+11:00	18A/21 Beissel Street	BELCONNEN	ACT	2617	149.0651221	-35.2350205	Apartment	437	LJ Hooker Belconnen	Leasing Team	2	2	1		
73613	rental	Perfect for YOU	$550 Per Week	2023-01-18T11:29:12.972532+11:00	2023-01-23T16:01:32.767206+11:00	76/275 Flemington Road	FRANKLIN	ACT	2913	149.1505542	-35.1930878	Apartment	410	MARQ Property	Kayla Adele	2	2	2		
73621	rental	Quiet and Cosy	$615 per week	2023-01-18T11:50:19.735117+11:00	2023-01-24T12:46:36.572697+11:00	15 Goodhart Crescent	DUNLOP	ACT	2615	149.0246244	-35.1931477	House	232	Ray White Canberra	Shona Curtis	3	2	2	4.0	
73622	rental	Quality Family Home	$690 per week	2023-01-18T11:52:19.000215+11:00	2023-01-23T17:16:40.359798+11:00	16 Oakes Street	COOK	ACT	2614	149.065261	-35.2617654	House	232	Ray White Canberra	Matthew McClellan	3	2	2		
73627	rental	Welcome To Your New Home At Atlas	$700 Per Week	2023-01-18T12:46:09.158809+11:00	2023-01-19T13:16:52.236756+11:00	17/221 John Gorton Drive	WRIGHT	ACT	2611	149.0310519	-35.3101639	Townhouse	440	LJ Hooker Canberra City	Lagan Puri	2	2	2		
73632	rental	The Opportunity	$600 per week	2023-01-18T13:04:47.154915+11:00	2023-01-20T14:31:39.727276+11:00	1 Fullagar Crescent	HIGGINS	ACT	2615	149.0275598	-35.2269677	House	2647	Timothy Road	Asset Management	3	1	4		
73635	rental	Dream home Moncrieff	$925 per week	2023-01-18T13:42:28.188523+11:00	2023-01-23T15:01:35.116506+11:00	53 Mummery Terrace	MONCRIEFF	ACT	2914	149.11911	-35.1633611	House	629	Badenoch Real Estate	Paul Hunter	5	2	2		0.0
73639	rental	A home amongst the gum trees	$800 per week	2023-01-18T14:00:29.963904+11:00	2023-01-23T15:16:28.494467+11:00	3 Janari Place	ARANDA	ACT	2614	0.0	0.0	House	629	Badenoch Real Estate	Paul Hunter	4	2	2		0.0
73644	rental	The Specious Sanctuary	$700 per week	2023-01-18T14:05:40.120411+11:00	2023-01-20T14:31:41.477465+11:00	10 Brunswick Circuit	KALEEN	ACT	2617	149.1011488	-35.2338274	House	2647	Timothy Road	Asset Management	3	1	4		
73646	rental	Spacious and Modern Family Home	$720 pw	2023-01-18T14:26:40.459393+11:00	2023-01-20T15:46:37.428298+11:00	43 Flos Greig Street	WATSON	ACT	2602	149.1603188	-35.2341158	House	513	My Morris	Abbey Morris	4	2	2		
73648	rental	Fantastic Location!	$700 Per Week	2023-01-18T14:34:26.300273+11:00	2023-01-19T09:01:31.214517+11:00	23 Dookie Street	FARRER	ACT	2607	149.1090643	-35.3774299	House	599	Cream Residential	Monica Keane	3	1	1	0.0	
73650	rental	Perfectly located family townhouse	$550 - $570	2023-01-18T14:59:38.592520+11:00	2023-01-24T14:31:38.391974+11:00	19 Phylis Ashton Circuit	GUNGAHLIN	ACT	2912	149.1313245	-35.1780003	House	513	My Morris	Abbey Morris	3	2	1		
73653	rental	Neat and tidy home!	$550 per week	2023-01-18T15:08:01.805752+11:00	2023-01-25T09:31:38.467858+11:00	47 Nemarang Crecent	WARAMANGA	ACT	2611	149.0620708	-35.3570023	House	703	Bertram Ellis	Helen O'Callaghan	3	1	3		845.0
73657	rental	Central location	$570 per week	2023-01-18T15:46:49.101795+11:00	2023-01-18T15:46:59.660034+11:00	16/1 Waddell Place	CURTIN	ACT	2605	149.0809591	-35.3258911	Apartment	703	Bertram Ellis	Helen O'Callaghan	2	2	2	0.5	
73658	rental	Perfect Location	$570 Per Week	2023-01-18T15:59:40.363395+11:00	2023-01-23T09:47:03.032133+11:00	702/2 Akuna Street	CITY	ACT	2601	149.1325401	-35.2819387	Apartment	440	LJ Hooker Canberra City	Grace Bowman	2	1	1	0.0	
73661	rental	Central Two Bedroom Apartment in Turner	$610 per week	2023-01-18T16:31:31.406812+11:00	2023-01-18T16:31:41.380935+11:00	10/12 Towns Cres	TURNER	ACT	2612	149.1288963	-35.2630148	Apartment	433	Maloney's Property	Ned Hibbert	2	1	2		
73662	rental	ELEGANT TOWNHOUSE!	$565 per week	2023-01-18T16:42:19.868445+11:00	2023-01-23T13:31:31.915524+11:00	 3/9 Maria Place	LYONS	ACT	2606	149.0794636	-35.3474566	Townhouse	629	Badenoch Real Estate	Paul Hunter	2	2	2		0.0
73663	rental	Convenient & Modern Living!	$475 per week	2023-01-18T16:42:20.069288+11:00	2023-01-25T16:01:31.161258+11:00	56 Anchorage Street	HARRISON	ACT	2914	149.1557651	-35.1875838	Apartment	629	Badenoch Real Estate	Lalita Chaplin	2	1	1		0.0
73669	rental	LUXURY APARTMENT IN THE HEART OF BRADDON	$750 per week	2023-01-18T17:22:55.626178+11:00	2023-01-25T15:46:31.510004+11:00	301/35 Lonsdale Street	BRADDON	ACT	2612	149.1329423	-35.2708703	Other	2300	VERV Property	Charlie Evans	2	2	1		
73673	rental	2 Bedroom Unit walking distance from light rail station	$500 per week	2023-01-18T21:36:43.676235+11:00	2023-01-19T07:44:41.950522+11:00	25 Thistle Lane	HARRISON	ACT	2914	149.1551526	-35.1861588	Unit	2207	Zango Private Listers	Christine Luk	2	1	1	0.0	0.0
73674	rental	Apartment for rent	$650 per week	2023-01-18T22:55:46.197536+11:00	2023-01-21T20:17:03.503749+11:00	80/116 Easty street	PHILLIP	ACT	2606	149.0906558	-35.34654039999999	Apartment	2207	Zango Private Listers	Raisa Brar	2	1	1	5.5	14127.0
73675	rental	An apartment with room	$625	2023-01-18T22:59:23.433542+11:00	2023-01-19T23:31:28.680806+11:00	43/68 Hardwick Crescent	HOLT	ACT	2615	149.019269	-35.2203905	Apartment	441	LJ Hooker Kippax	Jodie Cross	3	2	2	6.0	
73676	rental	Spacious three bedroom townhouse	$590 - $610 per week	2023-01-18T23:35:33.267600+11:00	2023-01-25T16:02:04.698870+11:00	3/6 Willara Close	AMAROO	ACT	2914	149.1256848	-35.1710193	Townhouse	441	LJ Hooker Kippax	Jodie Cross	3	1	1	4.0	472.0
73687	rental	LIGHT AND AIRY	$480.00 pw	2023-01-19T09:16:27.283591+11:00	2023-01-19T09:16:39.510016+11:00	3/8 Frederick Street	CRESTWOOD	NSW	2620	149.2185611	-35.3457952	Townhouse	412	Luton Manuka	Maggie Schirmer	2	2	1		
73700	rental	Convenient Inner South Living	$520 Per Week	2023-01-19T10:16:27.148090+11:00	2023-01-19T10:16:37.335734+11:00	44/17 Oxley Street	GRIFFITH	ACT	2603	149.1400723	-35.3193089	Apartment	599	Cream Residential	Annetta Fiorese	2	2	1	0.0	
73710	rental	Pretty Home in Quiet Street	$699 per week	2023-01-19T11:01:43.124581+11:00	2023-01-19T11:02:20.090750+11:00	2 Davitt Close	ISAACS	ACT	2607	149.1136382	-35.3738228	House	233	LJ Hooker Gungahlin	LJ Hooker Gungahlin	3	2	2		
73722	rental	Lavish Lake Views	$540 per week	2023-01-19T12:36:41.213742+11:00	2023-01-20T14:31:30.688444+11:00	85/1 Limburg Way	GREENWAY	ACT	2900	149.0725193	-35.4193241	Apartment	34	McIntyre Property	Chauntelle Macic	2	2	1		
73723	rental	FULLY FURNISHED CONVENIENT LIVING	$520 per week	2023-01-19T13:01:52.712704+11:00	2023-01-19T13:02:11.029914+11:00	31/38 Torrens Street	BRADDON	ACT	2612	149.1346457	-35.2718858	Apartment	443	LJ Hooker Manuka	Leasing Consultant	1	1	1	0.0	
73725	rental	anyone for golf? 	$595 per week	2023-01-19T13:29:19.944483+11:00	2023-01-25T14:46:34.927245+11:00	3/60 Paul Coe Crescent	NGUNNAWAL	ACT	2913	149.1176527	-35.179686	Townhouse	618	home.by holly	Jackie Houghton	3	1	1	3.0	
73726	rental	Light-filled. High ceilings. Room to move.	$620-$650 per week	2023-01-19T13:25:33.322350+11:00	2023-01-25T15:01:33.500254+11:00	2 Little Place	SCULLIN	ACT	2614	149.0322826	-35.2387932	House	630	Agent Team Belconnen	Jade Cochrane	3	2	1		0.0
73728	rental	Lumi Apartment With Great Outlook	$550 per week	2023-01-19T13:34:41.000538+11:00	2023-01-21T10:01:39.672090+11:00	501/102 Swain Street	GUNGAHLIN	ACT	2912	149.1316188	-35.1812308	Apartment	233	LJ Hooker Gungahlin	LJ Hooker Gungahlin	2	1	1		
73731	rental	This Apartment Has The WOW Factor	$620 per week	2023-01-19T13:47:38.977158+11:00	2023-01-19T16:46:37.947081+11:00	501/6 Gribble Street	GUNGAHLIN	ACT	2912	149.1311572	-35.1818137	Apartment	233	LJ Hooker Gungahlin	LJ Hooker Gungahlin	2	2	2		
73733	rental	SPACIOUS ONE BEDROOM APARTMENT 	$490 pw	2023-01-19T14:04:54.259165+11:00	2023-01-27T18:16:30.428316+11:00	95/61 Giles Street	KINGSTON	ACT	2604	149.1442288	-35.3134028	Apartment	414	Luton Weston Creek & Molonglo Valley	Zoe White	1	1	1	0.0	
73738	rental	EXCELLENTLY POSITIONED TWO BEDROOM APARTMENT 	$610 pw	2023-01-19T14:28:02.710819+11:00	2023-02-06T14:16:30.211592+11:00	70/98 Corinna Street	PHILLIP	ACT	2606	149.0886604	-35.3480519	Apartment	415	Luton Woden	Zoe White	2	2	1	6.0	
73739	rental	'The Avenue'	$650 Per Week	2023-01-19T14:31:42.271013+11:00	2023-01-19T14:31:57.568985+11:00	111/77 Northbourne Avenue	TURNER	ACT	2612	149.1286636	-35.2753542	Apartment	440	LJ Hooker Canberra City	Selena Wang	2	2	2	0.0	
73741	rental	Make yourself at home	$450 Per Week	2023-01-19T14:37:07.104047+11:00	2023-01-19T15:46:32.400107+11:00	13/31 Disney Court	BELCONNEN	ACT	2617	149.0703449	-35.2442036	Apartment	410	MARQ Property	Kayla Adele	2	1	1		
73743	rental	Great Family Home 	$540 per week	2023-01-19T14:48:37.764607+11:00	2023-01-25T17:16:31.058859+11:00	3/11 Charlton Crescent	GORDON	ACT	2906	149.0773963	-35.4597132	Townhouse	34	McIntyre Property	Ellie Brault	3	1	1		
73745	rental	Ideal Location in the Heart of Barton	$530 per week	2023-01-19T14:48:38.044626+11:00	2023-01-24T09:16:29.440743+11:00	73/32 Blackall Street	BARTON	ACT	2600	149.1368721	-35.3067487	House	34	McIntyre Property	Amanda Gordon	1	1	1		
73746	rental	Giralang- Easy Family Living	$700 per week	2023-01-19T15:06:16.287617+11:00	2023-01-25T16:16:31.621755+11:00	1 Nangle Place	GIRALANG	ACT	2617	149.1051983	-35.2099818	House	629	Badenoch Real Estate	Paul Hunter	4	2	2		0.0
73749	rental	Right where you want to be!! 	$440 Per Week	2023-01-19T15:16:57.860669+11:00	2023-01-19T15:17:06.168326+11:00	13a/17 Chandler Street	BELCONNEN	ACT	2617	149.0702329	-35.2369297	Unit	437	LJ Hooker Belconnen	Leasing Team	1	1	1		
73750	rental	Close to it ALL	$620 Per Week	2023-01-19T15:21:11.065674+11:00	2023-01-25T15:01:40.154516+11:00	35/17 Wimmera Street	HARRISON	ACT	2914	149.1508473	-35.1988271	Townhouse	410	MARQ Property	Kayla Adele	3	1	2		
73758	rental	Welcome To Woodberry	$899 Per Week	2023-01-19T16:24:36.389317+11:00	2023-01-25T13:01:40.739925+11:00	86/2 Woodberry Avenue	COOMBS	ACT	2611	149.0467449	-35.32451229999999	Townhouse	440	LJ Hooker Canberra City	Lagan Puri	4	2	2		
73765	rental	Wonderful Family Living	$560 per week	2023-01-19T16:59:46.824126+11:00	2023-02-02T11:16:55.868307+11:00	6/4 Cavenagh Place	MCKELLAR	ACT	2617	149.0742467	-35.2166316	Townhouse	433	Maloney's Property	Ned Hibbert	3	1	2		
73768	rental	Huge Property in Great Location	$850 per week	2023-01-19T17:37:58.669825+11:00	2023-01-19T18:01:40.604270+11:00	31 Jacka Cres	CAMPBELL	ACT	2612	149.1519307	-35.2876541	House	433	Maloney's Property	Ned Hibbert	4	2	1		
73769	rental	Walk to the Lake, Great Location	$900 per week	2023-01-19T17:52:50.352159+11:00	2023-01-19T18:31:37.073169+11:00	39 Bailey Pl	YARRALUMLA	ACT	2600	149.0967191	-35.3003353	House	433	Maloney's Property	Ned Hibbert	3	2	1		
73770	rental	Brand new, executive style living	$920pw	2023-01-19T18:15:46.080117+11:00	2023-01-23T11:02:00.237352+11:00	87a Kalgoorlie Crescent	FISHER	ACT	2611	149.0549654	-35.3613943	House	438	LJ Hooker Woden/Weston	Sarah Miller	4	2	2	7.0	
73771	rental	Renovated Three Bedroom Property in Great Location	$610 per week	2023-01-19T18:15:27.299848+11:00	2023-01-23T11:17:07.129340+11:00	39 Nangor St	WARAMANGA	ACT	2611	149.0625892	-35.3579206	House	433	Maloney's Property	Ned Hibbert	3	1	1		
73785	rental	One Bedroom Apartment	$485 per week	2023-01-20T10:01:29.774178+11:00	2023-01-20T10:01:43.407568+11:00	50/566 Cotter Road	WRIGHT	ACT	2611	149.0430114	-35.3250493	Apartment	233	LJ Hooker Gungahlin	LJ Hooker Gungahlin	1	1	1		
73792	rental	Perfect for YOU	$580 Per Week	2023-01-20T11:01:29.085976+11:00	2023-01-20T11:01:40.229694+11:00	74/46 Kings Canyon Street	HARRISON	ACT	2914	149.1492935	-35.2052945	Townhouse	410	MARQ Property	Kayla Adele	2	2	2		
73793	rental	Large Modern Casey home with solar	$1,000 per week	2023-01-20T10:47:17.648823+11:00	2023-01-25T12:02:06.243904+11:00	17 Keith Waller Rise	CASEY	ACT	2913	149.0971353	-35.1595817	House	232	Ray White Canberra	Rasheed Al Soufi	4	2	4		
73794	rental	Four Bedroom ensuite Higgins Home	$700 per week	2023-01-20T10:57:10.587698+11:00	2023-01-23T11:47:04.431050+11:00	55 O'Sullivan Street	HIGGINS	ACT	2615	149.0273581	-35.2398586	House	232	Ray White Canberra	Hope Ashley	4	2	4		
73796	rental	Fantastic apartment in central location	$430 per week	2023-01-20T11:00:08.227448+11:00	2023-01-23T15:16:43.336784+11:00	15/60 Port Jackson Circuit	PHILLIP	ACT	2606	149.093067	-35.347083	House	232	Ray White Canberra	Rasheed Al Soufi	2	1	1		
73797	rental	One bedroom Bruce Unit	$460 per week	2023-01-20T11:07:19.466532+11:00	2023-01-25T12:02:13.762096+11:00	65/15 Braybrooke Street	BRUCE	ACT	2617	149.0991929	-35.2443503	House	232	Ray White Canberra	Bree Bradley	1	1	1		
73803	rental	Bedsitter close to City Centre & ANU	$300 per week	2023-01-20T12:56:08.333692+11:00	2023-01-23T14:16:53.701492+11:00	17A Jarrah Street	O'CONNOR	ACT	2602	149.1240947	-35.255842	Unit	232	Ray White Canberra	Shona Curtis	1	1	0		
73804	rental	PERFECT FAMILY HOME, JUST RIGHT FOR THE ENTERTAINER!	$620 per week	2023-01-20T12:52:18.354780+11:00	2023-01-25T12:02:13.826874+11:00	52 Traeger Street	DUNLOP	ACT	2615	149.0255207	-35.1935176	House	232	Ray White Canberra	Lauren Everett	3	2	2		
73810	rental	Neat and Tidy Townhouse in Page	$580 per week	2023-01-20T13:37:21.261943+11:00	2023-01-24T14:16:35.870088+11:00	32 Dallachy Place	PAGE	ACT	2614	149.0513953	-35.2397827	Townhouse	433	Maloney's Property	Ned Hibbert	2	1	1		
73813	rental	FANTASTIC TOWNHOUSE IN A GREAT SPOT!	$510 pw	2023-01-20T14:06:36.140129+11:00	2023-01-25T12:46:34.484395+11:00	16/36 John Holt Street	MACGREGOR	ACT	2615	149.0045943	-35.2063983	Townhouse	411	Luton Kippax	Emma Flenley	2	1	1	0.0	
73824	rental	family.friendly.cook	$650.00 pw	2023-01-20T15:42:20.204923+11:00	2023-01-21T09:16:30.064752+11:00	1 Biffin Street	COOK	ACT	2614	149.060885	-35.2562226	House	618	home.by holly	Jamye Dudok	3	1	2		
73825	rental	Absolute Top Floor Waterfront 2 bedroom, Great Natural Light	$850 pw	2023-01-20T15:49:48.345428+11:00	2023-01-25T11:16:27.496623+11:00	19/25 Eastlake Parade	KINGSTON	ACT	2604	149.145824	-35.3116241	Apartment	626	Berkely Residential	The Asset Manager	2	2	2		
73829	rental	Spacious Four Bedroom Family Home	$700 Per Week	2023-01-20T16:31:50.838672+11:00	2023-01-20T16:32:06.182335+11:00	77 Marchant Circuit	DUNLOP	ACT	2615	149.0235264	-35.1893221	House	437	LJ Hooker Belconnen	Leasing Team	4	2	2		
73832	rental	Fully Furnished Two Bedroom Unit	$600 per week	2023-01-20T17:01:29.661445+11:00	2023-01-20T17:01:36.885406+11:00	6/11 Crest Road	CRESTWOOD	NSW	2620	149.2204239	-35.3429216	Other	2300	VERV Property	Charlie Evans	2	1	1		
73836	rental	Walking Distance to the City!	$630 per week	2023-01-20T17:13:20.035232+11:00	2023-01-23T12:31:37.605513+11:00	2/38 Mort Street	BRADDON	ACT	2612	149.1318723	-35.2729677	Apartment	34	McIntyre Property	Amanda Gordon	2	1	1		
73846	rental	Family home	$690 - $720	2023-01-20T18:51:53.908216+11:00	2023-01-25T16:16:43.728675+11:00	22 Cantor Crescent	HIGGINS	ACT	2615	149.0290164	-35.2315923	House	441	LJ Hooker Kippax	Jodie Cross	4	1	1	1.0	
73849	rental	Spacious 2 Bedroom Unit	$520 per week	2023-01-21T13:00:19.397163+11:00	2023-01-21T20:15:52.073792+11:00	2/32 Gatton Street	FARRER	ACT	2607	149.1026735	-35.3747194	Unit	2207	Zango Private Listers	Ned Lawson	2	1	1	0.0	2228.0
73858	rental	CHARACTER AND CHARM IN DEAKIN	$680 per week	2023-01-22T22:11:36.596959+11:00	2023-01-27T15:16:30.132064+11:00	76 Jervois Street	DEAKIN	ACT	2600	149.1074242	-35.3172949	House	412	Luton Manuka	Kim Paxton	3	1	2		
73867	rental	Elevated and a delight to inspect	$850-$880 pw	2023-01-23T10:29:10.437229+11:00	2023-01-25T15:46:40.671186+11:00	9 Fitzalan Street	KAMBAH	ACT	2902	149.0800114	-35.3854803	House	513	My Morris	Abbey Morris	4	2	2	0.5	718.0
73868	rental	Modern one bedroom apartment in Convenient Location!	$440-$460	2023-01-23T10:31:40.805718+11:00	2023-01-23T10:31:50.963118+11:00	12/55 Jumbuck Crescent	LAWSON	ACT	2617	149.087086	-35.226862	Apartment	439	LJ Hooker Kaleen	Janelle Walker	1	1	1		
73870	rental	Fabulous Family Home	$850 per week	2023-01-23T10:49:49.152884+11:00	2023-01-27T14:16:47.175254+11:00	72 Kalianna Street	HARRISON	ACT	2914	149.1558032	-35.1866722	House	233	LJ Hooker Gungahlin	LJ Hooker Gungahlin	4	2	2	4.0	480.0
73878	rental	Heart Of Belconnen	$560 Per Week	2023-01-23T11:45:28.205269+11:00	2023-01-27T10:16:39.755607+11:00	246/84 Chandler Street	BELCONNEN	ACT	2617	149.0712025	-35.2427981	Apartment	440	LJ Hooker Canberra City	Tara Munro	2	1	1		
73879	rental	Modern Lifestyle & Perfect Location	$540 p/ w	2023-01-23T11:48:37.122843+11:00	2023-01-25T15:31:59.954476+11:00	5/530 Cotter Road	COOMBS	ACT	2611	149.0469222	-35.3256614	Apartment	436	LJ Hooker Dickson	Kirsty Middlebrook	2	2	1		
73885	rental	FOUR BEDROOM TOWNHOUSE	$680 pw	2023-01-23T12:29:50.009114+11:00	2023-01-25T12:46:34.892154+11:00	30 Bernard Heinze Avenue	MONCRIEFF	ACT	2914	149.1165004	-35.1569405	Townhouse	409	Luton Gungahlin	Baljeet Kaur	4	2	2	6.0	
73889	rental	Picture Perfect	$540 Per Week	2023-01-23T12:39:40.703269+11:00	2023-01-27T11:16:43.786922+11:00	11/3 Towns Crescent	TURNER	ACT	2612	149.1298695	-35.2638661	Apartment	440	LJ Hooker Canberra City	Brian Wang	1	1	1	0.0	
73890	rental	Brand New 4 bedroom home 	$690 per week	2023-01-23T12:34:17.710974+11:00	2023-01-27T12:31:54.915585+11:00	13 Chris Walton Way	STRATHNAIRN	ACT	2615	148.9932961	-35.2243088	House	232	Ray White Canberra	Helen West	4	2	2		422.93
73891	rental	Neat and Tidy Two Bedroom Townhouse	$530 per week	2023-01-23T13:30:45.599537+11:00	2023-01-27T09:46:36.874443+11:00	40/50 Embling St	WANNIASSA	ACT	2903	149.094907	-35.4000835	Townhouse	433	Maloney's Property	Ned Hibbert	2	1	1		
73893	rental	Convenience Plus in Lakeview Terrace	$440 Per Week	2023-01-23T14:01:52.296168+11:00	2023-01-23T14:02:04.228926+11:00	17/2 Ranken Place	BELCONNEN	ACT	2617	149.0604502	-35.2356955	Apartment	437	LJ Hooker Belconnen	Leasing Team	1	1	1		
73894	rental	One Bedroom Apartment in Southport	$440 per week 	2023-01-23T14:08:42.641060+11:00	2023-01-30T14:46:29.762934+11:00	183/325 Anketell Street	GREENWAY	ACT	2900	149.0725965	-35.4215659	Apartment	413	Luton Tuggeranong	Caroline Phengrasmy	1	1	1		
73898	rental	Lovely Renovated Townhouse	$600 per week	2023-01-23T15:00:40.242403+11:00	2023-01-25T15:46:34.492530+11:00	 1/46 Paul Coe Crescent	NGUNNAWAL	ACT	2913	149.1188049	-35.1785507	Townhouse	629	Badenoch Real Estate	Paul Hunter	3	2	1		0.0
73900	rental	2 Bedroom Ensuite Apartment in New Acton! 	$820 per week	2023-01-23T15:25:24.985974+11:00	2023-01-25T12:46:32.346184+11:00	1207/19 Marcus Clarke Street	CITY	ACT	2601	149.1249008	-35.2851638	Apartment	412	Luton Manuka	Kim Paxton	2	2	2	5.0	
73906	rental	LOCATION IS EVERYTHING	$410 per week	2023-01-23T16:09:36.761711+11:00	2023-01-27T14:16:30.747895+11:00	6/47 Hampton Circuit	YARRALUMLA	ACT	2600	149.1098936	-35.311076	Unit	413	Luton Tuggeranong	Caroline Phengrasmy	1	1	1		
73907	rental	Convenient Dickson Location	$380 p/w	2023-01-23T16:05:30.970200+11:00	2023-01-23T16:31:44.595602+11:00	14A Morphett Street	DICKSON	ACT	2602	149.1343563	-35.2539202	DuplexSemi-detached	435	LJ Hooker Tuggeranong	Chloe Walsh	1	1	1		
73914	rental	Perfect Family Home	$550 per week	2023-01-23T17:02:10.389207+11:00	2023-01-23T17:02:20.645912+11:00	54 Wiburd Street	BANKS	ACT	2906	149.0988669	-35.4696808	House	232	Ray White Canberra	Matthew McClellan	3	1	2		
73915	rental	New-York Style Apartment - Fully Furnished 	$750 per week	2023-01-23T17:16:30.387570+11:00	2023-01-23T17:17:05.513925+11:00	236/26 Anzac Park	CAMPBELL	ACT	2612	149.1433176	-35.2881035	Apartment	1069	Crowthers	Emily Marchant	2	2	1	0.0	
73916	rental	Split Level Home With Stunning Views	$850 Per Week	2023-01-23T17:16:34.251443+11:00	2023-01-23T17:16:56.040536+11:00	37 Louisa Lawson Crescent	GILMORE	ACT	2905	149.1359648	-35.412359	House	440	LJ Hooker Canberra City	Jess Meyer	4	2	1	1.5	
73917	rental	Quiet family living	$570pw	2023-01-23T17:23:49.631387+11:00	2023-01-27T13:01:38.739605+11:00	16 Grounds Crescent	GREENWAY	ACT	2900	149.0683723	-35.4015822	Townhouse	438	LJ Hooker Woden/Weston	Sarah Miller	3	1	2		
73919	rental	Central Living One Bedroom Apartment 	$530 per week	2023-01-23T20:16:26.060935+11:00	2023-01-23T20:16:58.727892+11:00	20/50 Moore Street	TURNER	ACT	2612	0.0	0.0	Apartment	1069	Crowthers	Emily Marchant	1	1	1		
73926	rental	Neat and tidy 3 Bedroom Home	$580 per week	2023-01-24T10:16:44.197423+11:00	2023-01-24T10:16:57.822709+11:00	4 Nangi Place	NGUNNAWAL	ACT	2913	149.1081446	-35.1773972	House	233	LJ Hooker Gungahlin	LJ Hooker Gungahlin	3	1	2		
73935	rental	Modern 3 Bedroom Home	$650 - $670 pw	2023-01-24T13:15:08.537996+11:00	2023-01-30T14:46:28.918318+11:00	29b Desailly Crescent	KAMBAH	ACT	2902	149.0879654	-35.3843677	House	513	My Morris	Dakota Conrad	3	1	2		
73939	rental	delightful. braddon 	$720 per week	2023-01-24T13:46:35.930969+11:00	2023-01-24T14:46:31.255526+11:00	79 Lowanna Street	BRADDON	ACT	2612	149.1333711	-35.262659	Townhouse	618	home.by holly	Jackie Houghton	3	1	2	3.0	
73945	rental	DESIGNED TO IMPRESS	$750 pw	2023-01-24T14:53:41.858952+11:00	2023-01-25T13:16:30.578438+11:00	8 Pildappa Street	HARRISON	ACT	2914	149.1554442	-35.1921696	House	409	Luton Gungahlin	Baljeet Kaur	4	2	2		
73952	rental	Location, Location, Location	$440 Per Week	2023-01-24T15:31:38.591014+11:00	2023-01-24T15:32:01.803653+11:00	23/11 Wimmera Street	HARRISON	ACT	2914	0.0	0.0	Apartment	440	LJ Hooker Canberra City	Tara Munro	1	1	1		
73957	rental	Spacious 4 Bedroom Townhouse	$820 Per Week	2023-01-24T15:52:50.092703+11:00	2023-01-30T11:46:42.095667+11:00	12 Chanter Terrace	COOMBS	ACT	2611	149.0387296	-35.3148823	Townhouse	443	LJ Hooker Manuka	William Taylor	4	3	2		
73960	rental	Elegant Harrison Home	$680 per week	2023-01-24T16:06:17.676328+11:00	2023-01-25T16:01:33.367118+11:00	22 Cudgewa Lane	HARRISON	ACT	2914	149.1569716	-35.2012631	House	629	Badenoch Real Estate	Paul Hunter	3	2	2		0.0
73961	rental	Mode 3 in Braddon	$690 per week	2023-01-24T16:06:17.473425+11:00	2023-01-25T16:16:31.596578+11:00	 212/24 Lonsdale Street	BRADDON	ACT	2612	149.1332414	-35.2726992	Apartment	629	Badenoch Real Estate	Paul Hunter	2	2	2		0.0
73962	rental	Stunning One Bedroom with Study Nook	$470 per week	2023-01-24T16:43:18.280366+11:00	2023-02-03T16:31:38.539391+11:00	68/65 Ainslie Avenue	BRADDON	ACT	2612	149.1390779	-35.2776222	Apartment	433	Maloney's Property	Ned Hibbert	1	1	1		
73965	rental	Modern One Bedroom Apartment	$420 Per Week	2023-01-24T16:42:19.040050+11:00	2023-01-27T11:17:00.040474+11:00	2/15 Combo Court	HARRISON	ACT	2914	149.1527749	-35.2020507	Apartment	440	LJ Hooker Canberra City	Jess Meyer	1	1	0		
73968	rental	One Bedroom Fully Furnished In The City!!	$500 Per Week	2023-01-24T16:59:01.803334+11:00	2023-01-27T10:16:45.779669+11:00	521/74 Northbourne Avenue	BRADDON	ACT	2612	149.1305036	-35.2755207	Apartment	440	LJ Hooker Canberra City	Brian Wang	1	1	0	6.0	
73969	rental	One Bedroom In A Great Location!	$520 Per Week	2023-01-24T16:59:17.419799+11:00	2023-01-27T10:16:46.874855+11:00	109/24 Girrahween Street	BRADDON	ACT	2612	149.1341214	-35.270926	Apartment	440	LJ Hooker Canberra City	Brian Wang	1	1	1	7.5	
73972	rental	Spacious family home	$620pw	2023-01-24T17:54:31.256727+11:00	2023-01-27T13:16:34.860188+11:00	35 Eugenia Street	RIVETT	ACT	2611	149.0311228	-35.3447493	House	438	LJ Hooker Woden/Weston	Sarah Miller	3	1	1	0.0	709.3
73973	rental	One Bedroom Home 	$450 per week	2023-01-24T20:05:35.212979+11:00	2023-01-24T20:31:27.739937+11:00	306/34 Oakden Street	GREENWAY	ACT	2900	149.0735953	-35.42226369999999	Apartment	2615	Waratah Estate Agents	Rental Team	1	1	1		
73981	rental	Everything you need in a perfect location	$560 per week	2023-01-25T08:58:14.090606+11:00	2023-01-30T16:16:47.169946+11:00	25C/21 Beissel Street	BELCONNEN	ACT	2617	149.0651221	-35.2350205	House	232	Ray White Canberra	Bree Bradley	2	2	1		
73985	rental	GREAT FAMILY HOME - TOP LOCATION	$790 per week	2023-01-25T09:24:23.328899+11:00	2023-01-27T13:46:30.194144+11:00	43 Tiptree Crescent	PALMERSTON	ACT	2913	149.1181233	-35.1948032	House	273	Luton Dickson	Caroline Phengrasmy	4	2	4		
73992	rental	Great Location	$800 per week	2023-01-25T09:41:20.597938+11:00	2023-01-25T13:02:08.992302+11:00	9/3 Hay Street	O'CONNOR	ACT	2602	149.1261293	-35.2626206	House	232	Ray White Canberra	Christine Pfeiffer	3	2	2		
73994	rental	Nightfall | 2 Bedroom Ensuite Apartment	$630 per week	2023-01-25T09:47:09.471886+11:00	2023-01-25T09:47:27.540714+11:00	906/2 Grazier Lane	BELCONNEN	ACT	2617	0.0	0.0	Apartment	232	Ray White Canberra	Matthew Dowler	2	2	2	5.0	
73999	rental	A Great 3 Bedroom Home In A Great Location	$680 / Wk	2023-01-25T10:28:59.676568+11:00	2023-01-30T12:16:37.338940+11:00	1 Woolcock Street	WATSON	ACT	2602	149.1502709	-35.2354126	House	436	LJ Hooker Dickson	Abbie Thomas	3	1	1	0.0	7.0
74002	rental	Executive 4 Bedroom home in prestigious Harcourt Hill	$800 Per Week	2023-01-25T10:52:08.072877+11:00	2023-01-30T10:31:49.810715+11:00	5 Fitzsimmons Street	NICHOLLS	ACT	2913	149.0878896	-35.1820404	House	437	LJ Hooker Belconnen	Leasing Team	4	3	3		
74008	rental	North Facing Top Floor Apartment with Views	$510 per week	2023-01-25T11:45:18.329975+11:00	2023-01-25T12:01:53.632906+11:00	42/41 Clare Burton Crescent	FRANKLIN	ACT	2913	0.0	0.0	Unit	233	LJ Hooker Gungahlin	LJ Hooker Gungahlin	2	1	1		
74009	rental	bathurst.beauty	$720 per week	2023-01-25T12:01:30.275506+11:00	2023-01-25T12:01:51.310128+11:00	22 Bathurst Place	MACQUARIE	ACT	2614	0.0	0.0	House	618	home.by holly	Jamye Dudok	3	2	2	1.0	
74010	rental	Large 4 Bedroom Home Close To Casey Market Town	$800 per week	2023-01-25T12:16:36.815740+11:00	2023-01-25T12:17:29.723362+11:00	14 Walter Crocker Crescent	CASEY	ACT	2913	149.0925839	-35.173595	House	233	LJ Hooker Gungahlin	LJ Hooker Gungahlin	4	2	2	4.0	486.0
74011	rental	Stylish Four Bedroom Home	$750 / Wk	2023-01-25T12:06:47.364064+11:00	2023-01-25T15:31:56.299013+11:00	59 Hesba Brinsmead Street	FRANKLIN	ACT	2913	149.1486431	-35.1963545	House	436	LJ Hooker Dickson	Abbie Thomas	4	2	2	0.0	
74015	rental	Perfectly Presented Tri-Level Townhouse	$670	2023-01-25T12:17:35.707783+11:00	2023-01-30T13:31:35.206351+11:00	15/40 Freebury Street	DENMAN PROSPECT	ACT	2611	149.0216897	-35.3011498	Townhouse	1818	Knight Property Solutions	Samantha Gibbs	2	2	2		
74017	rental	NIFTY NGUNNAWAL-TWO BATHROOM - DOUBLE GARAGE - PET FRIENDLY	$630 per week	2023-01-25T12:53:24.969791+11:00	2023-01-27T11:31:32.988538+11:00	16 Marika Street	NGUNNAWAL	ACT	2913	149.1105972	-35.1651167	House	1784	Sadil Quinlan	Kay Stares	3	2	2		
74019	rental	in. your. element	$530 per week	2023-01-25T12:52:28.511279+11:00	2023-01-25T15:16:31.054304+11:00	103/45 Eastlake Parade	KINGSTON	ACT	2604	149.1471622	-35.3139653	Apartment	618	home.by holly	Jackie Houghton	1	1	1	6.0	
74022	rental	New Opportunity now available	$680 Per Week	2023-01-25T13:20:17.243748+11:00	2023-01-27T11:16:55.030144+11:00	6/217 Northbourne Avenue	TURNER	ACT	2612	149.1313687	-35.2620732	Apartment	440	LJ Hooker Canberra City	Jess Meyer	2	2	1		
74024	rental	Location Location Location	$570/week	2023-01-25T13:35:48.414597+11:00	2023-01-30T14:16:43.268382+11:00	25/41 Blackall Street	BARTON	ACT	2600	149.1374041	-35.3064279	Apartment	441	LJ Hooker Kippax	Jodie Cross	1	1	1		
74029	rental	handy in hackett	$800 per week	2023-01-25T14:08:18.658323+11:00	2023-01-25T14:46:36.509592+11:00	73 Rivett Street	HACKETT	ACT	2602	149.1664812	-35.2440124	House	618	home.by holly	Tamara Davis	4	2	2	5.0	
74030	rental	Beautifully maintained in a fantastic location	$630 - $650 pw	2023-01-25T14:11:11.365138+11:00	2023-01-30T14:31:31.462793+11:00	37/1 Arthur Blakeley Way	COOMBS	ACT	2611	149.0393699	-35.3161305	Townhouse	513	My Morris	Dakota Conrad	3	2	2		
74031	rental	UPDATED - TOP LOCATION!	$450 per week	2023-01-25T14:21:37.073059+11:00	2023-01-30T14:46:29.382336+11:00	11C/6 Irvine Street	WATSON	ACT	2602	149.1560499	-35.239154	Unit	273	Luton Dickson	Caroline Phengrasmy	1	1	0		
74033	rental	This home needs a new family	$800 Per Week	2023-01-25T14:43:08.145894+11:00	2023-01-25T15:01:33.696891+11:00	43 Bruce Dittmar Street	FORDE	ACT	2914	149.1454912	-35.1770375	House	410	MARQ Property	Kayla Adele	4	2	2		
74036	rental	Spacious Family living in Flynn	$600 per week	2023-01-25T15:00:29.932242+11:00	2023-01-31T10:31:31.664175+11:00	29 Vogelsang Place	FLYNN	ACT	2615	149.0394729	-35.2113318	House	629	Badenoch Real Estate	Paul Hunter	4	1	1		0.0
74038	rental	Start the next generation of happy memories	$825 Per Week	2023-01-25T14:54:10.667924+11:00	2023-01-30T14:46:31.700701+11:00	1 Swinney Street	CASEY	ACT	2913	149.097375	-35.1623951	House	410	MARQ Property	Kayla Adele	4	2	2		
74041	rental	4 bedroom home available now!	$820 P/wk	2023-01-25T15:01:45.490071+11:00	2023-02-01T14:32:08.164965+11:00	203 Phillip Avenue	HACKETT	ACT	2602	149.1570151	-35.2510826	House	436	LJ Hooker Dickson	Judy Arnott	4	1	1	1.0	694.0
74045	rental	ABSOLUTE MASTERPIECE	$940 pw	2023-01-25T15:16:40.383764+11:00	2023-02-01T12:01:35.503048+11:00	4 Brushtail Street	THROSBY	ACT	2914	149.1607277	-35.1831883	House	409	Luton Gungahlin	Baljeet Kaur	4	3	2	0.0	
74048	rental	Neat and tidy, three bedroom townhouse 	$580 per week	2023-01-25T15:16:19.498249+11:00	2023-01-27T10:46:37.497987+11:00	5/7 Nernst Place	BANKS	ACT	2906	149.0949311	-35.4660264	Townhouse	684	McCann Properties	Amber Jarvis	3	1	1		
74060	rental	Location and Luxury at Black Diamond	$520 Per Week	2023-01-25T16:23:29.534312+11:00	2023-01-30T14:01:47.997726+11:00	210/26 Cynthea Teague Crescent	GREENWAY	ACT	2900	149.0740137	-35.4226588	Apartment	440	LJ Hooker Canberra City	Jess Meyer	1	2	1		
74062	rental	Location, Location	$480 per week	2023-01-25T16:46:29.014629+11:00	2023-01-25T16:46:43.250867+11:00	2/6 Chermside Street	DEAKIN	ACT	2600	149.1077792	-35.315985	Apartment	433	Maloney's Property	Eastside Team	2	1	1		
