id	type	DescriptionTitle	PriceLabel	ListingDate	ReListingDate	Address	Suburb	State	PostCode	Property.lat	Property.lon	PropertyType	Agency.Id	Agency.Type	Agency.Name	Agent.Name	Beds	Baths	Cars	EER	PlotSize	Features
181484621	RENTAL_RESIDENTIAL	Stylish Studio Apartment on Kingston Foreshore with Dedicated Car Space - Live Your Best Life in Canberra!	$475 per week	2023-04-01 10:09:42		209/50 Eastlake Parade	Kingston	ACT	2604	-35.3137159969998	149.146409043809	APARTMENT	692953	Agent	Lease and etc	Steven Han	1	1	1	6.0		['AIR_CONDITIONING', 'AIR_CONDITIONING_OTHER', 'ALLOCATED_CAR_SPACE', 'BODY_CORPORATE', 'BROADBAND', 'DISHWASHER', 'INTERCOM', 'SHOWER']
181502651	RENTAL_RESIDENTIAL	Luxury - Stunning Views	$570 per week	2023-04-01 10:20:20		72/7 State Circle	Forrest	ACT	2603	-35.3130453740017	149.126103501651	APARTMENT	709273	Agent	Carter and Co Agents	Charissa Turbin	1	1	1			['AIR_CONDITIONING', 'AIR_CONDITIONING_OTHER', 'BROADBAND', 'DISHWASHER', 'INTERCOM']
181502661	RENTAL_RESIDENTIAL	Quality home in sought after location	$750 Per Week	2023-04-01 12:10:35		33 Volpato Street	Forde	ACT	2914	-35.1606063467735	149.149614302169	TOWNHOUSE	928773	Agent	Richmond Properties Canberra	Mary Richmond	4	2	2			[]
181502966	RENTAL_RESIDENTIAL	Spacious 4 bedroom family home in Bonner!	$800 per week	2023-04-01 13:25:59		28 Don Bell Street	Bonner	ACT	2914	-35.1544397	149.1403095	HOUSE	1013403	PrivateLister	Private Lister		4	2	2	7.0		['AIR_CONDITIONING', 'AIR_CONDITIONING_OTHER', 'ENCLOSED_BACKYARD', 'HEATING_REVERSE_CYCLE', 'SEPARATE_TOILET', 'STUDY']
181499649	RENTAL_RESIDENTIAL	Fully Furnished, North-East facing 2 Bed Apartment with Stunning Views!	$900 - $950 per week	2023-04-01 15:15:35		132/20 Allara Street	City	ACT	2601	-35.2825496599951	149.133347003926	APARTMENT	597339	Agent	Dovers & Co Property Services PTY LTD	Stuart Dovers	2	2	2	6		['AIR_CONDITIONING_REVERSE_CYCLE', 'ALLOCATED_CAR_SPACE', 'BODY_CORPORATE', 'DISHWASHER', 'DOUBLE_GLAZED_WINDOWS', 'FULLY_FURNISHED', 'HOPPER', 'INTERCOM', 'NETWORK_CABLING', 'NEW_CONSTRUCTION', 'SHOWER', 'SLAB_CONSTRUCTION', 'WALK_IN_ROBE']
181481039	RENTAL_RESIDENTIAL	'Aspire', Kingston Foreshores	$520 per week	2023-04-02 00:54:14		48/71 Giles Street	Kingston	ACT	2604	-35.3129704	149.1456506	UNIT	513929	PrivateLister	Private Lister		1	1	1			['ALLOCATED_CAR_SPACE']
181503004	RENTAL_RESIDENTIAL	Lovely sun filled apartment in great location looking over courtyard	$600 per week	2023-04-02 10:40:13		12/2/4 Verdon Street	O'Connor	ACT	2602	-35.2616233	149.1284961	UNIT	308515	Agent	One Agency Scott Crossman	Gina Crossman	2	2	2	5		[]
181503336	RENTAL_RESIDENTIAL	Beautiful Modern Townhouse on 8 LamiLami BONNER ACT 2914	$550 per week	2023-04-02 12:13:15		8 Lamilami Place	Bonner	ACT	2914	-35.1538911	149.1515873	TOWNHOUSE	316435	PrivateLister	Private Lister		2	1	3	6		['AIR_CONDITIONING', 'AIR_CONDITIONING_OTHER', 'DUCTED_VACCUM', 'ELECTRIC_HEATING', 'ENCLOSED_BACKYARD', 'FAMILY_ROOM', 'HEATING_REVERSE_CYCLE', 'PARTIALLY_FURNISHED', 'SEPARATE_TOILET']
