id	type	DescriptionTitle	PriceLabel	ListingDate	ReListingDate	Address	Suburb	State	PostCode	Property.lat	Property.lon	PropertyType	Agency.Id	Agency.Name	Agent.Name	Beds	Baths	Cars	EER	PlotSize
82682	residential	quietly.refined	$915,000+	2023-07-06T11:28:11.184037+10:00	2023-08-03T15:12:08.974052+10:00	14/3 Lowrie Street	DICKSON	ACT	2602	149.13464049999996	-35.2560916	Townhouse	618	home.by holly	Cris O'Brien	3	2	2	6.0	
82788	residential	Delight on De Little	$880,000	2023-07-07T14:59:39.701071+10:00	2023-08-02T09:27:58.296349+10:00	74 De Little Circuit	GREENWAY	ACT	2900	149.0732305	-35.40012360000002	Townhouse	413	Luton Tuggeranong	Kelsey Tracey	4	2	2	1.0	468.0
82828	residential	 A statement of style and distinction	Auction 05/08/2023	2023-07-10T11:38:14.997530+10:00	2023-07-10T14:16:35.783082+10:00	3 Berents Street	STRATHNAIRN	ACT	2615	148.9936607	-35.2261678	House	1190	Blackshaw Gungahlin	Thom Eriksson-Lake	4	2	2	6.0	448.0
82847	residential	LANDY READY TO BUILD!	$448,900	2023-07-10T15:03:08.838252+10:00	2023-07-27T16:12:10.449970+10:00	Lot: 683 Alpine Ash Way	TRALEE	NSW	2620	149.1689881	-35.4011593	Land	1958	Village	Vlada Piven	0	0	0	0.0	417.0
82855	residential	torrens.haven	Auction 9:30am Saturday 29 July	2023-07-10T16:27:24.566937+10:00	2023-07-17T14:01:40.185931+10:00	11/63a Torrens Street	BRADDON	ACT	2612	149.1347292	-35.2680302	Apartment	618	home.by holly	Holly Komorowski	2	2	1	6.0	
82872	residential	North facing overlooking reserve!	Auction	2023-07-11T09:21:05.146435+10:00	2023-07-14T11:46:47.287788+10:00	46/11 Stockman Avenue	LAWSON	ACT	2617	149.0946322	-35.228318	Apartment	436	LJ Hooker Dickson	Andrew Grenfell	2	2	2	6.0	
82876	residential	Amazing opportunity for first home buyers, downsizer & investors!	Auction	2023-07-11T09:58:19.825746+10:00	2023-07-12T16:46:35.207306+10:00	1310/3 Grazier Lane	BELCONNEN	ACT	2617	149.0716065	-35.2409569	Apartment	437	LJ Hooker Belconnen	Happy Singh	1	1	1	6.0	
82879	residential	Ready and waiting for you!	Auction	2023-07-11T09:55:12.274289+10:00	2023-07-12T10:16:52.627017+10:00	20 Gubbity Street	NGUNNAWAL	ACT	2913	149.1028974	-35.1611902	House	437	LJ Hooker Belconnen	Happy Singh	3	1	0	6.0	240.0
82884	residential	Ground floor Unit	$250,000- $255,000	2023-07-11T11:31:12.211942+10:00	2023-07-12T11:46:48.233695+10:00	20/30 River Street	OAKS ESTATE	ACT	2620	149.2284192	-35.339488	Unit	623	Ray White Queanbeyan | Jerrabomberra	Brad O'Mara	1	1	1	4.0	
82885	residential	"""Treetops"""	In Room AUCTION	2023-07-11T11:20:21.688136+10:00	2023-07-15T18:46:38.581621+10:00	47 Antill Street	QUEANBEYAN	NSW	2620	149.2356641	-35.3481162	House	623	Ray White Queanbeyan | Jerrabomberra	Brad O'Mara	4	1	1		845.0
82886	residential	Perfect Investment or first home purchase in great location!	Offers over $435,000	2023-07-11T11:38:01.298407+10:00	2023-07-17T11:46:36.281861+10:00	10/11-13 Majura Avenue	DICKSON	ACT	2602	149.1362896	-35.2595567	Apartment	412	Luton Manuka	Kate Yates	1	1	1	6.0	
82887	residential	First Class Location & Lifestyle BED 3 BATH 2 CAR 2 $600,000-$650,000 	$600,000-$650,000	2023-07-11T11:59:13.417764+10:00	2023-07-13T11:31:34.759090+10:00	2/12 Waniassa Street	QUEANBEYAN	NSW	2620	149.2400543	-35.3497192	Apartment	2581	The Property Collective	Jason Maxwell	3	2	2		
82894	residential	Gorgeous 2 bedroom in the heart of Gungahlin!	$429,000+	2023-07-11T12:46:54.807878+10:00	2023-07-11T12:47:03.789700+10:00	1303/6 gribble street	GUNGAHLIN	ACT	2912	149.1311572	-35.1818137	House	3968	4 Leaf Properties	Subhan Asif	2	1	1	6.0	
82907	residential	2 Bedrooms to walk to from town centre	$539,000 +	2023-07-11T14:17:19.919072+10:00	2023-07-16T07:46:32.191624+10:00	17/1 Drew Street	GREENWAY	ACT	2900	149.0649427	-35.4129557	Apartment	440	LJ Hooker Canberra City	Tahmeed Towfiq	2	2	2	6.0	
82910	residential	Unrivalled luxury! 	Auction	2023-07-11T14:34:04.837090+10:00	2023-07-16T20:01:33.427371+10:00	4 Nell Edeson Street	TAYLOR	ACT	2913	149.1128695	-35.142628	House	4736	Altair Property	Rahul Mehta	4	3	2	7.0	628.0
82916	residential	Magnificent 4 Bedroom House with Stunning Views in Gordon, ACT	Auction	2023-07-11T15:24:36.109273+10:00	2023-07-11T16:01:42.333046+10:00	6 Van Praag Place	GORDON	ACT	2906	149.0785496	-35.4625448	House	413	Luton Tuggeranong	Ben Holder	4	2	2	4.0	785.0
82921	residential	Luxury Low-Maintenance Lyneham Living!	Auction	2023-07-11T16:22:39.417733+10:00	2023-07-16T13:16:36.429572+10:00	33/193 Mouat Street	LYNEHAM	ACT	2602	149.1265577	-35.2447216	Apartment	436	LJ Hooker Dickson	Andrew Browne	2	2	2	6.0	
82923	residential	A Fresh, Feel-Good Home With RZ2 Zoning	Auction 5/08/23	2023-07-11T16:55:42.261615+10:00	2023-07-17T15:31:31.700657+10:00	23 Leggatt Street	WANNIASSA	ACT	2903	149.0843783	-35.3933951	House	3720	Ward Estate Agents	Greg Ward	3	1	2	1.5	946.0
82924	residential	Make yourself at home.	$989,000+	2023-07-11T16:52:03.300925+10:00	2023-07-17T15:31:32.433162+10:00	33 Mummery Terrace	MONCRIEFF	ACT	2914	149.1169797	-35.1637138	House	410	MARQ Property	Craig Chapman	4	2	2	5.0	461.0
82929	residential	Your dreams are just a glimpse away!	Auction onsite	2023-07-12T09:11:12.737835+10:00	2023-07-12T13:16:42.147423+10:00	24 Endeavour Street	RED HILL	ACT	2603	149.1303904	-35.3439457	House	410	MARQ Property	Luke McAuliffe	6	4	4	4.5	714.0
82935	residential	An entertainers delight! 	Auction onsite	2023-07-12T09:55:02.184159+10:00	2023-07-18T14:16:39.348830+10:00	1/42 Adder Street	HARRISON	ACT	2914	149.1630177	-35.2023448	Townhouse	410	MARQ Property	Luke McAuliffe	5	3	2	4.5	434.0
82937	residential	Soho Much Value!	$425,000+	2023-07-12T10:11:07.272393+10:00	2023-07-17T09:31:57.217318+10:00	34/10 Burke Crescent	KINGSTON	ACT	2604	149.1462173	-35.3205538	Apartment	436	LJ Hooker Dickson	Stephen Bunday	1	1	1	6.0	
82941	residential	Modern two storey residence	AUCTION	2023-07-12T10:46:20.233969+10:00	2023-07-17T08:46:43.934418+10:00	7 Sliprail Street	LAWSON	ACT	2617	149.0928529	-35.2297008	House	232	Ray White Canberra	Sebastian Gutierrez	3	2	1	5.5	249.0
82943	residential	Move right in.	In Room Auction 02/08/23	2023-07-12T11:27:18.025033+10:00	2023-07-17T13:46:57.515155+10:00	2/11 Adams Street	QUEANBEYAN WEST	NSW	2620	149.2190572	-35.3585558	Townhouse	623	Ray White Queanbeyan | Jerrabomberra	Brad O'Mara	3	2	2		
82948	residential	Discover the Perfect Opportunity at a Prime Location!	AUCTION	2023-07-12T12:29:35.041023+10:00	2023-07-18T12:16:53.772882+10:00	10 Tardent Street	DOWNER	ACT	2602	149.1438363	-35.2412235	House	34	McIntyre Property	Colin McIntyre	3	1	1	0.5	716.0
82956	residential	Meticulous family home in within walking distance of Monash Primary	$975,000+	2023-07-12T14:09:04.108140+10:00	2023-07-17T10:31:39.940585+10:00	10 Fernie Place	MONASH	ACT	2904	149.0882793	-35.4129497	House	513	My Morris	Tahlia Morris	5	2	2	3.0	671.0
82959	residential	Luxury Living with Exceptional Views!	Auction 12/8/2023	2023-07-12T14:19:36.718698+10:00	2023-07-14T15:31:35.718434+10:00	11 Jacaranda Drive	JERRABOMBERRA	NSW	2619	149.2039804	-35.3932268	House	624	Ian McNamee & Partners - Queanbeyan	Lucy MacGregor	5	3	2		1189.0
82962	residential	Livin Aviva Loca	$320,000+	2023-07-12T14:33:08.683859+10:00	2023-07-18T15:16:32.689785+10:00	58/40 Swain Street	GUNGAHLIN	ACT	2912	149.1364908	-35.1812195	Apartment	233	LJ Hooker Gungahlin	Bri Williams	1	1	1	6.0	2769.0
82968	residential	Quiet location	Auction	2023-07-12T16:11:41.520717+10:00	2023-07-13T16:01:43.468041+10:00	4 Sinnett Place	MCKELLAR	ACT	2617	149.0733108	-35.2193949	House	411	Luton Kippax	Ben Oostermeyer	3	1	1	2.5	820.0
82977	residential	Opportunity Knocks!	Auction	2023-07-12T17:26:09.172386+10:00	2023-07-14T11:16:33.096697+10:00	2/44 Deamer Crescent	RICHARDSON	ACT	2905	149.1240046	-35.4319742	House	413	Luton Tuggeranong	Mina Etminan	3	1	2	3.5	
82981	residential	Spacious and peaceful	By Negotiation	2023-07-12T18:55:51.673482+10:00	2023-07-17T09:31:35.264038+10:00	57 Tazewell Circuit	NICHOLLS	ACT	2913	149.1033013	-35.1851276	House	409	Luton Gungahlin	Annelies Bindley	3	2	2	3.0	715.0
82983	residential	Two story villa with water views	Auction	2023-07-13T05:43:28.920146+10:00	2023-07-14T11:46:24.122220+10:00	24A Edgeworth Parade	COOMBS	ACT	2611	149.0367204	-35.3150203	Townhouse	414	Luton Weston Creek & Molonglo Valley	Josh Wilson	3	2	2	6.0	
82985	residential	the.grove	$690,000+	2023-07-13T08:15:22.376543+10:00	2023-07-16T20:31:41.646472+10:00	43 Wybalena Grove	COOK	ACT	2614	149.0726377	-35.2642415	Townhouse	618	home.by holly	Sally Strang	2	1	1	1.5	
82986	residential	private.retreat	$720,000+	2023-07-13T08:15:22.483075+10:00	2023-07-18T17:01:44.327062+10:00	31/11 McClintock Street	LYNEHAM	ACT	2602	149.1204022	-35.2407876	Townhouse	618	home.by holly	Ash Costello	2	1	1	3.0	
82987	residential	Perfect for the extended family - 7 Bedrooms + rumpus, 3 bathrooms - 753sqm block	$1,659,000+	2023-07-13T08:17:06.003962+10:00	2023-07-18T14:16:49.997686+10:00	15 Ebeling Court	NICHOLLS	ACT	2913	149.1009021	-35.1845875	House	410	MARQ Property	Justin Taylor	7	3	2	4.0	753.0
82988	residential	Spectacular setting and lifestyle!	Auction 12:00pm Saturday 5 August	2023-07-13T08:27:59.157133+10:00	2023-07-16T13:01:32.931033+10:00	12 Phyllis Frost Street	FORDE	ACT	2914	149.1499486	-35.1697645	House	618	home.by holly	Rick and Tina Meir	4	2	2	5.0	588.0
82989	residential	Stylish 2 bedroom apartment - Secure building and garage	$875,000+	2023-07-13T08:27:59.017115+10:00	2023-07-14T13:16:41.973225+10:00	23/11-15 Kerridge Street	KINGSTON	ACT	2604	149.1498695	-35.3134145	Apartment	618	home.by holly	Ash Costello	2	2	2	6.0	
82990	residential	This is the one	Auction 05/08/23	2023-07-13T08:43:13.531649+10:00	2023-07-17T16:01:55.761248+10:00	5 Koerstz Street	DUNLOP	ACT	2615	149.0185072	-35.190078	House	232	Ray White Canberra	Jake Battenally	4	2	3	6.0	712.0
82991	residential	Modern and spacious single-level unit with golf course views	$470,000+	2023-07-13T08:35:37.374908+10:00	2023-07-14T10:31:34.480352+10:00	47/46 Paul Coe Crescent	NGUNNAWAL	ACT	2913	149.1187512	-35.1783551	Unit	630	Agent Team Belconnen	Steve Lowe	2	1	2	6.0	0.0
82993	residential	sitting.pretty	Auction 10:45am Saturday 29 July	2023-07-13T08:48:21.897706+10:00	2023-07-17T14:01:47.498514+10:00	3/30 Ijong Street	BRADDON	ACT	2612	149.134001	-35.2671097	Townhouse	618	home.by holly	Holly Komorowski	1	1	1	5.0	
82995	residential	The inner north lifestyle awaits	$549,000+	2023-07-13T09:13:50.232266+10:00	2023-07-13T14:01:52.841932+10:00	4/217 Northbourne Avenue	TURNER	ACT	2612	149.1314185	-35.2619921	Unit	409	Luton Gungahlin	Peter White	2	1	2	6.0	
82996	land	Craft your perfect home in Taylor 	Auction	2023-07-13T09:13:50.374514+10:00	2023-07-13T09:31:42.593498+10:00	3 Iwanoff Street	TAYLOR	ACT	2913	149.119151	-35.1468042	Land	409	Luton Gungahlin	Nick Paine	0	0	0	0.0	542.0
83004	residential	First home buyers and investors take note	Offers over $630,000	2023-07-13T10:08:58.350473+10:00	2023-07-17T12:31:31.521895+10:00	24 James Harrison Street	DUNLOP	ACT	2615	149.0175884	-35.1925066	House	411	Luton Kippax	Ben Oostermeyer	3	1	1	5.0	
83005	residential	Sleek style for the lifestyle savvy.	$670,000+	2023-07-13T10:12:04.011644+10:00	2023-07-13T17:31:34.296930+10:00	26/15 Cynthea Teague Crescent	GREENWAY	ACT	2900	149.0737576	-35.4212376	Apartment	2801	Solely Properties	Andrew Thorpe	2	2	3	6.0	
83009	residential	Sought-After Sanctuary Epitomising Lifestyle and Location	Auction 02/08/2023	2023-07-13T10:05:14.367083+10:00	2023-07-17T15:16:52.851107+10:00	18/128 Easty Street	PHILLIP	ACT	2606	149.091327	-35.3480493	House	232	Ray White Canberra	Alec Brown	2	2	2	6.0	
83010	residential	Sensational location	$560,000+	2023-07-13T10:29:53.436778+10:00	2023-07-15T13:16:33.121087+10:00	6/12 Luke Street	HOLT	ACT	2615	149.0178015	-35.22301920000001	Townhouse	411	Luton Kippax	Ben Oostermeyer	3	1	2	3.5	
83016	residential	Illume; a luxurious and spacious lifestyle awaits 	Auction	2023-07-13T10:52:14.938591+10:00	2023-07-18T09:46:48.203152+10:00	31/9 Light Street	GRIFFITH	ACT	2603	149.1358102	-35.3222435	Apartment	412	Luton Manuka	Sophie Luton	3	2	2	6.0	
83022	residential	THE DOOR IS OPEN, WELCOME HOME!	AUCTION on the 5/08/2023 at 2:00pm	2023-07-13T11:03:15.451748+10:00	2023-07-16T09:16:31.505375+10:00	13 Carrodus Street	FRASER	ACT	2615	149.0354478	-35.192381	House	2862	Stone Gungahlin	Kris Hellier	5	2	4	2.5	999.0
83024	residential	Private, peaceful and plenty of room on RZ2 in Kambah!	Auction 29/07/2023	2023-07-13T11:02:10.875365+10:00	2023-07-17T18:16:39.683955+10:00	8 Keeling Place	KAMBAH	ACT	2902	149.0498863	-35.3891094	House	232	Ray White Canberra	Kellie Chalker	4	3	2	1.0	
83026	residential	Palatial Home Siding Reserve with Panoramic Views	EOI: Closes 5.00pm Tuesday 8th August 2023	2023-07-13T11:40:48.616458+10:00	2023-07-17T16:16:32.064070+10:00	64 Ngunawal Drive	ISAACS	ACT	2607	149.1107682	-35.3569725	House	626	Berkely Residential	Simon Richards	4	3	2	0.0	
83029	residential	THE DOOR IS OPEN, WELCOME HOME!	$1,099,000-$1,199,000	2023-07-13T11:47:15.169719+10:00	2023-07-18T10:46:36.413306+10:00	13 Frearson Street	STRATHNAIRN	ACT	2615	148.9927198	-35.2274152	House	2862	Stone Gungahlin	Kris Hellier	5	2	2	5.0	569.0
83030	residential	Excellent Investment Opportunity.	$450,000	2023-07-13T12:01:40.072957+10:00	2023-07-13T12:01:53.397169+10:00	53/39 Benjamin Way	BELCONNEN	ACT	2617	149.0678114	-35.2394983	Unit	408	Luton Belconnen	Phil Rooke	1	1	1	6.0	
83032	residential	FAMILY SIZED TOWNHOME WITH NORTHERLY ASPECT	$799,000 +	2023-07-13T11:59:24.927063+10:00	2023-07-18T15:46:50.903166+10:00	13/44 Catalano Street	WRIGHT	ACT	2611	149.0339505	-35.3192701	Terrace	438	LJ Hooker Woden/Weston	Jane Macken	3	2	2	5.0	
83033	residential	Quality apartment in a superb location	$429,000 +	2023-07-13T11:46:30.930419+10:00	2023-07-18T15:46:55.409564+10:00	17/120 John Gorton Drive	COOMBS	ACT	2611	149.0366356	-35.3184643	Apartment	438	LJ Hooker Woden/Weston	Jane Macken	1	1	1	6.0	
83034	residential	Welcome Home	AUCTION 5/8/2023	2023-07-13T11:49:20.267815+10:00	2023-07-15T19:01:40.082951+10:00	78 Ross Smith Crescent	SCULLIN	ACT	2614	149.0363666	-35.2349132	House	232	Ray White Canberra	Vince Pinneri	3	1	1	3.5	735.0
83035	residential	Contact us today to schedule your private inspection and take the first step toward creating your dream home in Wanniassa!	Auction	2023-07-13T12:09:38.607980+10:00	2023-07-17T19:46:34.812098+10:00	83 Sternberg Crescent	WANNIASSA	ACT	2903	149.0876515	-35.4027328	House	413	Luton Tuggeranong	Mina Etminan	4	2	3	0.5	712.0
83040	residential	Sophisticated Apartment Living	$580,000+	2023-07-13T13:16:08.779327+10:00	2023-07-17T12:01:43.203385+10:00	46/2 Mcmichael Terrace	DENMAN PROSPECT	ACT	2611	149.0304317	-35.2995141	Apartment	232	Ray White Canberra	Nathan Wood	2	2	2	6.0	
83044	residential	FEEL LIKE YOURE HOME AT ENDEAVOUR GROVE	AUCTION	2023-07-13T13:58:38.608863+10:00	2023-07-17T14:16:36.965747+10:00	5/6 Blackett Crescent	GREENWAY	ACT	2900	149.0670841	-35.4000221	Townhouse	34	McIntyre Property	Colin Blunden	3	2	2	2.0	
83046	residential	Panoramic Views in Prime Location	Auction	2023-07-13T13:58:03.508497+10:00	2023-07-18T16:01:54.536370+10:00	9 Brid Place	LYONS	ACT	2606	149.0714882	-35.3373414	House	438	LJ Hooker Woden/Weston	Jane Macken	6	3	2	3.5	1183.0
83048	residential	Opportunity Knox And You're The Winner!	Auction	2023-07-13T14:07:40.332684+10:00	2023-07-16T15:01:41.222186+10:00	44 Knox Street	WATSON	ACT	2602	149.1512496	-35.2357825	House	436	LJ Hooker Dickson	Andrew Browne	4	2	1	0.5	986.0
83054	residential	Entry level home or Perfect Investment in the Inner North!	Auction	2023-07-13T14:27:33.318598+10:00	2023-07-18T11:01:49.143622+10:00	1/47 Majura Avenue	DICKSON	ACT	2602	149.1389111	-35.2574374	Apartment	441	LJ Hooker Kippax	Hannah Green	1	1	1	6.0	
83056	residential	Melba Diamond in the rough, 1124 sqm block 	AUCTION	2023-07-13T14:42:34.524289+10:00	2023-07-14T11:16:35.574570+10:00	77 Alfred Hill Drive	MELBA	ACT	2615	149.0584649	-35.2071377	House	34	McIntyre Property	Scott Isaacs	3	1	2	0.5	1124.0
83058	residential	North Facing living with Raked Ceiling	Auction	2023-07-13T15:40:03.188374+10:00	2023-07-18T17:16:52.379234+10:00	13 Kingsbury Street	GOWRIE	ACT	2904	149.1110072	-35.4114051	House	435	LJ Hooker Tuggeranong	Sally McCallum	3	2	2	1.5	740.0
83059	residential	Potential and Position!	Auction 9 August @ 12.30pm	2023-07-13T15:56:07.251440+10:00	2023-07-18T15:16:32.208895+10:00	13 Maidment Place	KAMBAH	ACT	2902	149.0500208	-35.3933086	House	433	Maloney's Property	Moira Maloney	3	1	0	3.0	852.0
83062	residential	A Home to Warm Your Heart	Auction	2023-07-13T16:15:16.084277+10:00	2023-07-18T10:01:45.397309+10:00	70 Britten-Jones Drive	HOLT	ACT	2615	149.002129	-35.2236352	House	441	LJ Hooker Kippax	Hannah Green	3	2	2	6.0	378.0
83064	residential	rare.gem 	$395,000+	2023-07-13T16:30:20.305860+10:00	2023-07-15T11:16:37.567056+10:00	39/25 Aspinall Street	WATSON	ACT	2602	149.1567991	-35.2303396	Apartment	618	home.by holly	Jenny, Michael And Mark McReynolds	1	1	1	6.0	
83069	residential	Experience the perfect blend of comfort and style in this stunning townhouse!	Auction 10/08/2023	2023-07-13T17:01:35.030305+10:00	2023-07-13T17:01:59.777030+10:00	19/33 Braybrooke Street	BRUCE	ACT	2617	149.1020651	-35.2408913	House	232	Ray White Canberra	Taylor Minchin	3	2	2	6.0	
83104	residential	A Hidden Treasure!	Auction on Site 10 August @ 12.30pm	2023-07-14T09:24:38.935410+10:00	2023-07-17T10:01:59.270519+10:00	30 Jensen Street	HUGHES	ACT	2605	149.0914703	-35.3310131	House	433	Maloney's Property	Moira Maloney	3	1	1	2.0	
83106	residential	A substantial single level residence on a lush level land holding	Expressions of Interest ends 5pm 18th August	2023-07-14T09:40:48.824987+10:00	2023-07-14T12:01:36.837366+10:00	20 Carstensz Street	GRIFFITH	ACT	2603	149.1316015	-35.3309772	House	626	Berkely Residential	Bill Lyristakis	5	3	2	4.5	
83107	residential	A stroke of luck	Auction 02/08/2023	2023-07-14T09:33:10.329439+10:00	2023-07-17T17:16:39.157113+10:00	8 Luckman Place	BANKS	ACT	2906	149.0931668	-35.4729564	House	232	Ray White Canberra	Lisa Silberberg	3	1	1	0.5	401.0
83109	residential	Luxury Living, Breathtaking Views	$739,000+	2023-07-14T10:16:30.445272+10:00	2023-07-14T10:16:38.683173+10:00	Unit 431/Door 1711 WOVA	PHILLIP	ACT	2606	149.0829668	-35.340324	Apartment	443	LJ Hooker Manuka	Samuel Thompson	2	2	2	0.0	
83110	residential	Pre-auction Offers Welcome!	$380,000+	2023-07-14T10:06:53.383952+10:00	2023-07-17T16:31:33.617916+10:00	18/8 Beetaloo Street	HAWKER	ACT	2614	149.0416331	-35.2449242	Unit	441	LJ Hooker Kippax	Eoin Ryan-Hicks	2	1	1	6.0	5519.0
83119	residential	Elevated family home with renovated ensuite and bathroom.	Auction Saturday 29th July 2023 at 10:00am	2023-07-14T11:45:20.929751+10:00	2023-07-16T13:31:38.084868+10:00	1 Gurrang Avenue	NGUNNAWAL	ACT	2913	149.1104766	-35.1706684	House	2542	Hugo. Canberra	Hugo Mendez	4	2	2	5.0	672.0
83136	residential	Ready to occupy soon!	Contact Agent	2023-07-14T13:31:29.371551+10:00	2023-07-14T13:31:53.790507+10:00	149 The Sullivan	LYNEHAM	ACT	2602	149.1328799	-35.2544049	Apartment	1069	Crowthers	Bethany Melmoth	2	2	0	6.5	
83147	residential	Attention tradies and first home buyers!	Auction	2023-07-14T15:11:25.614945+10:00	2023-07-14T16:01:50.857695+10:00	105 Livingston Avenue	KAMBAH	ACT	2902	149.0763898	-35.3904539	House	435	LJ Hooker Tuggeranong	Patrick Kinnane	3	1	2	1.5	
83151	residential	Supreme convenience and lifestyle!	Auction 3:00pm Saturday 5 August	2023-07-14T15:36:21.409507+10:00	2023-07-17T17:31:35.832656+10:00	1/47 Foxall Street	HOLDER	ACT	2611	149.0511158	-35.3372527	Townhouse	618	home.by holly	Rick and Tina Meir	3	2	2	3.0	
83160	residential	Charming Two Bedroom in Kingson Foreshore Precinct	By Negotiation	2023-07-14T16:31:35.947153+10:00	2023-07-14T16:31:46.471119+10:00	26/21 Eastlake Parade	KINGSTON	ACT	2604	149.1456049	-35.3112403	Unit	626	Berkely Residential	Caitlin Nguyen	2	1	1	6.0	
83181	residential	"""Your Tranquil Oasis Awaits"", means the thing that's for sale is a house."	$870,000	2023-07-14T21:26:23.142252+10:00	2023-07-16T20:41:38.283617+10:00	5 Minns place	WESTON	ACT	2611	149.0565821	-35.3383043	House	2207	Zango Private Listers	Michael Fennec	3	1	2	0.5	882.0
83186	residential	Opulent Custom Built Brand New Home !	$1,220,000+	2023-07-15T10:38:36.975081+10:00	2023-07-18T16:32:09.533780+10:00	187 Robin Boyd Crescent	TAYLOR	ACT	2913	149.1008797	-35.1461154	House	636	Impact Properties	Shaun Iqbal	4	3	4	6.0	450.0
83204	residential	Quality entry level home in a quiet location	Auction 12/08/2023	2023-07-17T11:23:15.806729+10:00	2023-07-18T16:17:13.371028+10:00	22 Ferrett Circuit	KAMBAH	ACT	2902	149.0522179	-35.3847079	House	232	Ray White Canberra	Cameron Whitnall	3	1	2	2.5	
83209	residential	CONVENIENT AND QUIET LOCATION	$769,000	2023-07-17T12:31:27.031317+10:00	2023-07-17T12:31:41.220817+10:00	11 Stewart Crescent	MELBA	ACT	2615	149.0521123	-35.2105221	House	1099	The Real Estate Shop	Natalie Roberts	3	1	2	1.5	747.0
83211	residential	bush.retreat	$750,000+	2023-07-17T12:33:36.982485+10:00	2023-07-18T10:46:43.540580+10:00	3/24 Bindaga Place	ARANDA	ACT	2614	149.0747149	-35.2557167	Townhouse	618	home.by holly	Sally Strang	3	2	2	6.0	
83213	residential	Redefining Modern Living!	Auction	2023-07-17T13:41:16.006114+10:00	2023-07-17T14:46:36.321255+10:00	39/6 Ellison Harvey Close	GREENWAY	ACT	2900	149.0751595	-35.4187885	Townhouse	440	LJ Hooker Canberra City	Tom Grenfell	3	2	2	6.0	
83234	residential	Your dream lifestyle home is here	Auction 12/08/2023	2023-07-17T23:01:31.461936+10:00	2023-07-17T23:10:39.462230+10:00	28 Gellert Street	WRIGHT	ACT	2611	149.0267531	-35.3101006	House	1195	Illustrated Properties	Parisa Noubakht	4	3	2	4.0	649.0
83236	residential	Flawless Contemporary Style in the Ultimate Lifestyle Locale	Auction 12/08/23	2023-07-18T09:20:41.122875+10:00	2023-07-18T13:31:32.576552+10:00	4/36 Cameron Road	QUEANBEYAN	NSW	2620	149.2301367	-35.3598488	Townhouse	3720	Ward Estate Agents	Maddie Holst	3	2	2		0.0
83239	residential	The Perfect Combination of Space, Style, and Functionality	Auction 12/08/23	2023-07-18T09:45:41.750317+10:00	2023-07-18T13:31:33.192706+10:00	128 Bicentennial Drive	JERRABOMBERRA	NSW	2619	149.2021786	-35.3893534	House	3720	Ward Estate Agents	Greg Ward	4	2	2		787.0
83240	land	Vacant Block Ready For Build 	$500,000 - $550,000	2023-07-18T10:01:52.305137+10:00	2023-07-18T10:02:00.416414+10:00	48 Lambrigg Road	GOOGONG	NSW	2620	149.2232644	-35.4316871	Land	4178	Raine & Horne Queanbeyan | Jerrabomberra	Kgosi Modiga	0	0	0		534.0
83247	residential	Modern Lifestyle & Perfect Location!	Auction	2023-07-18T12:01:53.064364+10:00	2023-07-18T12:02:31.109842+10:00	18/5 Gould Street	TURNER	ACT	2612	149.1291782	-35.2727172	Apartment	440	LJ Hooker Canberra City	Tom Grenfell	2	2	2	0.0	
83257	residential	Embrace the Charm	$729,000+	2023-07-18T14:13:07.950241+10:00	2023-07-23T11:01:41.206310+10:00	36 Denovan Circuit	CALWELL	ACT	2905	149.1016072	-35.436444	House	233	LJ Hooker Gungahlin	Troy Thompson	3	1	1	3.5	728.0
83259	residential	When location matters	$599,000+	2023-07-18T14:36:02.859950+10:00	2023-07-25T15:16:45.650975+10:00	24/2 Bulletin Street	LAWSON	ACT	2617	149.0876417	-35.2271005	Townhouse	410	MARQ Property	Craig Chapman	2	2	1	6.0	
83264	residential	Inner South Convenience	Auction on site 17 August @ 12.30pm	2023-07-18T15:46:41.159264+10:00	2023-07-18T15:46:53.518293+10:00	17 Arinya Street	NARRABUNDAH	ACT	2604	149.1564914	-35.3354586	DuplexSemi-detached	433	Maloney's Property	Moira Maloney	2	2	0	1.5	
83270	land	563sqm block ready for you to build your dream home	Auction 16/08/2023	2023-07-18T16:02:07.620385+10:00	2023-07-18T16:02:37.439520+10:00	26 Hungerford Street	GOOGONG	NSW	2620	149.2240564	-35.4318927	Land	232	Ray White Canberra	Kate Coultas	0	0	0		563.0
83281	residential	Modern living	$555,000+	2023-07-19T05:50:29.321801+10:00	2023-07-24T12:01:50.453836+10:00	1309/2 Grazier Lane	BELCONNEN	ACT	2617	149.0726354	-35.2407274	Apartment	414	Luton Weston Creek & Molonglo Valley	Josh Wilson	2	2	1	6.0	
83282	residential	Elevated luxury and captivating views - Your dream home awaits	Auction	2023-07-19T08:28:05.913903+10:00	2023-07-24T16:16:34.412473+10:00	14 Bev Lawson Street	CASEY	ACT	2913	149.0890916	-35.1701314	House	4736	Altair Property	Andrew Potts	5	3	2	4.0	
83284	residential	Easy Care Living with space for the whole family!	Auction	2023-07-19T09:10:14.659419+10:00	2023-07-25T16:31:48.204540+10:00	1/40 Henry Kendall Street	FRANKLIN	ACT	2913	149.150213	-35.1946632	Townhouse	437	LJ Hooker Belconnen	Sharon Schnyder	4	3	2	3.0	
83286	residential	Easy Care Living in Wright	Offers over $769,000	2023-07-19T09:29:27.273420+10:00	2023-07-24T09:01:36.799739+10:00	2/243 John Gorton Drive	WRIGHT	ACT	2611	149.030805	-35.3098429	Townhouse	409	Luton Gungahlin	Adrian Giampietro	3	3	2	6.0	
83293	residential	Introducing The Sullivan: A Stylish One-Bedroom Apartment in Vibrant Lyneham!	Contact Agent	2023-07-19T10:11:22.620082+10:00	2023-07-22T14:31:40.884877+10:00	36 The Sullivan	LYNEHAM	ACT	2602	149.1328799	-35.2544049	Apartment	1069	Crowthers	Bethany Melmoth	1	1	0	6.0	
83294	residential	Just a Beautiful Spot to Call Home!	Offers above $900,000	2023-07-19T10:02:35.858864+10:00	2023-07-20T14:01:42.178511+10:00	10 Laby Place	THEODORE	ACT	2905	149.1283272	-35.4479096	House	34	McIntyre Property	Betty Wark	4	2	2	1.5	924.0
83296	residential	You Can Have It All On Auburn Street!	Auction	2023-07-19T10:03:17.462761+10:00	2023-07-23T16:46:40.110061+10:00	25 Auburn Street	AMAROO	ACT	2914	149.1286518	-35.1697218	House	436	LJ Hooker Dickson	Andrew Browne	4	2	2	4.0	736.0
83297	residential	Sophisticated and Chic Terrace Apartment 	Contact Agent	2023-07-19T10:28:02.440270+10:00	2023-07-22T11:46:39.980000+10:00	12 The Sullivan	LYNEHAM	ACT	2602	149.1328799	-35.2544049	Apartment	1069	Crowthers	Bethany Melmoth	1	1	0	6.0	
83298	residential	Bright and Sunny Family Living - Walk to the Shops!	Auction	2023-07-19T10:35:33.592398+10:00	2023-07-22T12:01:35.181889+10:00	38 Louisa Briggs Circuit	BONNER	ACT	2914	149.135347	-35.1636544	House	409	Luton Gungahlin	Adrian Giampietro	4	2	2	5.0	525.0
83299	residential	Introducing A Perfect Investment Or First Home Opportunity!	Offers Over $350,000	2023-07-19T10:45:58.932581+10:00	2023-07-21T10:31:37.214043+10:00	8/113-115 Knox Street	WATSON	ACT	2602	149.1563486	-35.2397874	Apartment	3720	Ward Estate Agents	Greg Ward	2	1	1	5.5	0.0
83301	residential	Stunning 2-Bedroom Apartment with Prime Views & Location!	Auction	2023-07-19T10:49:19.948890+10:00	2023-07-24T14:47:14.186017+10:00	51/26 Antill Street	DICKSON	ACT	2602	149.1363933	-35.2488541	Apartment	440	LJ Hooker Canberra City	Antony Damiano	2	2	2	6.0	
83304	residential	balanced	Auction 10:00 am Saturday 12th August	2023-07-19T11:06:22.654636+10:00	2023-07-24T10:46:42.581066+10:00	10A Hoddle Gardens	AINSLIE	ACT	2602	149.1486476	-35.261196	House	618	home.by holly	Holly Komorowski	3	2	2	6.0	
83305	residential	intertwined	Auction 10:00 am Saturday 12th August	2023-07-19T11:06:22.796684+10:00	2023-07-24T12:46:42.116452+10:00	10B Hoddle Gardens	AINSLIE	ACT	2602	149.1486476	-35.261196	House	618	home.by holly	Holly Komorowski	2	2	2	6.0	
83319	residential	Entry Level in Hawker	Auction	2023-07-19T12:25:14.033271+10:00	2023-07-25T16:31:51.765847+10:00	6/30 Springvale Drive	HAWKER	ACT	2614	149.0431571	-35.2462868	Unit	437	LJ Hooker Belconnen	Kathy Komar	2	1	1	2.0	
83320	residential	How's the serenity...	$699,000+	2023-07-19T12:45:41.590054+10:00	2023-07-20T12:31:39.677967+10:00	7/32 Roderick Street	AMAROO	ACT	2914	149.1257132	-35.1746564	Townhouse	233	LJ Hooker Gungahlin	Jeff Shortland	3	2	2	5.0	250.0
83328	residential	Delightful family home set amongst a mature garden	Auction 16/08/2023	2023-07-19T13:58:31.137833+10:00	2023-07-29T18:39:30.380051+10:00	9 Doyle Terrace	CHAPMAN	ACT	2611	149.0467205	-35.3607976	House	3305	The Real Estate Guy	John Tye	4	2	2	1.0	875.0
83330	residential	Inner City Living with a View	$520,000+	2023-07-19T13:57:25.841132+10:00	2023-07-24T14:32:09.144538+10:00	1017/240 Bunda Street	CITY	ACT	2601	149.134405	-35.2816321	Apartment	436	LJ Hooker Dickson	Ryan Hedley	1	1	1	6.0	
83331	residential	Comfortable, Convenient, Safe Prestige Apartment	Auction, Sat 12th Aug at 10am	2023-07-19T13:52:17.191400+10:00	2023-07-23T21:16:30.543038+10:00	22/11 Wimmera Street	HARRISON	ACT	2914	149.1506799	-35.1993342	Apartment	233	LJ Hooker Gungahlin	Naish Stormon	3	2	2	6.0	
83333	residential	Built to last. Created to enjoy	Auction Onsite	2023-07-19T14:15:08.786864+10:00	2023-07-24T10:01:40.737659+10:00	27 Abena Avenue	CRACE	ACT	2911	149.1047334	-35.2006875	House	410	MARQ Property	Sam Taylor	4	2	2	3.0	373.0
83335	residential	Downsizers and Investors grab this ASAP! 	Auction	2023-07-19T14:02:14.634540+10:00	2023-07-20T11:17:07.951741+10:00	1/37 Chandler Street	BELCONNEN	ACT	2617	149.0705191	-35.2389341	Apartment	437	LJ Hooker Belconnen	Susie Nguyen	2	2	2	6.0	
83337	residential	Exceptional Townhouse In The Heart Of Queanbeyan !	$629,000 - $669,000	2023-07-19T14:37:49.329647+10:00	2023-07-24T10:01:32.654727+10:00	1/69 Gilmore Road	QUEANBEYAN WEST	NSW	2620	149.2130953	-35.3572385	Townhouse	624	Ian McNamee & Partners - Queanbeyan	Lucy MacGregor	3	2	2		
83347	residential	Welcome Home.	Auction 12/08/2023	2023-07-19T15:34:13.857445+10:00	2023-07-24T12:46:43.395498+10:00	2 Moor Place	EVATT	ACT	2617	149.0669328	-35.2076232	House	232	Ray White Canberra	Vince Pinneri	3	1	2	1.0	1013.0
83348	residential	Modern Urban Living at its Absolute Finest	$549,000+	2023-07-19T15:34:14.881338+10:00	2023-07-24T09:32:25.203303+10:00	811/4 Grazier Lane	BELCONNEN	ACT	2617	149.0723288	-35.2402266	Apartment	232	Ray White Canberra	Vince Pinneri	2	2	1	6.0	
83357	residential	You'll feel instantly 'at home!'	$430,000+	2023-07-19T17:11:25.549032+10:00	2023-07-24T15:46:37.491415+10:00	10/39 Gardiner Street	DOWNER	ACT	2602	149.146584	-35.2454646	Apartment	273	Luton Dickson	Aniko and Peter Carey	2	1	1	0.0	
83362	residential	Light filled & amazing views	Auction	2023-07-19T19:07:05.821508+10:00	2023-07-24T16:46:53.357664+10:00	121/81 Constitution Avenue	CAMPBELL	ACT	2612	149.146012	-35.2920181	Apartment	440	LJ Hooker Canberra City	Kaylene King	3	2	2	6.0	
83363	residential	A home and lifestyle to fall in love with	Auction	2023-07-20T06:56:22.688393+10:00	2023-07-24T10:46:50.676696+10:00	3 Salmond Street	CHIFLEY	ACT	2606	149.0739316	-35.3487568	House	414	Luton Weston Creek & Molonglo Valley	Tim and Justine Burke	3	1	1	0.5	881.0
83366	residential	Pristine family residence in an elevated dress circle locale	Auction	2023-07-20T08:35:21.334603+10:00	2023-07-22T16:46:39.212092+10:00	137 Hawkesbury Crescent	FARRER	ACT	2607	149.103234	-35.3809855	House	412	Luton Manuka	Richard Luton	5	2	3	2.5	
83367	residential	Idealistic white picket fenced cottage + self-contained studio at the foot of mount Ainslie Nature Reserve	Auction	2023-07-20T08:35:21.477472+10:00	2023-07-22T16:01:42.589548+10:00	46 Hawdon Street	AINSLIE	ACT	2602	149.1500383	-35.2553334	House	412	Luton Manuka	Sophie Luton	4	2	3	2.5	711.0
83368	residential	Ideal First Home or Investment Opportunity	$465,000	2023-07-20T09:08:35.513971+10:00	2023-07-23T17:01:32.466497+10:00	9/140 Port Jackson Circuit	PHILLIP	ACT	2606	149.0940645	-35.346672	Apartment	414	Luton Weston Creek & Molonglo Valley	Jane Ahern	2	1	1	6.0	
83371	residential	Perfect First Home or Investment Property 	$695,000+	2023-07-20T09:30:43.760065+10:00	2023-07-26T11:31:52.358180+10:00	40 James Smith Circuit	CONDER	ACT	2906	149.0936654	-35.44839870000001	House	34	McIntyre Property	Colin McIntyre	3	1	2	3.5	398.0
83372	residential	Natures doorstep	Auction	2023-07-20T09:27:06.403805+10:00	2023-07-24T14:01:51.321128+10:00	21 Refshauge Crescent	MACGREGOR	ACT	2615	149.000964	-35.2075423	House	2647	Timothy Road	Tim McInnes	3	1	1	6.0	293.0
83373	residential	Dont Wag on this 3 Bedroom Townhouse Opportunity	Auction, Sat 19th Aug at 1pm	2023-07-20T09:29:13.185958+10:00	2023-07-24T18:01:37.120988+10:00	5A Waghorn Street	GUNGAHLIN	ACT	2912	149.1533819	-35.1849762	Townhouse	233	LJ Hooker Gungahlin	Bri Williams	3	2	2	4.5	407.0
83374	residential	Entertainer's Paradise	Auction: Saturday 19th August, On site at 09:00AM	2023-07-20T09:28:49.530177+10:00	2023-07-25T09:31:42.597394+10:00	54 Tepper Circuit	KAMBAH	ACT	2902	149.0528615	-35.3790903	House	443	LJ Hooker Manuka	Samuel Thompson	3	1	2	1.0	
83375	residential	CAN WE FIX IT?...YES WE CAN!!!	AUCTION	2023-07-20T09:41:38.577025+10:00	2023-07-22T18:01:41.790546+10:00	26 Bateman Street	KAMBAH	ACT	2902	149.0492755	-35.3913707	House	34	McIntyre Property	Colin Blunden	4	1	2	1.0	856.0
83377	residential	The Fresh Feel of Giralang	Auction 12 August	2023-07-20T09:48:32.501036+10:00	2023-07-26T12:02:00.026208+10:00	12 Antares Crescent	GIRALANG	ACT	2617	149.098234	-35.2078265	House	436	LJ Hooker Dickson	Ryan Hedley	3	1	2	3.0	
83378	residential	Modern Elegance	Auction: Saturday 12th August, On site at 09:30AM	2023-07-20T09:51:55.729411+10:00	2023-07-25T09:16:40.366822+10:00	65 Clift Crescent	RICHARDSON	ACT	2905	149.1113287	-35.4266357	House	443	LJ Hooker Manuka	Samuel Thompson	4	2	2	2.5	
83379	residential	Tranquil family home	Auction 09/08/2023	2023-07-20T09:54:13.120970+10:00	2023-07-24T10:47:04.343430+10:00	23 John Russell Circuit	CONDER	ACT	2906	149.1028459	-35.4625371	House	232	Ray White Canberra	Lisa Silberberg	4	2	2	3.5	848.0
83386	residential	Relish the Kingston cafe lifestyle at this appealingly placed apartment	$599,000+	2023-07-20T10:23:15.798172+10:00	2023-07-22T18:01:37.646510+10:00	22/15 Howitt Street	KINGSTON	ACT	2604	149.1447624	-35.3166963	House	232	Ray White Canberra	Kellie Chalker	2	1	1	6.0	
83388	residential	It's Elementary My Dear Watson!	$450,000+	2023-07-20T10:32:14.421314+10:00	2023-07-24T09:32:02.149410+10:00	27/28 Watson Street	TURNER	ACT	2612	149.1266788	-35.2716699	Apartment	436	LJ Hooker Dickson	Stephen Bunday	1	1	1	6.0	
83389	residential	Perfection On Pinkerton	Auction	2023-07-20T10:59:42.756213+10:00	2023-07-24T11:16:32.219012+10:00	35/25 Pinkerton Circuit	KAMBAH	ACT	2902	149.0674909	-35.3969442	Townhouse	413	Luton Tuggeranong	Michael Martin	2	1	1	4.5	
83390	residential	Light and charming	Auction	2023-07-20T10:59:40.935881+10:00	2023-07-25T12:46:40.141600+10:00	33/54 Paul Coe Crescent	NGUNNAWAL	ACT	2913	149.118463	-35.1793281	Townhouse	409	Luton Gungahlin	Peter White	3	2	2	5.5	
83391	residential	Resort Style Living in a North Facing Apartment !	$520,000 to $535,000	2023-07-20T11:15:34.538599+10:00	2023-07-26T10:01:55.228386+10:00	14/77 Gozzard Street	GUNGAHLIN	ACT	2912	149.1328774	-35.1819516	Apartment	636	Impact Properties	Mandeep Singh	2	2	2	6.0	
83392	residential	Welcome to Warralonga	Auction 5:00pm Thursday 10 August	2023-07-20T11:18:20.759798+10:00	2023-07-24T09:01:42.238591+10:00	855 Sutton Road	MAJURA	ACT	2609	149.2570237	-35.2902241	House	618	home.by holly	Bianca Way	2	1	4	0.0	13.0
83393	residential	easy.living	Auction 10:00am Saturday 5 August	2023-07-20T11:18:20.606241+10:00	2023-07-26T10:46:39.311067+10:00	101 Burrumarra Avenue	NGUNNAWAL	ACT	2913	149.1035081	-35.1601547	House	618	home.by holly	Ash Costello	2	1	1	6.0	
83394	residential	Seamless Free Flowing Floor Plan, Superb Location.	Auction	2023-07-20T11:20:34.380197+10:00	2023-07-25T10:01:34.291380+10:00	23/4 Thadoona Street	CRACE	ACT	2911	149.109089	-35.201571	Apartment	409	Luton Gungahlin	Stuart James	1	1	1	6.0	
83396	residential	Nightfall - The transitions time!	$420,000	2023-07-20T11:20:13.184154+10:00	2023-07-24T16:31:35.692611+10:00	1902/2 Grazier Lane	BELCONNEN	ACT	2617	149.0726354	-35.2407274	Apartment	437	LJ Hooker Belconnen	Robert Murphy	1	1	1	6.0	
83397	residential	Freshly Renovated Ground Floor Extra-large Apartment !	$464,500+	2023-07-20T11:39:06.940703+10:00	2023-07-26T09:46:52.772228+10:00	46/2 Eardley Street	BRUCE	ACT	2617	149.0923821	-35.2409288	Apartment	636	Impact Properties	Shaun Iqbal	3	2	2	6.0	
83399	land	Land is Ready to Build on NOW !	$550,000  to  $575,000	2023-07-20T11:54:36.602636+10:00	2023-07-20T12:16:43.417252+10:00	218 Glenrock Drive	GOOGONG	NSW	2620	149.2264438	-35.4311668	Land	636	Impact Properties	Shaun Iqbal	0	0	0		505.0
83400	residential	garden.treasure	$760,000+	2023-07-20T11:51:21.171850+10:00	2023-07-24T10:31:46.480735+10:00	65a Barada Crescent	ARANDA	ACT	2614	149.0786199	-35.2609234	DuplexSemi-detached	618	home.by holly	Sally Strang	2	2	1	6.0	
83402	residential	Single Level Living in the Heart of Gungahlin	$749,000	2023-07-20T11:59:14.823067+10:00	2023-07-25T13:46:38.673659+10:00	2/11 Tea Gardens	GUNGAHLIN	ACT	2912	149.1407031	-35.1788516	House	232	Ray White Canberra	Symon Badenoch	3	2	2	4.0	3537.4
83408	residential	quintessential.ainslie 	Auction 12:00pm Saturday 12 August	2023-07-20T12:24:18.821653+10:00	2023-07-26T09:16:36.314713+10:00	212 Duffy Street	AINSLIE	ACT	2602	149.1544797	-35.2577492	House	618	home.by holly	Holly Komorowski	5	3	1	1.0	
83409	residential	Position Perfect	Auction 12/08/2023	2023-07-20T12:29:15.091840+10:00	2023-07-26T10:02:28.061737+10:00	14 Meerup Street	AMAROO	ACT	2914	149.1341807	-35.172269	House	232	Ray White Canberra	Harry McCormack	4	2	4	4.5	712.0
83412	residential	Inner North convenience within your very own 'Sanctuary'	Auction On site 19 Augst 10.00am	2023-07-20T13:29:08.663951+10:00	2023-07-25T11:31:58.676404+10:00	8/50 Ellenborough Street	LYNEHAM	ACT	2602	149.1266007	-35.2389833	Townhouse	433	Maloney's Property	Moira Maloney	3	2	2	3.5	
83415	residential	Sunny, Freestanding Home with Fabulous Floorplan	Auction 12/08/2023	2023-07-20T13:40:12.935217+10:00	2023-07-26T10:17:05.446017+10:00	26A Edmondson Street	CAMPBELL	ACT	2612	149.1530441	-35.2844558	House	232	Ray White Canberra	Leonie Taylor	3	2	2	5.5	459.0
83420	residential	Charming 2 Bedroom Townhouse in Oxley - Ideal for First Home Buyers or Downsizers	Price Guide $569,000+	2023-07-20T14:56:24.465926+10:00	2023-07-22T19:46:35.317515+10:00	9/26 Schonell Circuit	OXLEY	ACT	2903	149.0773153	-35.4089915	Townhouse	440	LJ Hooker Canberra City	Tahmeed Towfiq	2	1	1	1.5	
83423	residential	Home Is Where The Heart Is	Auction	2023-07-20T15:20:24.011007+10:00	2023-07-24T13:17:08.574499+10:00	39 Tyrrell Circuit	KALEEN	ACT	2617	149.1061714	-35.2235896	House	439	LJ Hooker Kaleen	Tim Russell	4	2	3	2.0	774.0
83428	residential	 PEACEFUL HIDEAWAY IN THE HEART OF COOK	Auction 12/08/2023	2023-07-20T15:51:16.848566+10:00	2023-07-23T16:31:42.567802+10:00	23 Dwyer Street	COOK	ACT	2614	149.0679434	-35.2650748	House	232	Ray White Canberra	Phyllis Tidmarsh	5	2	1	1.0	796.0
83433	residential	Cosmopolitan Living at its Best !	$545,000  to  $565,000	2023-07-20T16:20:16.161684+10:00	2023-07-25T10:02:07.995725+10:00	22/283 Flemington Road	FRANKLIN	ACT	2913	149.1507478	-35.1924989	Apartment	636	Impact Properties	Mandeep Singh	2	2	2	6.0	
83436	residential	Elegant and Functional Apartment Living	Offers Over $650,000	2023-07-20T16:45:47.682028+10:00	2023-07-25T11:01:37.667623+10:00	118/15 Coranderrk Street	CITY	ACT	2601	149.135605	-35.2845522	Apartment	1784	Sadil Quinlan	Greg Sadil	2	2	2	6.0	
83439	residential	Fabulously Located, Contemporary Townhouse Living	Auction 19/08/23	2023-07-20T16:50:45.392921+10:00	2023-07-24T10:31:32.704363+10:00	7/15 Ironbark Circuit	JERRABOMBERRA	NSW	2619	149.2127458	-35.383449	Townhouse	3720	Ward Estate Agents	Greg Ward	3	2	2		0.0
83451	residential	Contemporary, light-filled townhouse in a superb location	Auction	2023-07-21T08:14:26.297696+10:00	2023-07-25T11:16:38.838346+10:00	4 English Court	SWINGER HILL	ACT	2606	149.0982788	-35.3533486	House	414	Luton Weston Creek & Molonglo Valley	Tim and Justine Burke	2	1	2	2.5	235.0
83452	residential	Invest now, and enjoy later	$585,000	2023-07-21T08:14:26.438389+10:00	2023-07-26T14:46:45.802359+10:00	38/2 Serventy Street	WRIGHT	ACT	2611	149.0415983	-35.3241899	Apartment	414	Luton Weston Creek & Molonglo Valley	Tim and Justine Burke	2	2	2	6.0	
83472	residential	Large versatile home with views 	Auction 12/08/23	2023-07-21T10:29:18.241626+10:00	2023-07-26T14:01:52.913345+10:00	14 Nardoo Crescent	O'CONNOR	ACT	2602	149.1137306	-35.2560007	House	232	Ray White Canberra	Maree Van Arkel	5	3	2	2.0	911.5
83485	residential	modern.family	$1,020,000+	2023-07-21T13:55:22.272487+10:00	2023-07-24T14:31:46.420941+10:00	1 Maza Place	BONNER	ACT	2914	149.1468213	-35.1596854	House	618	home.by holly	Cris O'Brien	4	2	2	5.0	
83488	residential	Your Perfect Bonner Abode	$799,000+	2023-07-21T13:56:00.786386+10:00	2023-07-25T14:01:46.517129+10:00	23 Pearl Gibbs Circuit	BONNER	ACT	2914	149.1438475	-35.1549436	House	441	LJ Hooker Kippax	Eoin Ryan-Hicks	3	1	1	5.5	250.0
83490	land	Vacant Block	Public Auction	2023-07-21T14:05:28.956229+10:00	2023-07-24T12:16:35.833164+10:00	1 Burra Street	QUEANBEYAN EAST	NSW	2620	149.2470784	-35.3462036	Land	516	LJ Hooker Queanbeyan – Jerrabomberra – Googong	Michael Dyer	0	0	0		754.3
83501	residential	LAND READY TO BUILD!	$509,900	2023-07-21T16:29:43.839618+10:00	2023-07-28T16:05:12.359948+10:00	Lot: 908 Alpine Ash Way	TRALEE	NSW	2620	149.15014119999998	-35.4140045	Land	1958	Village	Vlada Piven	0	0	0	0.0	443.0
83527	residential	I'm Loving It!	$475,000+	2023-07-24T10:12:25.808762+10:00	2023-07-26T11:32:14.390236+10:00	8/2 McMichael Terrace	DENMAN PROSPECT	ACT	2611	149.0304317	-35.2995141	Apartment	438	LJ Hooker Woden/Weston	Zekria Bakhtyar	1	1	1	6.0	
83532	residential	Spacious Townhouse in Central Location	Auction 19/08/23	2023-07-24T11:15:54.194977+10:00	2023-07-24T11:31:31.240473+10:00	7/157-159 Uriarra Road	QUEANBEYAN	NSW	2620	149.214551	-35.3439773	Townhouse	3720	Ward Estate Agents	Greg Ward	2	1	2		0.0
83533	residential	3 Bedroom ensuite apartment with stunning views, space & convenience 	$785,000+	2023-07-24T11:10:15.556633+10:00	2023-07-27T10:32:05.146822+10:00	61/9 Irving Street	PHILLIP	ACT	2606	149.0848505	-35.338371	Apartment	4178	Raine & Horne Queanbeyan | Jerrabomberra	Vic Srbinovski	3	2	2	6.0	
83557	residential	Spectacular New York Loft Style apartment	Offers over $880,000	2023-07-24T14:42:13.973698+10:00	2023-07-25T13:01:52.154084+10:00	807/35 Furzer Street	PHILLIP	ACT	2606	149.084479	-35.3434916	Unit	232	Ray White Canberra	Cameron Whitnall	3	2	2	6.0	
83593	residential	Single level separate title house	Auction	2023-07-25T11:41:19.655341+10:00	2023-07-25T15:01:35.354773+10:00	11 Woodward Loop	TAYLOR	ACT	2913	149.1057772	-35.1518439	House	4736	Altair Property	Rahul Mehta	3	2	2	6.0	207.0
83599	residential	Nothing to do, ready to move in, room to grow with you.	AUCTION	2023-07-25T11:47:34.053206+10:00	2023-07-29T12:16:33.685519+10:00	179 Ellerston Avenue	ISABELLA PLAINS	ACT	2905	149.0900616	-35.4315431	House	34	McIntyre Property	Anne Farrell	3	1	4	0.5	787.0
83607	residential	Separately titled home - Neat & cosy	Auction	2023-07-25T12:31:29.338567+10:00	2023-07-27T16:16:54.472038+10:00	10 Pajong Street	NGUNNAWAL	ACT	2913	149.103669	-35.16105659999999	House	409	Luton Gungahlin	Joanna Chen	3	1	1	4.5	
83608	residential	Award-Winning Nishi Building in NewActon	Enquire today!	2023-07-25T12:59:33.745199+10:00	2023-07-27T14:01:59.635157+10:00	908/25 Edinburgh Avenue	CITY	ACT	2601	149.1225533	-35.2849233	Apartment	1069	Crowthers	Tony Barker	1	1	1	6.0	
83609	residential	California dreaming : Experience this stunning two bedroom apartment in the heart of Coombs	$469,000+	2023-07-25T12:53:16.387157+10:00	2023-07-26T12:46:50.400410+10:00	316/43 Arthur Blakeley Way	COOMBS	ACT	2611	149.036113	-35.3160564	Apartment	232	Ray White Canberra	Taylor Minchin	2	1	1	5.5	
83626	residential	Quiet, Convenient, Beautiful Amaroo Home	Auction, Sat 19th Aug at 2:30 pm	2023-07-25T14:44:54.249988+10:00	2023-08-01T10:01:41.404709+10:00	14 Naas Close	AMAROO	ACT	2914	149.125082	-35.1725321	House	233	LJ Hooker Gungahlin	Troy Thompson	3	1	1	4.0	477.0
83632	residential	AUCTION UNLESS SOLD PRIOR Bidders Guide High $600,000 To LOW $700,000 Bed 3 Bath 1 Car 1 	AUCTION	2023-07-25T15:20:14.294731+10:00	2023-07-28T18:31:34.356788+10:00	29 Charles Street	QUEANBEYAN	NSW	2620	149.2273592	-35.3589441	House	2581	The Property Collective	Jason Maxwell	3	1	1		
83634	residential	Contemporary living and purposefully designed	$1,250,000+	2023-07-25T15:49:01.074289+10:00	2023-07-29T23:16:39.566974+10:00	37 Lanaba Street	CRACE	ACT	2911	149.1103822	-35.2059314	House	410	MARQ Property	Sam Taylor	4	2	2	5.0	457.0
83652	residential	Updated home with multiple entertaining spaces and grassed backyard.	$678,000+	2023-07-26T08:17:23.356369+10:00	2023-07-28T17:01:34.806560+10:00	11/15 Namadgi Circuit	PALMERSTON	ACT	2913	149.1167593	-35.1973892	Townhouse	2542	Hugo. Canberra	Hugo Mendez	3	1	1	4.5	
83657	residential	Location is Key!	Auction	2023-07-26T09:43:19.732185+10:00	2023-07-28T09:01:57.098066+10:00	8/36 Petterd Street	PAGE	ACT	2614	149.0527616	-35.2401061	Unit	437	LJ Hooker Belconnen	Sharon Schnyder	1	1	1	6.0	
83658	residential	Position Plus Potential 	Auction	2023-07-26T09:42:11.650074+10:00	2023-07-26T15:31:44.616141+10:00	27 Daley Crescent	FRASER	ACT	2615	149.0473032	-35.1929919	House	437	LJ Hooker Belconnen	Kathy Komar	4	2	2	1.0	1134.0
83659	residential	Spacious and Exquisite family Residence 	Auction	2023-07-26T09:45:10.776052+10:00	2023-07-26T15:31:49.632443+10:00	54 Marchant Circuit	DUNLOP	ACT	2615	149.0237729	-35.1896831	House	437	LJ Hooker Belconnen	Happy Singh	4	2	2	5.5	472.0
83660	residential	Let's get this started!	$560,000+	2023-07-26T09:47:35.471541+10:00	2023-07-31T12:16:40.336199+10:00	15/13 Sherwood Circuit	GORDON	ACT	2906	149.0897956	-35.4611099	Townhouse	34	McIntyre Property	Terry Cooper	3	1	1	2.5	
83673	residential	Practical family residence in the heart of Kaleen	Auction 17/09/2023	2023-07-26T11:20:18.511908+10:00	2023-07-31T10:47:09.987475+10:00	41 Nambucca Street	KALEEN	ACT	2617	149.1122706	-35.2139639	House	232	Ray White Canberra	Sebastian Gutierrez	3	2	2	1.5	644.0
83678	residential	Start out in style.	$720,000 +	2023-07-26T11:35:15.595018+10:00	2023-08-08T16:00:59.417171+10:00	28 Patten Street	NGUNNAWAL	ACT	2913	149.11097	-35.1766383	House	232	Ray White Canberra	Vince Pinneri	3	1	1	3.5	473.0
83687	residential	Immaculately presented three-bedroom family home	$808,000+	2023-07-26T13:16:02.240761+10:00	2023-07-28T14:16:59.879981+10:00	65 John Crawford Crescent	CASEY	ACT	2913	149.0934359	-35.1716585	House	410	MARQ Property	Natalie Kokic Schmidt	3	2	2	6.0	376.0
83688	residential	Perfect beginning! 	$698,000+	2023-07-26T13:27:03.348283+10:00	2023-07-27T07:16:35.200238+10:00	81 Yumba Avenue	NGUNNAWAL	ACT	2913	149.110627	-35.165971	House	410	MARQ Property	Jason Anasson	3	1	1	6.0	293.0
83691	land	407m2 Block of Land - Make Googong Your Next Home	Auction	2023-07-26T14:01:41.281783+10:00	2023-07-31T08:01:34.362026+10:00	Lot: 3210 Lot 3210 Stage 2/36 Googong Road	GOOGONG	NSW	2620	149.2430395	-35.41829329999999	Land	413	Luton Tuggeranong	Kelsey Tracey	0	0	0		407.0
83692	residential	An inviting home which will spark your creativity, in fabulous peaceful location close to a reserve	Auction	2023-07-26T14:16:34.180765+10:00	2023-07-26T14:17:02.311434+10:00	3 Palana Place	GIRALANG	ACT	2617	149.1037049	-35.2088686	House	273	Luton Dickson	Aniko and Peter Carey	3	1	0	0.0	712.0
83693	residential	Fresh and inviting home on generous cul-de-sac block, with views and scope for your own touch!	Auction	2023-07-26T14:01:38.410015+10:00	2023-08-01T07:31:34.334419+10:00	3 Harland Place	FLYNN	ACT	2615	149.0432691	-35.2020685	House	273	Luton Dickson	Aniko and Peter Carey	3	1	2	1.5	869.0
83694	residential	Admire And Adore On Alston	Auction	2023-07-26T14:01:41.121804+10:00	2023-07-31T10:46:37.310003+10:00	37 Alston Street	CHISHOLM	ACT	2905	149.1236176	-35.4220445	House	413	Luton Tuggeranong	Michael Martin	4	2	4	2.0	916.0
83696	residential	Four-bedroom townhouse with rolling green views	Auction 19/08/2023	2023-07-26T14:12:11.308023+10:00	2023-07-28T10:46:40.966167+10:00	26/41 Leahy Close	NARRABUNDAH	ACT	2604	149.1429966	-35.3433341	Townhouse	232	Ray White Canberra	Kellie Chalker	4	2	2	3.5	
83698	residential	A View for 2!	Auction	2023-07-26T14:28:14.504490+10:00	2023-08-01T16:46:43.347950+10:00	205/55 Dooring Street	DICKSON	ACT	2602	149.1336388	-35.2581979	Apartment	436	LJ Hooker Dickson	Ryan Hedley	2	2	1	6.0	
83699	residential	Luxury entertainers home in prime location	Auction 26/08/23	2023-07-26T14:29:18.064355+10:00	2023-07-27T15:01:48.611654+10:00	143 Miller Street	O'CONNOR	ACT	2602	149.1163294	-35.2524984	House	232	Ray White Canberra	Maree Van Arkel	4	2	2	5.0	780.0
83702	land	389m2 Block of Land - Make Googong Your Next Home	Auction	2023-07-26T14:23:35.704497+10:00	2023-07-26T15:16:43.560634+10:00	Lot 3249 Stage 2/36 Googong Road	GOOGONG	NSW	2620	149.2430395	-35.41829329999999	Land	413	Luton Tuggeranong	Kelsey Tracey	0	0	0		389.0
83706	residential	Stunning Sunsets at Lawson - Opposite Park	Auction	2023-07-26T15:28:48.423010+10:00	2023-07-31T10:16:47.179287+10:00	36 Toorale Terrace	LAWSON	ACT	2617	149.0882104	-35.2290593	Unit	409	Luton Gungahlin	Adrian Giampietro	2	1	1	4.0	
83710	residential	Kitchen magic with a bushland backdrop!	Auction 19/08/2023	2023-07-26T15:39:15.364450+10:00	2023-07-28T12:01:44.868585+10:00	58 Harbison Crescent	WANNIASSA	ACT	2903	149.1032286	-35.3960909	House	232	Ray White Canberra	Kellie Chalker	4	2	1	0.5	805.0
83713	residential	Embrace The Opportunity !	Auction - 19/08/2023	2023-07-26T16:12:48.435667+10:00	2023-07-31T09:31:35.856396+10:00	12 Durham Place	CHISHOLM	ACT	2905	149.1158584	-35.4235742	House	624	Ian McNamee & Partners - Queanbeyan	Steve Taskovski	4	1	0	5.0	1426.0
83718	residential	LAND READY TO BUILD!	$508,900	2023-07-26T16:57:15.454599+10:00	2023-07-27T16:12:47.968757+10:00	Lot: 932 67 Oxalis Crescent	TRALEE	NSW	2620	149.16887809999997	-35.4033481	Land	1958	Village	Vlada Piven	0	0	0	0.0	442.0
83725	residential	Charming dual occupancy 	Auction	2023-07-27T05:46:27.901719+10:00	2023-07-27T16:16:35.514013+10:00	4A Gunn Street	YARRALUMLA	ACT	2600	149.1015038	-35.3119595	House	414	Luton Weston Creek & Molonglo Valley	Josh Wilson	3	1	1	4.0	
83726	residential	Excellent DHA Investment Opportunity in Wright	$795,000	2023-07-27T06:52:23.605844+10:00	2023-07-27T14:16:50.242371+10:00		WRIGHT	ACT	2611	0.0	0.0	House	414	Luton Weston Creek & Molonglo Valley	Tim and Justine Burke	3	2	2	6.0	240.0
83727	residential	Ground level apartment with a spacious courtyard	Auction	2023-07-27T06:52:23.728024+10:00	2023-08-01T10:16:49.180735+10:00	2/38 Bootle Place	PHILLIP	ACT	2606	149.0956063	-35.3448326	Apartment	414	Luton Weston Creek & Molonglo Valley	Julia Atkinson	2	1	1	3.5	
83728	residential	Contemporary, renovated home bathed in natural light	Auction	2023-07-27T06:52:23.450377+10:00	2023-07-31T11:16:39.868787+10:00	9 Tantangara Street	DUFFY	ACT	2611	149.0355401	-35.3386232	House	414	Luton Weston Creek & Molonglo Valley	Tim and Justine Burke	3	1	1	4.5	735.0
83729	residential	Dress circle location with stunning sundrenched northern views	Auction	2023-07-27T07:25:22.985381+10:00	2023-07-31T13:31:47.431588+10:00	24 Chauvel Circle	CHAPMAN	ACT	2611	149.0276495	-35.3500664	House	414	Luton Weston Creek & Molonglo Valley	Tim and Justine Burke	4	2	2	0.5	1499.0
83730	residential	Luxurious 2-Story Apartment in Braddon with a 4.7% rental yield	Offers over $789,000	2023-07-27T08:08:55.842395+10:00	2023-08-01T11:16:51.367171+10:00	408/27 Lonsdale Street	BRADDON	ACT	2612	149.1326108	-35.2719619	Apartment	1069	Crowthers	Tony Barker	2	2	2	6.0	
83731	residential	The Perfect Oasis	Offer Over $640,000	2023-07-27T08:13:10.700255+10:00	2023-07-29T11:16:32.544322+10:00	8 Inglis Place	LATHAM	ACT	2615	149.0303161	-35.215768	House	232	Ray White Canberra	Leonie Taylor	3	1	1	1.5	377.0
83732	residential	6 bedrooms, 3 bathrooms, 3 garages, 2 dwellings	$1,600,000	2023-07-27T09:04:56.977184+10:00	2023-08-01T10:17:10.892644+10:00	1 Blue Folk Lane	STRATHNAIRN	ACT	2615	148.994736	-35.2265111	House	233	LJ Hooker Gungahlin	Jeff Shortland	6	3	3	6.0	542.0
83733	residential	A Military level of care for this home	Auction, Sat 19th Aug at 11:30 am	2023-07-27T09:04:03.811038+10:00	2023-08-01T10:17:13.827465+10:00	2 Adlard Place	GUNGAHLIN	ACT	2912	149.1460221	-35.1827346	House	233	LJ Hooker Gungahlin	Bri Williams	4	2	2	6.0	490.0
83734	residential	Your home awaits	Auction 19/08/23	2023-07-27T09:27:15.870980+10:00	2023-07-31T12:31:43.878459+10:00	12 Akubra Place	DUNLOP	ACT	2615	149.0171852	-35.197608	House	232	Ray White Canberra	Jake Battenally	3	2	2	4.0	450.0
83736	residential	Stunning Modern Townhouse in a Prime Location!	$695,000+	2023-07-27T09:37:32.612906+10:00	2023-07-27T10:47:41.712402+10:00	36/58 Max Jacobs Avenue	WRIGHT	ACT	2611	149.0388765	-35.3224012	Townhouse	34	McIntyre Property	Colin McIntyre	3	3	2	6.0	
83737	residential	Renovated 2 bedroom unit set in a boutique development of only 10 units.	$400,000+	2023-07-27T09:48:45.606633+10:00	2023-08-03T10:51:07.302506+10:00	7/39 Gardiner Street	DOWNER	ACT	2602	149.146584	-35.2454646	Unit	1102	Wright Dunn Real Estate	Peter Andrighetto	2	1	1	6.0	1465.0
83738	residential	good.fortune	Auction 4:00pm Wednesday 16 August	2023-07-27T09:57:23.740312+10:00	2023-07-31T13:46:47.215021+10:00	9 Banjine Street	O'CONNOR	ACT	2602	149.1232718	-35.2538984	House	618	home.by holly	Ash Costello	3	2	2	0.0	658.0
83748	residential	Renovators delight! 	$600,000+	2023-07-27T09:58:18.039518+10:00	2023-08-01T11:16:57.117177+10:00	1/19 Hedger Street	DUNLOP	ACT	2615	149.0270956	-35.1935058	House	232	Ray White Canberra	Jake Battenally	3	2	2	4.5	439.0
83751	residential	Great Home, Great Neighbourhood. Ready for you.	Auction	2023-07-27T10:07:17.942085+10:00	2023-07-31T13:46:57.348666+10:00	28 Olary Street	AMAROO	ACT	2914	149.1349835	-35.1695592	House	436	LJ Hooker Dickson	Nic Salter-Harding	3	2	2	5.5	432.0
83760	residential	Picturesque first home.	Auction 19/08/2023	2023-07-27T11:25:09.149928+10:00	2023-07-31T10:01:52.117591+10:00	4 Elizabeth Jolley Crescent	FRANKLIN	ACT	2913	149.1464494	-35.18888130000001	House	232	Ray White Canberra	Vince Pinneri	3	1	1	6.0	
83763	residential	Stunning Bespoke Penthouse Apartment with Lake Views	Expressions of Interest ending 29th August	2023-07-27T11:54:48.065487+10:00	2023-07-28T14:31:36.673223+10:00	705/21 Marcus Clarke Street	CITY	ACT	2601	149.1248347	-35.2845174	Apartment	626	Berkely Residential	Michael Lyristakis	2	2	2	6.0	
83764	residential	MODERN CHARM WITH SWEEPING VIEWS	$1,349,000 +	2023-07-27T11:56:20.416901+10:00	2023-07-27T13:47:01.755680+10:00	13 Lochee Place	STIRLING	ACT	2611	149.0486569	-35.3460202	House	438	LJ Hooker Woden/Weston	Jane Macken	3	2	2	2.5	822.0
83766	residential	The Place To Call Home!	Auction	2023-07-27T12:12:12.418217+10:00	2023-07-28T17:01:41.197206+10:00	6 Darby Street	KALEEN	ACT	2617	149.1066314	-35.217207	House	439	LJ Hooker Kaleen	Lukas Cole	4	2	6	0.5	728.0
83768	residential	Idyllic Lifestyle Living At LINQ	$589,000+	2023-07-27T12:13:57.579310+10:00	2023-08-01T09:46:41.792628+10:00	28/2 Veryard Lane	BELCONNEN	ACT	2617	149.0727721	-35.2427129	Apartment	438	LJ Hooker Woden/Weston	Jack Flynn	2	2	1	6.0	
83770	residential	Unique Property, Prime Location	Auction	2023-07-27T12:13:21.778846+10:00	2023-07-31T16:31:40.533990+10:00	7 Guthrie Street	DICKSON	ACT	2602	149.1365805	-35.2544181	House	439	LJ Hooker Kaleen	Lukas Cole	3	1	2	3.5	336.0
83771	residential	TOP FLOOR LIVING WITH MOUNTAIN VIEWS	$485,000 +	2023-07-27T12:16:35.694109+10:00	2023-07-27T12:17:18.048917+10:00	316/7 Irving Street	PHILLIP	ACT	2606	149.0845284	-35.3388475	Apartment	438	LJ Hooker Woden/Weston	Jane Macken	1	1	1	6.0	
83772	residential	Modern Neighbourhood Gem	Auction	2023-07-27T12:22:31.157865+10:00	2023-07-31T12:16:48.129281+10:00	29 Scholtens Street	CASEY	ACT	2913	149.1002071	-35.1573177	House	409	Luton Gungahlin	Nick Paine	4	2	2	5.0	481.0
83775	residential	Fully Renovated Separately Titled Home	Auction	2023-07-27T13:16:07.052078+10:00	2023-07-28T13:46:50.867264+10:00	1/26 Wedgwood Close	CHISHOLM	ACT	2905	149.1250944	-35.417938	House	438	LJ Hooker Woden/Weston	Jack Flynn	3	1	2	3.0	426.0
83777	residential	Updated for Stylish, Spacious and Sun-Soaked Modern Living	Auction 18/08/2023	2023-07-27T13:11:16.363433+10:00	2023-08-14T13:31:57.470399+10:00	44 Gillespie Street	WEETANGERA	ACT	2614	149.0467765	-35.247455500000015	Townhouse	232	Ray White Canberra	Alec Brown	4	2	1	2.00	285.00
83782	residential	Recently Renovated Townhouse in the Town Centre ! 	By Negotiation	2023-07-27T13:46:11.197042+10:00	2023-08-01T10:32:13.211862+10:00	25/89 Gungahlin Place	GUNGAHLIN	ACT	2912	149.1353632	-35.1850409	Townhouse	636	Impact Properties	Shaun Iqbal	2	2	2	5.5	
83783	residential	Luxury Meets Functionality	Auction 19/08/2023	2023-07-27T13:54:15.021100+10:00	2023-07-27T16:46:37.494578+10:00	20 Freebury Street	DENMAN PROSPECT	ACT	2611	149.0239969	-35.3007279	House	2300	VERV Property	Alysia Walsh	4	4	2	4.5	426.0
83788	residential	Spacious townhouse in prime location	$490,000+	2023-07-27T14:04:08.491551+10:00	2023-08-02T16:08:53.581466+10:00	55/53 Holborow Avenue	DENMAN PROSPECT	ACT	2611	149.0290483	-35.2991229	Townhouse	2207	Zango Private Listers	John Cantrill	1	1	1	7.2	9362.0
83794	residential	Spacious 4 bedrooms House with Modern Features	Auction	2023-07-27T14:34:45.315671+10:00	2023-08-01T11:01:34.778176+10:00	1 Wilson Street	QUEANBEYAN WEST	NSW	2620	149.2114244	-35.3628878	House	413	Luton Tuggeranong	Team Rahi and Nader	4	2	3	0.0	755.0
83803	residential	FAMILY ENTERTAINER	Auction	2023-07-27T15:32:17.472850+10:00	2023-07-27T15:32:46.385369+10:00	134 Badimara Street	WARAMANGA	ACT	2611	149.0605718	-35.3582418	House	438	LJ Hooker Woden/Weston	Jane Macken	5	2	3	1.0	951.0
83806	residential	Seriously Good Position- Seriously for Sale	Auction	2023-07-27T15:44:17.957859+10:00	2023-08-02T17:02:08.631139+10:00	2407/1 Grazier Lane	BELCONNEN	ACT	2617	149.0724271	-35.2403839	Unit	437	LJ Hooker Belconnen	George Vlandis	2	2	2	6.0	
83810	residential	9th Floor Apartment Perfect Entry Level Home	$405,000+	2023-07-27T16:10:29.596992+10:00	2023-08-02T14:32:01.935976+10:00	901/15 Bowes Street	PHILLIP	ACT	2606	149.086885	-35.343898	Apartment	233	LJ Hooker Gungahlin	Bri Williams	1	1	1	6.0	3377.0
83814	residential	Embrace the Vibrant Lifestyle with Endless Potential!	Auction	2023-07-27T16:41:22.531025+10:00	2023-07-28T10:46:39.169881+10:00	31 Lachlan Street	MACQUARIE	ACT	2614	149.0633783	-35.2516993	House	441	LJ Hooker Kippax	Hannah Green	4	2	2	1.5	747.0
83822	residential	Entry level on the top level	$365,000+	2023-07-28T05:25:25.853973+10:00	2023-08-02T12:31:34.203714+10:00	2/26 Springvale Drive	HAWKER	ACT	2614	149.0431571	-35.2455879	Apartment	414	Luton Weston Creek & Molonglo Valley	Josh Wilson	2	1	1	3.0	
83823	residential	Inner South Convenience	$600,000 Plus	2023-07-28T08:08:04.005761+10:00	2023-07-31T17:31:34.901770+10:00	12/15 Howitt Street	KINGSTON	ACT	2604	149.1447624	-35.3166963	Apartment	433	Maloney's Property	Moira Maloney	2	1	1	6.0	
83827	residential	Brand New Separately Titled Home	Auction	2023-07-28T08:50:43.916052+10:00	2023-08-01T13:31:38.442206+10:00	2/26 Wedgwood Close	CHISHOLM	ACT	2905	149.1250944	-35.417938	House	438	LJ Hooker Woden/Weston	Jack Flynn	3	2	2	4.5	383.0
83830	residential	Spacious Townhouse Living	$720,000+	2023-07-28T09:28:22.611374+10:00	2023-08-11T10:16:34.420948+10:00	34/363 Mirrabei Drive	MONCRIEFF	ACT	2914	149.11459589999998	-35.1538677	Unit	409	Luton Gungahlin	Harman Bedi	3	2	2	6.0	
83831	residential	LIFESTYLE AND LOCATION ALL ON ONE LEVEL BED 2 BATH 1 CAR 1 $600,000-$640,000 	$600,000-$640,000	2023-07-28T09:31:08.026211+10:00	2023-08-03T08:31:31.661523+10:00	6/47 Walker Crescent	JERRABOMBERRA	NSW	2619	149.2056204	-35.3860288	House	2581	The Property Collective	Jason Maxwell	2	1	1	0.0	
83836	residential	urban.expanse	Auction 11:00am Saturday 12 August	2023-07-28T10:09:25.805082+10:00	2023-07-31T13:46:51.371346+10:00	6/1 Mouat Street	LYNEHAM	ACT	2602	149.1327576	-35.2485434	Apartment	618	home.by holly	Ash Costello	3	3	2	4.5	
83837	residential	CHARACTER AND CHARM IN A PRIME LOCATION	$925,000	2023-07-28T10:35:10.764022+10:00	2023-07-30T07:31:32.694286+10:00	10 Carr Crescent	WANNIASSA	ACT	2903	149.0936152	-35.3911989	House	1099	The Real Estate Shop	Natalie Roberts	3	2	2	2.5	940.0
83839	residential	lucky.number.nine	$619,000+	2023-07-28T11:04:51.951921+10:00	2023-08-02T17:31:38.007393+10:00	9/93 Nemarang Crescent	WARAMANGA	ACT	2611	149.0602726	-35.3522906	Townhouse	618	home.by holly	Bianca Way	2	1	1	5.0	
83853	residential	peaceful.position	$590,000+	2023-07-28T13:27:20.502624+10:00	2023-07-31T15:46:38.890864+10:00	63 Whitmore Crescent	WATSON	ACT	2602	149.1678581	-35.2269115	House	618	home.by holly	Cris O'Brien	2	1	1	6.0	
83879	residential	Modern Functional Apartment !	$359,000 - $379,000	2023-07-29T16:59:35.614554+10:00	2023-08-03T13:01:35.478196+10:00	68/39-43 Crawford Street	QUEANBEYAN	NSW	2620	149.2277041	-35.3449595	Apartment	624	Ian McNamee & Partners - Queanbeyan	Michael Edwards	1	1	1		
83883	residential	Picture perfect home on 836m2 sun filled block.	Offers over $839,000	2023-07-31T08:00:16.843392+10:00	2023-08-02T14:02:29.252138+10:00	30 Rischbieth Crescent	GILMORE	ACT	2905	149.1429377	-35.4174413	House	1069	Crowthers	Cameron Cleary	3	2	2	2.0	836.0
83884	residential	HIGH QUALITY RENOVATION AND DESIGN	$810,000	2023-07-31T09:16:34.801504+10:00	2023-07-31T09:16:51.580168+10:00	143 Lawrence Wackett Crescent	THEODORE	ACT	2905	149.1203434	-35.4475919	House	1099	The Real Estate Shop	Natalie Roberts	3	2	2	4.5	795.0
83895	residential	The Epitome of Convenient Living!!	Offers above $405,000	2023-07-31T10:59:00.337574+10:00	2023-08-01T21:31:37.356533+10:00	72/140 Anketell Street	GREENWAY	ACT	2900	149.0659404	-35.4137849	Apartment	34	McIntyre Property	Betty Wark	1	1	1	6.0	
83896	residential	Your perfect entry into Watson!	Auction	2023-07-31T11:00:19.515681+10:00	2023-07-31T16:31:43.505832+10:00	18/19 Aspinall Street	WATSON	ACT	2602	149.155534	-35.2302853	Apartment	440	LJ Hooker Canberra City	Tom Grenfell	3	2	1	4.5	
83898	residential	Welcome to Lucky 88!	Auction	2023-07-31T11:02:11.585784+10:00	2023-07-31T15:01:46.481727+10:00	88/235 Flemington Road	FRANKLIN	ACT	2913	149.148699	-35.201185	Apartment	440	LJ Hooker Canberra City	Tom Grenfell	2	2	2	6.0	
83901	residential	Urban Oasis in the Heart of the City!	$470,000+	2023-07-31T11:31:37.880437+10:00	2023-07-31T11:31:54.369997+10:00	17/50 Moore Street	TURNER	ACT	2612	149.1292676	-35.2712991	Apartment	440	LJ Hooker Canberra City	Tom Grenfell	1	1	1	6.0	
83943	residential	Stunning Single Level Townhouse - Boutique Development 	Auction Saturday 26 August 2023, 10am On Site	2023-08-01T08:42:27.955077+10:00	2023-08-04T13:32:00.543246+10:00	1/6 Edith Place	AMAROO	ACT	2914	149.1353836	-35.1707382	Townhouse	620	Morrissey Property	Trenton Morrissey	3	2	2	3.0	
83946	residential	A project for you	AUCTION	2023-08-01T09:20:34.024421+10:00	2023-08-02T15:01:39.808030+10:00	3/6 Beazley Crescent	CALWELL	ACT	2905	149.096547	-35.4408696	Unit	34	McIntyre Property	Anne Farrell	3	1	0	0.5	398.0
83947	residential	Luxury Living in Prime Campbell Location	$730,000 - $780,000	2023-08-01T09:24:15.338190+10:00	2023-08-01T09:46:36.104988+10:00	101/59 Constitution Avenue	CAMPBELL	ACT	2612	149.1439816	-35.2907655	Apartment	2300	VERV Property	James Scott	2	2	2	6.0	
83951	residential	Contemporary home with three-bedrooms and three-bathrooms.	$750,000+	2023-08-01T09:51:22.012517+10:00	2023-08-01T16:31:35.227400+10:00	48/2 Rouseabout Street	LAWSON	ACT	2617	149.0905532	-35.2279141	Townhouse	2542	Hugo. Canberra	Hugo Mendez	3	3	3	6.0	
83956	residential	North Facing Stunner	Auction, Sat 19th Aug at 10am	2023-08-01T10:08:37.912175+10:00	2023-08-07T10:46:58.254205+10:00	31 Milerum Lane	BONNER	ACT	2914	149.1351231	-35.1552675	House	233	LJ Hooker Gungahlin	Troy Thompson	3	1	2	5.0	250.0
83964	residential	Charming Home - Easy Living	$765,000	2023-08-01T11:10:20.908835+10:00	2023-08-01T11:46:41.909345+10:00	6/31 Walker Crescent	JERRABOMBERRA	NSW	2619	149.2044946	-35.3860035	Townhouse	623	Ray White Queanbeyan | Jerrabomberra	Mike Boyle	3	1	2		
83965	residential	Welcome to Your Dream Home in Belconnen!	$360,000+	2023-08-01T11:03:04.303949+10:00	2023-08-07T16:31:59.924817+10:00	70/13 Chandler Street	BELCONNEN	ACT	2617	149.0694467	-35.2374908	Apartment	232	Ray White Canberra	Jake Battenally	1	1	1	6.0	
83967	residential	Simplicity and convenience	$675,000+	2023-08-01T11:34:18.156898+10:00	2023-08-03T16:01:49.517244+10:00	8/46 Dalkin Crescent	CASEY	ACT	2913	149.0949046	-35.1740953	Townhouse	233	LJ Hooker Gungahlin	Jeff Shortland	3	2	1	5.0	52.0
83976	residential	Make yourself at home	$778,000+	2023-08-01T13:44:04.950134+10:00	2023-08-04T18:01:36.649165+10:00	25 Windradyne Street	NGUNNAWAL	ACT	2913	149.1133918	-35.1646084	House	410	MARQ Property	Jason Anasson	3	1	1	5.0	405.0
83979	residential	Perfect Watson Location	Offers Over $250,000	2023-08-01T13:53:14.703511+10:00	2023-08-03T11:46:35.565859+10:00	8B/109 Knox Street	WATSON	ACT	2602	149.1558705	-35.2393755	Apartment	1784	Sadil Quinlan	Marc Sadil	1	1	1		
84016	residential	READY, SET, RIVETT! 	Auction	2023-08-02T09:54:29.756397+10:00	2023-08-07T17:46:34.434124+10:00	1A Tristania Street	RIVETT	ACT	2611	149.0459109	-35.3422516	Townhouse	413	Luton Tuggeranong	Kelsey Tracey	2	1	1	1.0	
84017	residential	THE DOOR IS OPEN, WELCOME HOME!	$545,000+	2023-08-02T09:53:55.196634+10:00	2023-08-07T13:46:39.191789+10:00	1405/6 Gribble Street	GUNGAHLIN	ACT	2912	149.1311678	-35.1818476	Apartment	2862	Stone Gungahlin	Kris Hellier	2	2	2	6.0	
84024	residential	Home Sweet Home at a Great Location !	By Negotiation	2023-08-02T11:01:34.318643+10:00	2023-08-02T11:02:24.861671+10:00	1 Winter Place	JERRABOMBERRA	NSW	2619	149.2015054	-35.3711588	House	636	Impact Properties	Raj Sahu	3	2	4		939.0
84027	residential	The wait is over	Auction 31/08/23	2023-08-02T10:59:12.772288+10:00	2023-08-02T14:02:12.749742+10:00	81/39 Benjamin Way	BELCONNEN	ACT	2617	149.0678114	-35.2394983	Apartment	232	Ray White Canberra	Jake Battenally	1	1	1	6.0	
84028	residential	Home Sweet Home	Auction	2023-08-02T10:59:11.756085+10:00	2023-08-07T15:32:28.355899+10:00	12 Angora Street	HARRISON	ACT	2914	149.1593904	-35.2005393	House	437	LJ Hooker Belconnen	Kathy Komar	3	2	2	4.5	415.0
84033	residential	Size - Beauty and Private	$430,000	2023-08-02T11:16:51.027246+10:00	2023-08-02T11:16:59.507783+10:00	201/9 Watkin Street	BRUCE	ACT	2617	149.0951537	-35.2451761	Apartment	437	LJ Hooker Belconnen	Robert Murphy	1	1	1	6.0	
84046	residential	Calling all First Home Buyers and Investors!	$590,000+	2023-08-02T12:50:32.539769+10:00	2023-08-03T09:47:13.332335+10:00	13/34 Christmas Street	THEODORE	ACT	2905	149.1281191	-35.4432169	Townhouse	34	McIntyre Property	Colin McIntyre	3	1	1	3.0	345.0
84050	residential	A Great Opportunity	$680,000+	2023-08-02T13:29:10.613830+10:00	2023-08-07T16:31:57.720617+10:00	19 Gamban Square	NGUNNAWAL	ACT	2913	149.1100267	-35.1743338	House	232	Ray White Canberra	Jake Battenally	3	1	1	4.5	354.0
84053	residential	Expansive home with unbeatable potential	Auction 19/08/2023	2023-08-02T13:50:12.362248+10:00	2023-08-03T10:46:56.541247+10:00	73 O'Halloran Circuit	KAMBAH	ACT	2902	149.0590253	-35.3950804	House	232	Ray White Canberra	Dan Cooper	5	2	2	2.5	798.0
84054	residential	1 bedroom ground level unit. Walk to Watson Shops	$250,000+	2023-08-02T14:37:25.602146+10:00	2023-08-03T13:46:11.410514+10:00	1C/6 Irvine Street	WATSON	ACT	2602	149.1560499	-35.239154	Unit	1102	Wright Dunn Real Estate	Peter Andrighetto	1	1	1	3.0	4365.0
84057	residential	Updated, extended and ready for you 	Auction	2023-08-02T15:24:29.108276+10:00	2023-08-08T08:46:34.688866+10:00	15 Ted Richards Street	CASEY	ACT	2913	149.0929426	-35.1708198	House	409	Luton Gungahlin	Peter White	4	3	2	5.0	513.0
84060	residential	Keen Seller will consider genuine offers!	$430,000+	2023-08-02T15:41:37.884187+10:00	2023-08-03T14:16:49.371199+10:00	511/16 Moore Street	CITY	ACT	2601	149.1286187	-35.275924	Apartment	440	LJ Hooker Canberra City	Kaylene King	1	1	1	6.0	
84063	residential	Enter the market or add to your portfolio	$430,000- $460,000	2023-08-02T15:54:13.833905+10:00	2023-08-07T09:31:53.122953+10:00	2/39-41 Booth Street	QUEANBEYAN EAST	NSW	2620	149.245383	-35.3542154	Townhouse	623	Ray White Queanbeyan | Jerrabomberra	Brad O'Mara	2	1	1		122.0
84067	residential	North Facing and Turn Key Ready 	$855,000	2023-08-02T16:31:46.697840+10:00	2023-08-02T16:32:03.874467+10:00	7 Craig Place	FLOREY	ACT	2615	149.0448379	-35.2224359	House	437	LJ Hooker Belconnen	Joy Patel	3	1	0	4.5	844.0
84071	residential	Location, Views and Abundance of Sun Light ! 	By Negotiation	2023-08-02T18:58:19.884061+10:00	2023-08-05T15:01:59.621171+10:00	16/1 Anthony Rolfe Avenue	GUNGAHLIN	ACT	2912	149.1295711	-35.1822141	Apartment	636	Impact Properties	Shaun Iqbal	1	1	1	6.0	
84073	residential	Stunning 1-Bedroom Apartment with Lake Views at Nish, NewActon	Enquire Today!	2023-08-02T21:46:02.891947+10:00	2023-08-02T22:16:44.373791+10:00	910/25 Edinburgh Avenue	CITY	ACT	2601	149.1225478	-35.2849361	Apartment	1069	Crowthers	Tony Barker	1	1	1	6.0	
84075	residential	Light filled + Location 	Auction	2023-08-03T07:54:21.133005+10:00	2023-08-08T09:31:38.895438+10:00	10/8 Giles Street	GRIFFITH	ACT	2603	149.1380549	-35.3186851	Apartment	412	Luton Manuka	Sophie Luton	2	1	1	6.0	
84076	residential	Your family's dream starts here! 	Auction	2023-08-03T07:54:20.930876+10:00	2023-08-07T18:31:41.224410+10:00	10 Smyth Place	HUGHES	ACT	2605	149.0978304	-35.3289752	House	412	Luton Manuka	Sophie Luton	4	2	2	4.0	
84078	residential	First time offered for sale in almost 50 years!	$830,000+	2023-08-03T08:31:29.540264+10:00	2023-08-03T08:31:49.041375+10:00	17 Baddeley Crescent	SPENCE	ACT	2615	149.0640237	-35.2039293	House	410	MARQ Property	Justin Taylor	3	1	3	2.0	748.0
84079	residential	Investment opportunity in Casey	Auction 24/08/23	2023-08-03T08:55:14.394429+10:00	2023-08-08T18:46:41.915975+10:00	43 Overall Avenue	CASEY	ACT	2913	149.0907767	-35.1742205	House	232	Ray White Canberra	Jake Battenally	4	2	2	5.0	397.0
84080	residential	Golf course at your doorstep	Auction 24/08/23	2023-08-03T08:51:12.395698+10:00	2023-08-07T16:31:51.416893+10:00	23 Coverdale Street	HOLT	ACT	2615	149.0023082	-35.2208907	House	232	Ray White Canberra	Jake Battenally	3	1	2	4.5	518.0
84086	residential	First Home Buyer's Dream: A Standalone Gem in Ngunnawal	Auction, Sat 26th Aug at 2:30pm	2023-08-03T09:35:51.461464+10:00	2023-08-03T18:01:38.790929+10:00	24 Bungaree Street	NGUNNAWAL	ACT	2913	149.1138912	-35.1807407	House	233	LJ Hooker Gungahlin	Lameh Mourad	3	1	1	1.5	189.0
84088	residential	downer.dreaming 	Auction 1:00pm Saturday 26 August	2023-08-03T09:53:20.732883+10:00	2023-08-08T08:46:38.763180+10:00	83 Price Place	DOWNER	ACT	2602	149.1412898	-35.2474042	House	618	home.by holly	Jenny, Michael And Mark McReynolds	4	2	1	0.0	731.0
84089	residential	Delightful in Dickson	Auction 26/08/2023	2023-08-03T09:51:40.010000+10:00	2023-08-03T12:01:56.588878+10:00	25 Archer Street	DICKSON	ACT	2602	149.1409113	-35.2540903	House	436	LJ Hooker Dickson	Stephen Bunday	3	1	2	2.5	715.8
84091	residential	Super Duper Duplex!	Auction 30/08/2023	2023-08-03T09:50:17.718747+10:00	2023-08-03T11:02:02.755284+10:00	4 Dooring Street	BRADDON	ACT	2612	149.1341183	-35.2628392	DuplexSemi-detached	436	LJ Hooker Dickson	Stephen Bunday	3	1	2	6.0	619.0
84095	residential	Character And Charisma On Corringle 	Auction	2023-08-03T10:39:34.162206+10:00	2023-08-07T10:46:40.259968+10:00	34 Corringle Close	AMAROO	ACT	2914	149.1267124	-35.1732966	House	413	Luton Tuggeranong	Michael Martin	3	2	1	4.0	362.0
84099	residential	Exquisite family entertainer	$1,250,000+	2023-08-03T11:15:34.254211+10:00	2023-08-04T11:32:50.069609+10:00	49 Olive Pink Crescent	BANKS	ACT	2906	149.0978752	-35.4783554	House	435	LJ Hooker Tuggeranong	Sally McCallum	4	2	2	3.0	806.0
84100	residential	The Key to Your Future 	Auction 24/08/2023	2023-08-03T11:05:15.578845+10:00	2023-08-07T12:17:23.678293+10:00	39 Morrison Street	KAMBAH	ACT	2902	149.0721383	-35.3944302	House	232	Ray White Canberra	Alec Brown	3	1	1	2.0	439.0
84102	residential	Luxury Redefined	$1,185,000+	2023-08-03T11:27:15.155815+10:00	2023-08-03T13:31:37.187794+10:00	53/7 State Circle	FORREST	ACT	2603	149.1251891	-35.3125618	Apartment	2300	VERV Property	Jason Roses	2	2	2	6.0	
84105	residential	Tightly Held Family Gem	Auction 24/08/23	2023-08-03T11:25:15.079961+10:00	2023-08-07T12:32:08.572213+10:00	7 Haverfield Place	MCKELLAR	ACT	2617	149.070494	-35.2175108	House	232	Ray White Canberra	Treston Bamber	4	2	2	3.5	707.0
84106	residential	Beautifully Presented and Well-Located Home of Superb Quality	Auction 26/08/2023	2023-08-03T11:29:14.831881+10:00	2023-08-07T17:46:41.526850+10:00	1/15 Tompson Street	GARRAN	ACT	2605	149.1099391	-35.3430279	Townhouse	232	Ray White Canberra	Alec Brown	3	2	2	6.0	
84107	residential	Weetangera Family Living 	Auction 26/08/23	2023-08-03T11:29:14.051898+10:00	2023-08-03T11:47:49.377931+10:00	38 Southwell Street	WEETANGERA	ACT	2614	149.0458271	-35.2498572	House	232	Ray White Canberra	Treston Bamber	4	3	2	1.5	1004.0
84108	residential	Entry level Gowrie home must be sold	Auction 26/08/2023	2023-08-03T11:45:17.431303+10:00	2023-08-04T08:46:32.393939+10:00	59 Bugden Avenue	GOWRIE	ACT	2904	149.107158	-35.4179762	House	232	Ray White Canberra	Dan Cooper	3	1	2	2.5	
84109	residential	Add a few flourishes and capitalise on a fabulous location	Auction 26/08/2023	2023-08-03T11:41:14.147512+10:00	2023-08-08T10:31:49.668669+10:00	46 Mackennal Street	LYNEHAM	ACT	2602	149.1232443	-35.2455825	House	232	Ray White Canberra	Andrew Lonsdale	2	1	1	2.0	
84111	residential	 Extended family home with fresh modern appeal	Auction 26/08/2023	2023-08-03T11:47:35.091151+10:00	2023-08-03T11:48:19.210693+10:00	44 McIntosh Street	SCULLIN	ACT	2614	149.0399075	-35.2350212	House	232	Ray White Canberra	Phyllis Tidmarsh	3	1	2	4.5	758.0
84112	residential	Breathtaking Northerly Apartment	$569,000+	2023-08-03T11:49:14.746670+10:00	2023-08-08T14:31:37.355515+10:00	20/566 Cotter Road	WRIGHT	ACT	2611	149.043254	-35.32531549999999	Apartment	2300	VERV Property	Jason Roses	2	2	2	6.0	
84113	residential	Live the Turner Lifestyle	Auction 26/08/2023	2023-08-03T11:57:34.816557+10:00	2023-08-08T12:01:44.618690+10:00	20/9 Wedge Crescent	TURNER	ACT	2612	149.1293364	-35.2626117	Apartment	414	Luton Weston Creek & Molonglo Valley	Jane Ahern	2	1	1	6.0	
84115	residential	Home Sweet Home	Auction	2023-08-03T11:59:57.512874+10:00	2023-08-07T12:01:53.299775+10:00	19 Terewah Circuit	KALEEN	ACT	2617	149.1095797	-35.2330193	House	439	LJ Hooker Kaleen	Tim Russell	3	1	2	0.5	741.0
84117	residential	Location, Views & Lifestyle - Have it All!	Auction 24/08/2023	2023-08-03T11:49:11.274790+10:00	2023-08-04T10:16:51.825530+10:00	23/5 Gould Street	TURNER	ACT	2612	149.1291782	-35.2727172	Apartment	232	Ray White Canberra	Symon Badenoch	2	2	1	6.0	1733.8
84124	residential	LOT 929 - NEW HOUSE AND LAND RELEASE!	$952,900	2023-08-03T12:42:40.056900+10:00	2023-08-10T12:53:51.036651+10:00	61 Oxalis Crescent	TRALEE	NSW	2620	149.168952	-35.4029964	House	1958	Village	Vlada Piven	5	2	2	0.0	442.0
84125	residential	The gift	$785,000 +	2023-08-03T12:40:58.763278+10:00	2023-08-04T11:46:42.952769+10:00	96 MacFarlane Burnet Avenue	MACGREGOR	ACT	2615	149.0033836	-35.209159	House	2647	Timothy Road	Tim McInnes	3	2	1	3.5	446.92
84128	residential	Refreshed character cottage with approved extension plans	Auction 26/08/2023	2023-08-03T13:01:13.654115+10:00	2023-08-07T16:16:56.274174+10:00	43 Foveaux Street	AINSLIE	ACT	2602	149.1455863	-35.2651707	House	232	Ray White Canberra	Andrew Lonsdale	2	1	2	0.5	1017.0
84132	residential	best of both worlds	$710,000+	2023-08-03T13:24:18.159600+10:00	2023-08-08T15:01:50.100929+10:00	3/19 De Burgh Street	LYNEHAM	ACT	2602	149.1312199	-35.2567961	Apartment	618	home.by holly	Ash Costello	2	2	2	6.0	
84133	residential	perfectly.placed	$760,000+	2023-08-03T13:24:18.016752+10:00	2023-08-08T08:16:40.535337+10:00	8/16 Bradfield Street	DOWNER	ACT	2602	149.1450609	-35.2437633	Apartment	618	home.by holly	Jenny, Michael And Mark McReynolds	3	2	2	6.0	
84134	residential	Your Perfect Urban Retreat!	Auction	2023-08-03T13:39:44.776320+10:00	2023-08-07T13:31:53.546496+10:00	13/21 Aspinall Street	WATSON	ACT	2602	149.1568898	-35.2303782	Townhouse	436	LJ Hooker Dickson	Andrew Grenfell	3	2	2	4.5	
84135	residential	Freshly updated in an enviable Woden location with leafy outlook and views of the Brindabellas.	Offers Above $679,000	2023-08-03T13:39:36.272581+10:00	2023-08-07T16:31:43.016111+10:00	170/15 Mower Place	PHILLIP	ACT	2606	149.0920277	-35.3466308	Apartment	599	Cream Residential	Jack Wilson	3	2	2	0.0	
84136	residential	Extended family home conveniently located	Auction 26/08/2023	2023-08-03T13:41:13.206990+10:00	2023-08-05T15:02:34.223838+10:00	66 MacKellar Crescent	COOK	ACT	2614	149.0668603	-35.2649992	House	232	Ray White Canberra	Phyllis Tidmarsh	4	2	1	3.5	824.0
84137	residential	PERFECTLY CONVENIENT	$578,000+	2023-08-03T13:57:04.469419+10:00	2023-08-10T15:31:40.133315+10:00	56/20 Beissel Street	BELCONNEN	ACT	2617	149.063931	-35.2338039	Apartment	410	MARQ Property	Natalie Kokic Schmidt	2	2	1	6.0	
84138	residential	The best of all worlds!	$890,000+	2023-08-03T14:17:17.139260+10:00	2023-08-03T16:26:33.668816+10:00	9 Toohey Place	WANNIASSA	ACT	2903	149.0959918	-35.3861323	House	3859	Matheson Real Estate	Vittoria Matheson	3	2	4	2.0	1276.0
84140	residential	8 Esplin Street	Offers Over: $1,200,000+	2023-08-03T14:23:32.857038+10:00	2023-08-10T12:53:11.426577+10:00	8 Esplin Street	TAYLOR	ACT	2913	149.1014051	-35.1500666	House	2300	VERV Property	Jason Roses	4	3	2	6.0	473.0
84141	residential	2 Esplin Street	Offers Over: $1,285,000	2023-08-03T14:23:32.977210+10:00	2023-08-10T12:52:45.706743+10:00	2 Esplin Street	TAYLOR	ACT	2913	149.1019231	-35.1501478	House	2300	VERV Property	Jason Roses	4	3	2	6.00	482.00
84143	residential	Delightful Family Home in Top Spot!	Auction	2023-08-03T14:22:11.401692+10:00	2023-08-09T13:01:57.022765+10:00	14 Cracknell Street	MONASH	ACT	2904	149.0934717	-35.4094831	House	435	LJ Hooker Tuggeranong	Patrick Kinnane	4	2	2	2.0	765.0
84149	residential	Immaculately Presented Townhouse !	$699,000 - $715,000	2023-08-03T15:14:36.465543+10:00	2023-08-09T21:16:33.816138+10:00	10/29-31 Morton Street	QUEANBEYAN	NSW	2620	149.2258105	-35.34847329999999	Townhouse	624	Ian McNamee & Partners - Queanbeyan	Michael Edwards	3	2	2		
84150	residential	Brand New House	Auction - $999,000+	2023-08-03T15:07:14.903375+10:00	2023-08-10T15:02:29.864819+10:00	9 Jelinek Street	TAYLOR	ACT	2913	149.1019575	-35.1480737	House	2300	VERV Property	Jason Roses	4	3	2	6.0	375.0
84151	residential	Brand New Home	Auction - $1,190,000+	2023-08-03T15:07:15.043414+10:00	2023-08-07T11:16:51.220396+10:00	6 Esplin Street	TAYLOR	ACT	2913	149.1015052	-35.150119	House	2300	VERV Property	Jason Roses	5	3	2	6.0	482.0
84152	residential	Isn't this where you'd rather be?	Auction 18/08/2023	2023-08-03T15:09:12.304048+10:00	2023-08-10T14:17:08.306120+10:00	2/4 Thurlow Place	BELCONNEN	ACT	2617	149.0699665	-35.2465258	Unit	232	Ray White Canberra	Peter Walker	2	1	1	0.5	82.0
84153	residential	ready.set.go	$725,000+	2023-08-03T15:23:17.580565+10:00	2023-08-09T10:16:34.836813+10:00	32 Tregellas Crescent	BANKS	ACT	2906	149.0950731	-35.4694326	House	618	home.by holly	Bianca Way	3	1	1	4.5	
84155	residential	Convenient, comfortable and renovated!	Offers Above $339,000	2023-08-03T15:47:34.710985+10:00	2023-08-09T13:31:38.630977+10:00	62/27 Coxen Street	HUGHES	ACT	2605	149.0923847	-35.3348571	Apartment	599	Cream Residential	Chris Wilson	1	1	0	3.0	
84157	residential	Discover Your Dream Home in Hackett	Auction	2023-08-03T16:00:34.723344+10:00	2023-08-07T09:31:41.564692+10:00	28 Selwyn Street	HACKETT	ACT	2602	149.1647538	-35.2461492	House	441	LJ Hooker Kippax	Eoin Ryan-Hicks	4	2	2	3.5	872.0
84158	residential	Beautifully presented home with spacious floor plan	Auction 23/08/2023	2023-08-03T15:51:10.447521+10:00	2023-08-07T11:32:22.247850+10:00	31 Deamer Crescent	RICHARDSON	ACT	2905	149.1234638	-35.4302849	House	232	Ray White Canberra	Kate Coultas	4	1	4	3.5	777.0
84161	residential	Sundrenched Family Living	Auction	2023-08-03T16:11:17.554240+10:00	2023-08-07T10:46:51.576604+10:00	11 Wakool Circuit	KALEEN	ACT	2617	149.1086624	-35.230948	House	439	LJ Hooker Kaleen	Tim Russell	4	2	1	2.0	760.0
84163	residential	A rare opportunity in the market! Don't miss the opportunity to inspect this magnificent family home! 	Auction	2023-08-03T16:21:44.608962+10:00	2023-08-14T14:01:44.566354+10:00	6 Currey Street	GOWRIE	ACT	2904	149.105566	-35.41553	House	413	Luton Tuggeranong	Mina Etminan	4	2	2	3.00	690.00
84164	residential	City Convenience, Suburban Serenity	$500,000+	2023-08-03T16:24:39.259459+10:00	2023-08-07T12:31:54.052698+10:00	3/25 Forbes Street	TURNER	ACT	2612	149.1296952	-35.2653538	Unit	436	LJ Hooker Dickson	Andrew Grenfell	1	1	1	6.0	
84166	residential	The Search is Over	AUCTION	2023-08-03T16:43:50.259043+10:00	2023-08-10T10:46:47.622272+10:00	5 Hardman Street	O'CONNOR	ACT	2602	149.1206238	-35.2649426	House	436	LJ Hooker Dickson	Ryan Hedley	3	2	1	0.0	732.0
84168	land	Elevated Position, Backing The First Hole	$619,000+	2023-08-03T16:35:16.937088+10:00	2023-08-04T13:31:41.153412+10:00	24 Fullston Way	HOLT	ACT	2615	149.0013949	-35.2284754	Land	232	Ray White Canberra	Nathan Wood	0	0	0		540.0
84176	residential	Bright and welcoming home, radiating warmth and comfort with a few surprises!	Auction	2023-08-03T20:00:21.320313+10:00	2023-08-07T19:31:35.806347+10:00	25 Elizabeth Crescent	MACQUARIE	ACT	2614	149.0574742	-35.2533367	House	273	Luton Dickson	Aniko and Peter Carey	4	2	1	1.0	823.0
84184	residential	Comfort and Convenience!	$835,000	2023-08-04T10:07:14.880262+10:00	2023-08-08T10:16:51.012796+10:00	96/56 Printers Way	KINGSTON	ACT	2604	149.1464681	-35.3158007	Apartment	232	Ray White Canberra	Samuel Fitzsimmons	2	2	2	6.0	
84185	residential	Sensational New Residence of 395m with Pool	EOI: Closes 5.00pm Tuesday 29th August 2023	2023-08-04T10:34:49.187742+10:00	2023-08-09T11:01:41.582029+10:00	5 Normanby Crescent	DEAKIN	ACT	2600	149.1165985	-35.3149278	House	626	Berkely Residential	Simon Richards	4	3	3	6.0	1827.0
84186	residential	Sunny, Easy-Care Living - Perfect Position Near Shops	$599,000+	2023-08-04T11:24:36.714347+10:00	2023-08-09T12:46:35.271444+10:00	6A Junee Street	CRACE	ACT	2911	149.1089189	-35.2012337	Townhouse	409	Luton Gungahlin	Adrian Giampietro	2	2	2	6.0	
84188	residential	SUNSET STUDIO	Auction	2023-08-04T11:32:06.253464+10:00	2023-08-04T11:32:34.414661+10:00	31 Spafford Crescent	FARRER	ACT	2607	149.1044047	-35.3731198	House	438	LJ Hooker Woden/Weston	Jane Macken	3	1	2	1.5	889.0
84193	residential	Charming Two-Bedroom Townhouse with Modern Upgrades !	$509,000 - $549,000	2023-08-04T11:46:36.054459+10:00	2023-08-08T17:01:34.897505+10:00	8/29 High Street	QUEANBEYAN EAST	NSW	2620	149.2408205	-35.3466463	Townhouse	624	Ian McNamee & Partners - Queanbeyan	Lucy MacGregor	2	1	2		
84198	residential	Excellent 1 Bed Apartment with courtyard in Bruce	Auction, Wed 30th Aug at 6pm	2023-08-04T12:48:05.540192+10:00	2023-08-07T12:13:52.083570+10:00	101/1 Watkin Street	BRUCE	ACT	2617	149.09511509999996	-35.2453841	Apartment	233	LJ Hooker Gungahlin	Naish Stormon	1	1	1	6.0	
84199	residential	Upgrade your lifestyle and downsize your workload	Auction 18/08/2023	2023-08-04T13:15:17.004124+10:00	2023-08-10T14:17:16.950169+10:00	1/46 Shumack Street	WEETANGERA	ACT	2614	149.0493854	-35.2487818	House	232	Ray White Canberra	Peter Walker	2	2	1	6.0	
84210	land	Ready to build on, not attached to a Builder. Buy Now & Build soon after!	$389,000	2023-08-04T14:31:48.628430+10:00	2023-08-04T14:32:11.986105+10:00	39 McCauley Avenue	GOOGONG	NSW	2620	149.2359484	-35.4221969	Land	4178	Raine & Horne Queanbeyan | Jerrabomberra	Vic Srbinovski	0	0	0		396.0
84223	residential	The Possibilities May Seem Endless	Auction 27/08/2023	2023-08-04T16:00:16.952520+10:00	2023-08-10T14:17:22.758718+10:00	86 Murranji Street	HAWKER	ACT	2614	149.036286	-35.2479553	House	232	Ray White Canberra	Peter Walker	4	2	2	2.0	1002.0
84233	residential	KOKO offers convenience to enrich your lifestyle. Apartment living at its finest.	$595,000+	2023-08-04T17:00:15.380760+10:00	2023-08-07T16:46:36.239845+10:00	9 Koko/76 Steve Irwin Avenue	WRIGHT	ACT	2611	149.0370545	-35.3202365	Apartment	690	LJ Hooker Project Marketing	Hamid Muradi	2	2	2	7.5	
84250	residential	Desirably Located and Packed with Potential	Auction 2/09/23	2023-08-07T10:30:48.085403+10:00	2023-08-10T13:16:34.888048+10:00	49 The Crescent	QUEANBEYAN	NSW	2620	149.2243965	-35.35388	House	3720	Ward Estate Agents	Greg Ward	3	1	2		644.9
84251	residential	Convenience meets comfort	Auction	2023-08-07T10:21:05.723123+10:00	2023-08-07T17:01:51.766538+10:00	59/241 Flemington Road	FRANKLIN	ACT	2913	149.1489629	-35.2003019	Apartment	440	LJ Hooker Canberra City	Tom Grenfell	2	2	2	6.0	
84262	residential	LOT 923 - NEW HOUSE AND LAND RELEASE!	$769,900	2023-08-07T11:50:10.688473+10:00	2023-08-07T11:50:11.832945+10:00	47 Oxalis Crescent	TRALEE	NSW	2620	149.1691351	-35.4020763	House	1958	Village	Vlada Piven	3	1	2	0.0	405.0
84266	residential	Top Floor Apartment with Northerly Views	$520,000+	2023-08-07T12:49:33.564157+10:00	2023-08-11T15:31:42.918281+10:00	36/60 John Gorton Drive	COOMBS	ACT	2611	149.0401546	-35.3214824	Apartment	438	LJ Hooker Woden/Weston	Andy Greenberger	2	2	2	6.0	
84275	residential	The Ultimate Braddon Lifestyle Awaits	$429,900+	2023-08-07T13:50:09.546159+10:00	2023-08-14T12:31:48.067195+10:00	501/86-88 Northbourne Avenue	BRADDON	ACT	2612	149.1304543	-35.2737618	Apartment	410	MARQ Property	Sam Taylor	1	1	1	6.0	
84299	residential	For a Relaxed and Busy Lifestyle BED 2 BATH 1 CAR 1 + Space $480,000-$510,000 	$480,000-$510,000	2023-08-07T22:42:00.301815+10:00	2023-08-11T15:46:32.737202+10:00	3/25 Henderson Road	QUEANBEYAN	NSW	2620	149.2298631	-35.3435506	Townhouse	2581	The Property Collective	Jason Maxwell	2	1	2		
84301	residential	The Californian dream in Canberra. 	Auction	2023-08-08T09:17:33.564956+10:00	2023-08-14T13:46:46.614047+10:00	7 Timbarra Crescent	O'MALLEY	ACT	2606	149.1083807	-35.3485538	House	412	Luton Manuka	Sophie Luton	5	4	4	4.5	2627.0
84305	residential	family.harmony	Auction 9:30am Saturday 26 August	2023-08-08T09:49:01.331777+10:00	2023-08-14T11:46:40.614870+10:00	30 Chuculba Crescent	GIRALANG	ACT	2617	149.0918007	-35.2103197	House	618	home.by holly	Ash Costello	4	2	3	4.5	
84333	residential	Ideal Downsizer in the Inner City of Queanbeyan.	Auction Onsite	2023-08-08T13:46:15.150539+10:00	2023-08-14T16:01:45.188154+10:00	2/1 Hayes Street	QUEANBEYAN	NSW	2620	149.2335743	-35.3598972	House	623	Ray White Queanbeyan | Jerrabomberra	Brad O'Mara	3	1	1		335.0
84341	residential	A property you do not want to miss!	$560,000+	2023-08-08T14:46:49.430877+10:00	2023-08-14T14:16:36.871761+10:00	40/81 Boxhill Avenue	CONDER	ACT	2906	149.0977164	-35.4616058	Townhouse	34	McIntyre Property	Maya Rourke	3	1	1	2.00	
84351	residential	Absolutely Stunning Home with Modern Elegance and Exceptional Features	Auction 2/09/23	2023-08-08T15:56:19.348908+10:00	2023-08-11T21:16:32.170213+10:00	8 Bailey Crescent	GOOGONG	NSW	2620	149.230322	-35.417096	House	3720	Ward Estate Agents	Greg Ward	4	2	3		965.0
84373	residential	Get more out life! 2 bedrooms plus study.	$589,000+	2023-08-08T17:52:59.513808+10:00	2023-08-14T10:47:23.281794+10:00	4/16 Everist Street 	TAYLOR	ACT	2913	149.1163467	-35.1501188	Townhouse	410	MARQ Property	Tamara Ross	2	1	2	6.0	
84375	residential	Outstanding Townhouse Living	Auction Saturday 2 September 2023, 10am On Site	2023-08-09T08:04:27.191651+10:00	2023-08-12T12:31:51.393698+10:00	2/2 Ridding Street	FORDE	ACT	2914	149.1451162	-35.1778582	Townhouse	620	Morrissey Property	Trenton Morrissey	4	2	2	4.00	
84378	residential	Exceptionally Located Heritage Haven, Enriched with Heart and Soul	Auction 2/09/23	2023-08-09T09:10:45.761731+10:00	2023-08-11T18:01:35.876336+10:00	11 Meredith Street	QUEANBEYAN	NSW	2620	149.2278918	-35.3516375	House	3720	Ward Estate Agents	Greg Ward	4	2	6		656.0
84381	residential	Location is Key!	Auction	2023-08-09T09:41:14.953912+10:00	2023-08-14T14:46:41.237841+10:00	74 Petterd Street	PAGE	ACT	2614	149.0473032	-35.2391696	House	437	LJ Hooker Belconnen	Sharon Schnyder	3	1	1	4.00	756.00
84382	residential	Exquisite Sanctury 	$519,000	2023-08-09T09:42:12.424582+10:00	2023-08-14T14:46:53.280049+10:00	243/325 Anketell Street	GREENWAY	ACT	2900	149.0724679	-35.4216203	Apartment	437	LJ Hooker Belconnen	Susie Nguyen	2	2	1	6.00	
84386	residential	A Blend of Convenience and Lifestyle	Auction	2023-08-09T10:18:00.484867+10:00	2023-08-09T13:16:32.211631+10:00	5 Bakewell Street	COOMBS	ACT	2611	149.0424735	-35.3186715	House	1402	Blackshaw Belconnen	Jack Doyle	3	2	2	6.0	
84388	residential	Immaculate Townhouse, Awaits Your Inspection	$630,000+	2023-08-09T10:34:34.191094+10:00	2023-08-09T14:46:47.268278+10:00	9/40 Sid Barnes Crescent	GORDON	ACT	2906	149.0906387	-35.4542351	Townhouse	34	McIntyre Property	Colin McIntyre	3	2	1	2.00	
84397	residential	Family home brimming with potential	Auction 30/08/2023	2023-08-09T11:37:17.885593+10:00	2023-08-14T15:17:25.594755+10:00	39 Beattie Crescent	CHISHOLM	ACT	2905	149.1149166	-35.4202071	House	232	Ray White Canberra	Kate Coultas	3	1	2	0.50	371.00
84401	residential	Unlimited potential on enormous block	Auction	2023-08-09T12:07:37.991480+10:00	2023-08-14T10:47:36.553780+10:00	19 Chippindall Circuit	THEODORE	ACT	2905	149.1199521	-35.4514319	House	435	LJ Hooker Tuggeranong	Sally McCallum	3	1	1	1.50	936.00
84406	residential	Perfect choice for comfortable and convenient lifestyle	By negotiation	2023-08-09T13:01:16.475609+10:00	2023-08-14T15:31:46.615636+10:00	111/81-83 Cooyong Street	REID	ACT	2612	149.1361162	-35.2796499	Apartment	2746	Canberry Properties	Celiya Young	2	2	2	5.00	
84408	residential	Large family home in a quiet location	Auction	2023-08-09T13:16:29.450645+10:00	2023-08-09T13:16:43.615001+10:00	8 Sax Place	MACGREGOR	ACT	2615	149.0010312	-35.2099104	House	411	Luton Kippax	Ben Oostermeyer	5	2	2	3.5	615.0
84416	residential	Immaculate family home seeks new owner!	Auction	2023-08-09T13:46:41.359080+10:00	2023-08-09T13:46:56.213208+10:00	37 Nangor Street	WARAMANGA	ACT	2611	149.0628188	-35.35802	House	703	Bertram Ellis	Tom Ellis	4	2	4	1.0	718.0
84417	residential	 Get ready to melt for Montgomery	$1,295,000-$1,320,000	2023-08-09T13:46:19.796883+10:00	2023-08-10T10:01:59.860100+10:00	29 Montgomery Avenue	GOOGONG	NSW	2620	149.2380845	-35.4283725	House	2305	Ray White Bungendore	Ava Merriman	4	2	2		660.00
84418	residential	Ideal family home in fantastic location	Auction	2023-08-09T13:53:35.737963+10:00	2023-08-11T13:31:40.816037+10:00	13 Woolrych Street	HOLDER	ACT	2611	149.0455968	-35.3344858	House	412	Luton Manuka	Kate Yates	3	2	3	1.0	937.0
84420	residential	Affordable entry point 2 bedroom unit on ground floor	$325,000	2023-08-09T14:16:56.562245+10:00	2023-08-09T14:17:13.921105+10:00	2/120 Henderson Road	CRESTWOOD	NSW	2620	0	0	Unit	4178	Raine & Horne Queanbeyan | Jerrabomberra	Vic Srbinovski	2	1	1		1050.00
84423	residential	Brand new in Braddon	$440,000+	2023-08-09T14:58:18.415598+10:00	2023-08-13T15:16:30.386187+10:00	412/42 Mort Street	BRADDON	ACT	2612	149.1320725	-35.2724316	Apartment	690	LJ Hooker Project Marketing	James Herbert	1	1	1	8.5	
84425	residential	Three-bedroom plus study separate titled townhouse 	$768,000+	2023-08-09T15:09:04.288380+10:00	2023-08-12T13:46:32.989777+10:00	4 Tuffin Lane	GUNGAHLIN	ACT	2912	149.1387864	-35.182493	Townhouse	410	MARQ Property	Natalie Kokic Schmidt	3	2	2	3.0	254.0
84426	residential	THE DOOR IS OPEN, WELCOME HOME!	$579,000+	2023-08-09T15:08:09.138530+10:00	2023-08-13T23:46:28.917326+10:00	6 Quealy Street	CASEY	ACT	2913	149.09894959999997	-35.1589658	Townhouse	2862	Stone Gungahlin	Kris Hellier	2	2	2	6.00	
84435	residential	AUCTION UNLESS SOLD PRIOR HIGH $800,000 - LOW $900,000 BED 3 BATH 2 CAR 2 	AUCTION	2023-08-09T16:01:38.910898+10:00	2023-08-09T16:01:51.708900+10:00	59 Bluestone Garden	JERRABOMBERRA	NSW	2619	149.2019542	-35.3812583	House	2581	The Property Collective	Jason Maxwell	3	2	2		
84447	residential	WELCOME TO THE PENINSULA	By Negotiation	2023-08-09T16:44:54.637330+10:00	2023-08-10T11:31:38.866765+10:00	6 Tanderra Crescent	NGUNNAWAL	ACT	2913	149.1232364	-35.1799958	House	2862	Stone Gungahlin	Kris Hellier	5	2	5	4.5	1128.0
84449	residential	Exceptional Family Comfort: A Freshly Updated 4-Bedroom Oasis in Dunlop's Quiet Heart	Auction	2023-08-09T16:51:54.741591+10:00	2023-08-10T15:31:49.182044+10:00	20 Swallow Street	DUNLOP	ACT	2615	149.0276128	-35.1963194	House	233	LJ Hooker Gungahlin	Lameh Mourad	4	2	2	4.0	476.0
84454	residential	In the heart of Weston Creek	Auction	2023-08-10T07:01:31.642150+10:00	2023-08-10T07:01:57.899698+10:00	17 Yate Gardens	RIVETT	ACT	2611	149.0398626	-35.3517219	House	414	Luton Weston Creek & Molonglo Valley	Tim and Justine Burke	4	1	3	5.0	1124.0
84455	residential	Fully renovated family home with spectacular mountain views	Auction	2023-08-10T07:01:31.656495+10:00	2023-08-10T07:01:56.529818+10:00	114 Jackie Howe Crescent	MACARTHUR	ACT	2904	149.1313324	-35.404799	House	414	Luton Weston Creek & Molonglo Valley	Tim and Justine Burke	4	2	2	3.5	856.0
84456	residential	When only the best will do	Auction	2023-08-10T06:55:33.396553+10:00	2023-08-14T09:46:59.328942+10:00	40 Heysen Street	WESTON	ACT	2611	149.0591373	-35.3318126	House	414	Luton Weston Creek & Molonglo Valley	Tim and Justine Burke	5	4	3	5.00	746.00
84457	residential	Impressive family living 	$1,078,000+	2023-08-10T08:12:05.121115+10:00	2023-08-14T13:16:58.280970+10:00	10 Cleggett Street	FORDE	ACT	2914	149.144661	-35.1655425	House	410	MARQ Property	Justin Taylor	4	2	2	3.00	325.00
84458	residential	that. 70s. house. yeah. baby	Auction 10:00am Saturday 2 September	2023-08-10T08:43:48.944190+10:00	2023-08-14T08:46:34.261119+10:00	169 Namatijira Drive	FISHER	ACT	2611	149.04811	-35.3594461	House	618	home.by holly	Rick and Tina Meir	4	1	2	1.50	955.00
84460	residential	Elevated Elegance - Modern Tri-level 3 bedroom Home 	$688,000+	2023-08-10T09:07:13.780501+10:00	2023-08-15T13:01:55.179487+10:00	24/20 Pumpurs Crescent	TAYLOR	ACT	2913	149.108086	-35.1531747	House	410	MARQ Property	Justin Taylor	3	2	2	4.50	
84462	residential	Your family's forever home	Auction 31/08/23	2023-08-10T09:11:14.193140+10:00	2023-08-14T10:16:51.083884+10:00	4 Willyama Place	FLYNN	ACT	2615	149.0486928	-35.2031735	House	232	Ray White Canberra	Jake Battenally	4	2	3	3.0	714.0
84463	residential	Modern Family Living	Auction 31/08/23	2023-08-10T09:13:20.840399+10:00	2023-08-14T10:17:00.202469+10:00	3 Levine Street	EVATT	ACT	2617	149.0637996	-35.2095375	House	232	Ray White Canberra	Treston Bamber	3	2	2	1.50	515.00
84464	residential	Delightful downsizer in boutique complex	$560,000+	2023-08-10T09:29:20.584774+10:00	2023-08-14T10:31:58.945845+10:00	3/47 Ashby Circuit	KAMBAH	ACT	2902	149.0642197	-35.3964314	Townhouse	435	LJ Hooker Tuggeranong	Sally McCallum	2	1	1	2.5	295.0
84471	residential	Selling Sunsets	Auction	2023-08-10T10:14:14.033188+10:00	2023-08-13T17:46:31.199803+10:00	49 Investigator Street	RED HILL	ACT	2603	149.1363114	-35.3427442	House	412	Luton Manuka	Sharon Peart	5	3	2	4.0	783.0
84475	residential	Nest or Invest!	$557,000	2023-08-10T10:30:11.282759+10:00	2023-08-10T11:16:39.842617+10:00	3/16 McInnes Street	KARABAR	NSW	2620	149.2341616	-35.3756582	Unit	443	LJ Hooker Manuka	Stephen Thompson	3	1	1		
84476	residential	A Gem of a Two Bedroom Apartment in the Ruby	$430,000	2023-08-10T10:24:25.709555+10:00	2023-08-11T10:01:48.267037+10:00	508/6-8 Gribble Street	GUNGAHLIN	ACT	2912	149.1311378	-35.1824031	Apartment	233	LJ Hooker Gungahlin	Troy Thompson	2	1	1	6.0	
84488	residential	Showcasing the Essence of Location and Lifestyle	Auction 06/09/2023	2023-08-10T11:31:49.111980+10:00	2023-08-10T11:32:15.325245+10:00	38/54 Forbes Street	TURNER	ACT	2612	149.1305973	-35.2625329	Apartment	232	Ray White Canberra	Alec Brown	3	2	1	1.5	
84491	residential	'Oracle' Opportunity!	$399,000+	2023-08-10T11:45:14.679210+10:00	2023-08-15T10:17:05.983108+10:00	6/68 College Street	BELCONNEN	ACT	2617	149.0688302	-35.2428345	Apartment	232	Ray White Canberra	Symon Badenoch	1	1	1	5.00	21898.89
84492	residential	Looking Forde-ward to seeing you there!	$829,000+	2023-08-10T11:52:36.270465+10:00	2023-08-14T13:46:36.731228+10:00	5/25 Hurrell Street	FORDE	ACT	2914	149.143668	-35.1685479	Townhouse	409	Luton Gungahlin	Nick Paine	3	2	2	6.00	
84493	residential	heart.braddon	$595,000 +	2023-08-10T11:51:39.153977+10:00	2023-08-14T14:31:38.890164+10:00	23/30 Lonsdale Street	BRADDON	ACT	2612	149.1332839	-35.2719323	Apartment	618	home.by holly	Holly Komorowski	1	1	1	6.00	
84496	residential	hackett.home 	$1,200,000+	2023-08-10T12:12:19.164636+10:00	2023-08-15T11:16:48.564539+10:00	3 Bragg Street	HACKETT	ACT	2602	149.1627348	-35.2542452	House	618	home.by holly	Jenny, Michael And Mark McReynolds	3	1	2	0.50	
84499	residential	The quintessential family entertainer	Auction Onsite	2023-08-10T12:36:08.457107+10:00	2023-08-14T16:46:41.390007+10:00	183 Langtree Crescent	CRACE	ACT	2911	149.1077182	-35.2053184	House	410	MARQ Property	Sam Taylor	4	2	2	4.50	565.00
84500	residential	Fully renovated weatherboard home	Auction 02/09/23	2023-08-10T12:32:08.315074+10:00	2023-08-10T19:46:35.978832+10:00	102A Miller Street	O'CONNOR	ACT	2602	149.1161477	-35.2556788	House	232	Ray White Canberra	Maree Van Arkel	3	1	1	0.0	
84502	residential	Contemporary Townhouse	Auction 02/09/23	2023-08-10T12:35:10.139952+10:00	2023-08-14T20:01:37.501781+10:00	2/4 Lorraway Street	HOLT	ACT	2615	148.9989115	-35.2294373	House	232	Ray White Canberra	Nathan Wood	3	2	2	6.00	
84504	residential	Take My Breath Away 	Auction	2023-08-10T12:58:31.229797+10:00	2023-08-14T14:01:39.037081+10:00	13 Hickenbotham Street	GORDON	ACT	2906	149.0853923	-35.4678084	House	413	Luton Tuggeranong	Michael Martin	3	2	2	4.00	645.00
84505	residential	Stunning character filled family home.	Auction	2023-08-10T12:47:53.103520+10:00	2023-08-11T15:31:52.393765+10:00	7 Wedgwood Close	CHISHOLM	ACT	2905	149.1243801	-35.4166775	House	435	LJ Hooker Tuggeranong	Sally McCallum	4	2	2	2.5	712.0
84507	residential	live.well	$690,000+	2023-08-10T13:30:36.876402+10:00	2023-08-15T10:16:50.443518+10:00	77 Bargang Crescent	NGUNNAWAL	ACT	2913	149.1015561	-35.1719029	House	618	home.by holly	Cris O'Brien	3	1	1	5.50	
84508	residential	Immaculate family home with room to extend in sought after location	Auction 31/08/2023	2023-08-10T13:20:20.488311+10:00	2023-08-12T12:46:46.998991+10:00	108 Louisa Lawson Crescent	GILMORE	ACT	2905	149.1390925	-35.4160621	House	232	Ray White Canberra	Kate Coultas	4	1	0	4.5	843.0
84514	residential	Stunning 3-bedroom home in Evatt's most desirable street. 	Auction 31/08/2023	2023-08-10T14:13:19.185618+10:00	2023-08-14T17:01:52.178312+10:00	4A Gleadow Street	EVATT	ACT	2617	149.0725418	-35.2121996	House	232	Ray White Canberra	Andrew Lonsdale	3	2	1	3.0	
84515	residential	Brand New and Move-In Ready! 	$820,000 - $880,000	2023-08-10T14:26:35.068000+10:00	2023-08-11T15:01:53.217207+10:00	9 Elkhorn Road	TRALEE	NSW	2620	149.1685775	-35.4003679	House	34	McIntyre Property	Colin McIntyre	3	2	2	0.0	374.8
84517	residential	Immaculate Executive Townhouse in a Desirable Location	Auction 02/09/2023	2023-08-10T14:37:28.160301+10:00	2023-08-15T11:16:38.072130+10:00	20/29 Thynne Street	BRUCE	ACT	2617	149.0941175	-35.2435581	House	273	Luton Dickson	Jane Ahern	3	2	2	4.00	
84520	residential	native.refuge 	$1,320,000+	2023-08-10T14:57:20.492230+10:00	2023-08-15T11:46:46.423324+10:00	61 Sherbrooke Street	AINSLIE	ACT	2602	149.1423069	-35.256983	House	618	home.by holly	Jenny, Michael And Mark McReynolds	3	1	1	5.00	
